[
  {
    "id": "3483083",
    "title": "간송옛집",
    "address": "서울특별시 도봉구 시루봉로 149-18 (방학동)",
    "phone": "",
    "latitude": "37.6649464754",
    "longitude": "127.0282025819",
    "image": "http://tong.visitkorea.or.kr/cms/resource/81/3483081_image2_1.jpg",
    "category": "고택"
  },
  {
    "id": "125800",
    "title": "강릉 선교장",
    "address": "강원특별자치도 강릉시 운정길 63",
    "phone": "",
    "latitude": "37.7865588677",
    "longitude": "128.8850778068",
    "image": "http://tong.visitkorea.or.kr/cms/resource/68/3493168_image2_1.jpg",
    "category": "고택"
  },
  {
    "id": "128759",
    "title": "강릉 수리골 고택",
    "address": "강원특별자치도 강릉시 운정길 125",
    "phone": "",
    "latitude": "37.7862090263",
    "longitude": "128.8911356052",
    "image": "",
    "category": "고택"
  },
  {
    "id": "2702581",
    "title": "강릉 오금집",
    "address": "강원특별자치도 강릉시 강릉대로210번길 23-9 (임당동)",
    "phone": "",
    "latitude": "37.7563708685",
    "longitude": "128.8940418219",
    "image": "http://tong.visitkorea.or.kr/cms/resource/31/3378331_image2_1.JPG",
    "category": "고택"
  },
  {
    "id": "129584",
    "title": "강릉 해운정",
    "address": "강원특별자치도 강릉시 운정길 125",
    "phone": "",
    "latitude": "37.7862090263",
    "longitude": "128.8911356052",
    "image": "http://tong.visitkorea.or.kr/cms/resource/55/3528055_image2_1.jpg",
    "category": "고택"
  },
  {
    "id": "2743393",
    "title": "강선대",
    "address": "충청북도 영동군 양산면 봉곡리 756-1",
    "phone": "",
    "latitude": "36.1352096262",
    "longitude": "127.6957322633",
    "image": "http://tong.visitkorea.or.kr/cms/resource/06/3572806_image2_1.jpg",
    "category": "고택"
  },
  {
    "id": "128653",
    "title": "거창 동계종택",
    "address": "경상남도 거창군 위천면 강동1길 13",
    "phone": "",
    "latitude": "35.7554662802",
    "longitude": "127.8287668267",
    "image": "http://tong.visitkorea.or.kr/cms/resource/17/3571217_image2_1.jpg",
    "category": "고택"
  },
  {
    "id": "1579747",
    "title": "거창 동호리 이씨고가",
    "address": "경상남도 거창군 웅양면 동호1길 217",
    "phone": "",
    "latitude": "35.7989520008",
    "longitude": "127.9273624890",
    "image": "http://tong.visitkorea.or.kr/cms/resource/99/3344299_image2_1.jpg",
    "category": "고택"
  },
  {
    "id": "1578365",
    "title": "거창 무릉리 정씨고가",
    "address": "경상남도 거창군 남하면 무릉3길 19-16",
    "phone": "",
    "latitude": "35.6642175960",
    "longitude": "127.9458144856",
    "image": "http://tong.visitkorea.or.kr/cms/resource/72/3372772_image2_1.JPG",
    "category": "고택"
  },
  {
    "id": "1579811",
    "title": "거창 반구헌",
    "address": "경상남도 거창군 위천면 강천리",
    "phone": "",
    "latitude": "35.7551413233",
    "longitude": "127.8291195821",
    "image": "http://tong.visitkorea.or.kr/cms/resource/13/3571113_image2_1.JPG",
    "category": "고택"
  },
  {
    "id": "128655",
    "title": "거창 황산리 신씨고가",
    "address": "경상남도 거창군 위천면 황산1길 109-5",
    "phone": "",
    "latitude": "35.7629155826",
    "longitude": "127.8370186747",
    "image": "http://tong.visitkorea.or.kr/cms/resource/54/3340954_image2_1.jpg",
    "category": "고택"
  },
  {
    "id": "1578659",
    "title": "거창갈계리임씨고가",
    "address": "경상남도 거창군 북상면 샘골길 6",
    "phone": "",
    "latitude": "35.7804549384",
    "longitude": "127.8189475809",
    "image": "http://tong.visitkorea.or.kr/cms/resource/69/3570269_image2_1.JPG",
    "category": "고택"
  },
  {
    "id": "2707041",
    "title": "경극고택",
    "address": "대구광역시 동구 옻골로 195-3",
    "phone": "",
    "latitude": "35.9074757619",
    "longitude": "128.6866758144",
    "image": "http://tong.visitkorea.or.kr/cms/resource/32/2707032_image2_1.jpg",
    "category": "고택"
  },
  {
    "id": "319577",
    "title": "경주 독락당",
    "address": "경상북도 경주시 안강읍 옥산서원길 300-3",
    "phone": "",
    "latitude": "36.0165611670",
    "longitude": "129.1601060740",
    "image": "http://tong.visitkorea.or.kr/cms/resource/60/3096260_image2_1.jpg",
    "category": "고택"
  },
  {
    "id": "231933",
    "title": "경주 양동 무첨당",
    "address": "경상북도 경주시 강동면 양동마을안길 32-19",
    "phone": "",
    "latitude": "36.0020201213",
    "longitude": "129.2526566960",
    "image": "",
    "category": "고택"
  },
  {
    "id": "129518",
    "title": "경주 양동마을 송첨종택",
    "address": "경상북도 경주시 강동면 양동마을안길 75-6",
    "phone": "",
    "latitude": "36.0038143817",
    "longitude": "129.2536260037",
    "image": "http://tong.visitkorea.or.kr/cms/resource/77/3574177_image2_1.jpg",
    "category": "고택"
  },
  {
    "id": "1937772",
    "title": "계룡 사계고택",
    "address": "충청남도 계룡시 두마면 사계로 122-4",
    "phone": "",
    "latitude": "36.2655816518",
    "longitude": "127.2714082560",
    "image": "http://tong.visitkorea.or.kr/cms/resource/51/3333951_image2_1.jpg",
    "category": "고택"
  },
  {
    "id": "126795",
    "title": "고성 어명기 고택",
    "address": "강원특별자치도 고성군 죽왕면 봉수대길 131-7",
    "phone": "",
    "latitude": "38.3147764738",
    "longitude": "128.5177529605",
    "image": "http://tong.visitkorea.or.kr/cms/resource/56/3378456_image2_1.JPG",
    "category": "고택"
  },
  {
    "id": "1310884",
    "title": "고성장산리허씨고가",
    "address": "경상남도 고성군 마암면 장산길 21",
    "phone": "",
    "latitude": "35.0603507432",
    "longitude": "128.3239501354",
    "image": "http://tong.visitkorea.or.kr/cms/resource/27/3348027_image2_1.jpg",
    "category": "고택"
  },
  {
    "id": "2702475",
    "title": "고진하 가옥",
    "address": "강원특별자치도 영월군 남면 원골길 170-9",
    "phone": "",
    "latitude": "37.1740949988",
    "longitude": "128.3868966548",
    "image": "http://tong.visitkorea.or.kr/cms/resource/45/3388545_image2_1.JPG",
    "category": "고택"
  },
  {
    "id": "126391",
    "title": "고창신재효고택",
    "address": "전북특별자치도 고창군 고창읍 동리로 100",
    "phone": "",
    "latitude": "35.4322000769",
    "longitude": "126.7030639278",
    "image": "http://tong.visitkorea.or.kr/cms/resource/61/3518661_image2_1.jpg",
    "category": "고택"
  },
  {
    "id": "2613459",
    "title": "공주 중학동 구 선교사 가옥",
    "address": "충청남도 공주시 쪽지골길 18-13",
    "phone": "",
    "latitude": "36.4494913770",
    "longitude": "127.1264579543",
    "image": "http://tong.visitkorea.or.kr/cms/resource/13/3536313_image2_1.jpg",
    "category": "고택"
  },
  {
    "id": "1605990",
    "title": "관훈동 민씨 가옥 (구 부마도위박영효가옥)",
    "address": "서울특별시 중구 퇴계로34길 28",
    "phone": "",
    "latitude": "37.5585082277",
    "longitude": "126.9935754302",
    "image": "http://tong.visitkorea.or.kr/cms/resource/88/3077788_image2_1.JPG",
    "category": "고택"
  },
  {
    "id": "2614384",
    "title": "광양 윤동주 유고보존 정병욱 가옥",
    "address": "전라남도 광양시 진월면 망덕길 249",
    "phone": "",
    "latitude": "34.9707924868",
    "longitude": "127.7591880209",
    "image": "http://tong.visitkorea.or.kr/cms/resource/49/3509349_image2_1.jpg",
    "category": "고택"
  },
  {
    "id": "1437090",
    "title": "괴산 송병일 고택",
    "address": "충청북도 괴산군 청천면 청천4길 17",
    "phone": "",
    "latitude": "36.6615668828",
    "longitude": "127.7382139590",
    "image": "http://tong.visitkorea.or.kr/cms/resource/80/3571180_image2_1.jpg",
    "category": "고택"
  },
  {
    "id": "1677831",
    "title": "괴산 수월정",
    "address": "충청북도 괴산군 칠성면 산막이옛길 315-38",
    "phone": "",
    "latitude": "36.7471256016",
    "longitude": "127.8407607044",
    "image": "http://tong.visitkorea.or.kr/cms/resource/74/3338974_image2_1.JPG",
    "category": "고택"
  },
  {
    "id": "1436162",
    "title": "괴산 이창훈 고가",
    "address": "충청북도 괴산군 감물면 충민로오간길 64",
    "phone": "",
    "latitude": "36.8408901738",
    "longitude": "127.8592452848",
    "image": "",
    "category": "고택"
  },
  {
    "id": "127289",
    "title": "괴산 홍범식 고가(벽초 홍명희 생가)",
    "address": "충청북도 괴산군 괴산읍 임꺽정로 16",
    "phone": "",
    "latitude": "36.8134254873",
    "longitude": "127.7949879371",
    "image": "http://tong.visitkorea.or.kr/cms/resource/58/3571158_image2_1.jpg",
    "category": "고택"
  },
  {
    "id": "128994",
    "title": "구례 운조루 고택",
    "address": "전라남도 구례군 토지면 운조루길 59",
    "phone": "",
    "latitude": "35.2061200991",
    "longitude": "127.5154422680",
    "image": "http://tong.visitkorea.or.kr/cms/resource/30/3018030_image2_1.jpg",
    "category": "고택"
  },
  {
    "id": "705411",
    "title": "군위 남천고택",
    "address": "대구광역시 군위군 부계면 한밤5길 19",
    "phone": "",
    "latitude": "36.0586385795",
    "longitude": "128.6539855641",
    "image": "http://tong.visitkorea.or.kr/cms/resource/65/3567365_image2_1.JPG",
    "category": "고택"
  },
  {
    "id": "3013816",
    "title": "궁집",
    "address": "경기도 남양주시 평내로 9 (평내동)",
    "phone": "",
    "latitude": "37.6440553404",
    "longitude": "127.2303930849",
    "image": "http://tong.visitkorea.or.kr/cms/resource/98/3012298_image2_1.jpg",
    "category": "고택"
  },
  {
    "id": "2792804",
    "title": "금시당",
    "address": "경상남도 밀양시 활성로 24-183",
    "phone": "",
    "latitude": "35.4872722244",
    "longitude": "128.7840483695",
    "image": "http://tong.visitkorea.or.kr/cms/resource/01/3355301_image2_1.JPG",
    "category": "고택"
  },
  {
    "id": "2782667",
    "title": "김대기가옥",
    "address": "경상북도 예천군 용문면 금당실길 80-8",
    "phone": "",
    "latitude": "36.6927340151",
    "longitude": "128.4102502449",
    "image": "http://tong.visitkorea.or.kr/cms/resource/16/3405216_image2_1.jpg",
    "category": "고택"
  },
  {
    "id": "2792887",
    "title": "김병호고가",
    "address": "경기도 양평군 용문면 오촌길49번길 6",
    "phone": "",
    "latitude": "37.5352716943",
    "longitude": "127.5861750016",
    "image": "http://tong.visitkorea.or.kr/cms/resource/13/2798313_image2_1.jpg",
    "category": "고택"
  },
  {
    "id": "2717590",
    "title": "김성래 가옥",
    "address": "강원특별자치도 양양군 현남면 북분안길 106-9",
    "phone": "",
    "latitude": "37.9873605468",
    "longitude": "128.7398902422",
    "image": "http://tong.visitkorea.or.kr/cms/resource/69/3393969_image2_1.JPG",
    "category": "고택"
  },
  {
    "id": "2789827",
    "title": "김세균판서고가",
    "address": "충청북도 제천시 한수면 미륵송계로 1588-1",
    "phone": "",
    "latitude": "36.8819978543",
    "longitude": "128.0802965197",
    "image": "",
    "category": "고택"
  },
  {
    "id": "1621410",
    "title": "김용학가옥",
    "address": "광주광역시 북구 하백로29번길 24",
    "phone": "",
    "latitude": "35.1904250142",
    "longitude": "126.8882285875",
    "image": "",
    "category": "고택"
  },
  {
    "id": "1596067",
    "title": "김정회고가",
    "address": "전북특별자치도 고창군 고창읍 도산1길 16",
    "phone": "",
    "latitude": "35.4399123642",
    "longitude": "126.6599286780",
    "image": "http://tong.visitkorea.or.kr/cms/resource/87/3560387_image2_1.jpg",
    "category": "고택"
  },
  {
    "id": "2702472",
    "title": "김종길 가옥",
    "address": "강원특별자치도 영월군 주천면 고가옥길 27",
    "phone": "",
    "latitude": "37.2708259899",
    "longitude": "128.2641992732",
    "image": "http://tong.visitkorea.or.kr/cms/resource/60/3394760_image2_1.JPG",
    "category": "고택"
  },
  {
    "id": "2777043",
    "title": "김택준가옥",
    "address": "강원특별자치도 양양군 현남면 창리길 4",
    "phone": "",
    "latitude": "37.9718821650",
    "longitude": "128.7592834131",
    "image": "http://tong.visitkorea.or.kr/cms/resource/84/3387584_image2_1.JPG",
    "category": "고택"
  },
  {
    "id": "2738663",
    "title": "김환기고택",
    "address": "전라남도 신안군 안좌면 김환기길 38-1",
    "phone": "",
    "latitude": "34.7528589353",
    "longitude": "126.1216209659",
    "image": "http://tong.visitkorea.or.kr/cms/resource/72/3558872_image2_1.jpg",
    "category": "고택"
  },
  {
    "id": "128145",
    "title": "나주 목사내아",
    "address": "전라남도 나주시 금성관길 13-8 (금계동)",
    "phone": "",
    "latitude": "35.0319538909",
    "longitude": "126.7153644838",
    "image": "http://tong.visitkorea.or.kr/cms/resource/15/3533615_image2_1.jpg",
    "category": "고택"
  },
  {
    "id": "2715385",
    "title": "난포정(蘭浦亭)",
    "address": "강원특별자치도 정선군 임계면 봉산리 185",
    "phone": "",
    "latitude": "37.4824766400",
    "longitude": "128.8496264433",
    "image": "",
    "category": "고택"
  },
  {
    "id": "127223",
    "title": "남성재",
    "address": "경상북도 포항시 남구 대송면 남성안길 18-16",
    "phone": "",
    "latitude": "35.9735919096",
    "longitude": "129.3529737123",
    "image": "http://tong.visitkorea.or.kr/cms/resource/45/3409745_image2_1.jpg",
    "category": "고택"
  },
  {
    "id": "250460",
    "title": "남원몽심재",
    "address": "전북특별자치도 남원시 수지면 내호곡2길 19",
    "phone": "",
    "latitude": "35.3379944423",
    "longitude": "127.3747457211",
    "image": "http://tong.visitkorea.or.kr/cms/resource/55/3358455_image2_1.JPG",
    "category": "고택"
  },
  {
    "id": "1590793",
    "title": "노동환가옥",
    "address": "전북특별자치도 임실군 삼계면 후천1길 19-20",
    "phone": "",
    "latitude": "35.4843676764",
    "longitude": "127.2663543040",
    "image": "http://tong.visitkorea.or.kr/cms/resource/87/3576387_image2_1.jpg",
    "category": "고택"
  },
  {
    "id": "231931",
    "title": "논산명재고택",
    "address": "충청남도 논산시 노성면 노성산성길 50",
    "phone": "",
    "latitude": "36.2819800939",
    "longitude": "127.1314897789",
    "image": "",
    "category": "고택"
  },
  {
    "id": "128559",
    "title": "농암종택",
    "address": "경상북도 안동시 도산면 가송길 162-133",
    "phone": "",
    "latitude": "36.7637626222",
    "longitude": "128.8850614602",
    "image": "http://tong.visitkorea.or.kr/cms/resource/34/3553034_image2_1.jpg",
    "category": "고택"
  },
  {
    "id": "1612532",
    "title": "능성세가",
    "address": "대구광역시 북구 서변로3길 47-12",
    "phone": "",
    "latitude": "35.9215168943",
    "longitude": "128.5935669594",
    "image": "http://tong.visitkorea.or.kr/cms/resource/02/1574402_image2_1.jpg",
    "category": "고택"
  },
  {
    "id": "126419",
    "title": "다산초당",
    "address": "전라남도 강진군 도암면 다산초당길 68-35",
    "phone": "",
    "latitude": "34.5806857095",
    "longitude": "126.7450867808",
    "image": "http://tong.visitkorea.or.kr/cms/resource/63/3537763_image2_1.jpg",
    "category": "고택"
  },
  {
    "id": "1627280",
    "title": "단양 조덕수 고택",
    "address": "충청북도 단양군 가곡면 덕천1길 19",
    "phone": "",
    "latitude": "37.0033923462",
    "longitude": "128.3837741612",
    "image": "http://tong.visitkorea.or.kr/cms/resource/45/3561945_image2_1.JPG",
    "category": "고택"
  },
  {
    "id": "1614564",
    "title": "달성 삼가헌 고택",
    "address": "대구광역시 달성군 하빈면 묘리",
    "phone": "",
    "latitude": "35.9067374642",
    "longitude": "128.4126888801",
    "image": "http://tong.visitkorea.or.kr/cms/resource/85/3526385_image2_1.jpg",
    "category": "고택"
  },
  {
    "id": "1610542",
    "title": "달성 조길방 고택",
    "address": "대구광역시 달성군 가창면 정대리",
    "phone": "",
    "latitude": "35.7558493141",
    "longitude": "128.5817753784",
    "image": "http://tong.visitkorea.or.kr/cms/resource/17/3526117_image2_1.jpg",
    "category": "고택"
  },
  {
    "id": "231936",
    "title": "달성 태고정",
    "address": "대구광역시 달성군 하빈면 육신사길 64",
    "phone": "",
    "latitude": "35.9113509020",
    "longitude": "128.4166106288",
    "image": "http://tong.visitkorea.or.kr/cms/resource/26/3537326_image2_1.jpg",
    "category": "고택"
  },
  {
    "id": "228892",
    "title": "담양 명옥헌 원림",
    "address": "전라남도 담양군 고서면 후산길 103",
    "phone": "",
    "latitude": "35.2193707987",
    "longitude": "126.9963905156",
    "image": "http://tong.visitkorea.or.kr/cms/resource/13/3533213_image2_1.jpg",
    "category": "고택"
  },
  {
    "id": "127337",
    "title": "당진 필경사",
    "address": "충청남도 당진시 송악읍 상록수길 97",
    "phone": "",
    "latitude": "36.9520550986",
    "longitude": "126.7717374178",
    "image": "http://tong.visitkorea.or.kr/cms/resource/62/537962_image2_1.jpg",
    "category": "고택"
  },
  {
    "id": "561983",
    "title": "동락원",
    "address": "전북특별자치도 전주시 완산구 은행로 33-6",
    "phone": "",
    "latitude": "35.8168446419",
    "longitude": "127.1529168367",
    "image": "http://tong.visitkorea.or.kr/cms/resource/24/1035824_image2_1.jpg",
    "category": "고택"
  },
  {
    "id": "129539",
    "title": "동천석실",
    "address": "전라남도 완도군 보길면",
    "phone": "",
    "latitude": "34.1539607550",
    "longitude": "126.5458227627",
    "image": "",
    "category": "고택"
  },
  {
    "id": "1395466",
    "title": "만해 한용운 심우장",
    "address": "서울특별시 성북구 성북로29길 24 (성북동)",
    "phone": "",
    "latitude": "37.5936513341",
    "longitude": "126.9918301490",
    "image": "http://tong.visitkorea.or.kr/cms/resource/15/3503015_image2_1.jpg",
    "category": "고택"
  },
  {
    "id": "3089931",
    "title": "모영재",
    "address": "대구광역시 동구 도평로 905 (평광동)",
    "phone": "",
    "latitude": "35.9343149895",
    "longitude": "128.7190416556",
    "image": "http://tong.visitkorea.or.kr/cms/resource/25/3089925_image2_1.JPG",
    "category": "고택"
  },
  {
    "id": "127329",
    "title": "목포시사",
    "address": "전라남도 목포시 유달로 165",
    "phone": "",
    "latitude": "34.7900561250",
    "longitude": "126.3773085853",
    "image": "",
    "category": "고택"
  },
  {
    "id": "129210",
    "title": "무안 유교리 고택",
    "address": "전라남도 무안군 삼향읍 유교리",
    "phone": "",
    "latitude": "34.8474451041",
    "longitude": "126.4382823702",
    "image": "http://tong.visitkorea.or.kr/cms/resource/61/3535761_image2_1.jpg",
    "category": "고택"
  },
  {
    "id": "2721915",
    "title": "밀양 월연정",
    "address": "경상남도 밀양시 용평로 330-7",
    "phone": "",
    "latitude": "35.4986625332",
    "longitude": "128.7799539707",
    "image": "http://tong.visitkorea.or.kr/cms/resource/16/3536316_image2_1.jpg",
    "category": "고택"
  },
  {
    "id": "2793068",
    "title": "밀양 퇴로리 이씨고가",
    "address": "경상남도 밀양시 부북면 퇴로2길 26-1",
    "phone": "",
    "latitude": "35.5511468261",
    "longitude": "128.7005011540",
    "image": "http://tong.visitkorea.or.kr/cms/resource/75/3582575_image2_1.jpg",
    "category": "고택"
  },
  {
    "id": "2792794",
    "title": "밀양교동 손씨고가",
    "address": "경상남도 밀양시 밀양향교3길 7",
    "phone": "",
    "latitude": "35.5049863657",
    "longitude": "128.7552142961",
    "image": "http://tong.visitkorea.or.kr/cms/resource/13/3337013_image2_1.jpg",
    "category": "고택"
  },
  {
    "id": "2792819",
    "title": "박시춘옛집",
    "address": "경상남도 밀양시 중앙로 324",
    "phone": "",
    "latitude": "35.4921711431",
    "longitude": "128.7552701989",
    "image": "http://tong.visitkorea.or.kr/cms/resource/57/3519557_image2_1.jpg",
    "category": "고택"
  },
  {
    "id": "2481866",
    "title": "백인제가옥",
    "address": "서울특별시 종로구 북촌로7길 16 (가회동)",
    "phone": "",
    "latitude": "37.5804693948",
    "longitude": "126.9841423343",
    "image": "http://tong.visitkorea.or.kr/cms/resource/92/3096392_image2_1.jpg",
    "category": "고택"
  },
  {
    "id": "3038830",
    "title": "백하구려",
    "address": "경상북도 안동시 내앞길 35",
    "phone": "",
    "latitude": "36.5346216385",
    "longitude": "128.8598870640",
    "image": "http://tong.visitkorea.or.kr/cms/resource/16/3038816_image2_1.jpg",
    "category": "고택"
  },
  {
    "id": "3076943",
    "title": "벽파정",
    "address": "전라남도 진도군 고군면 벽파길 90",
    "phone": "",
    "latitude": "34.5382922398",
    "longitude": "126.3448007969",
    "image": "",
    "category": "고택"
  },
  {
    "id": "2782543",
    "title": "보성 이진래고택",
    "address": "전라남도 보성군 득량면 강골길 34-6",
    "phone": "061-853-2885",
    "latitude": "34.7627865563",
    "longitude": "127.1866546307",
    "image": "http://tong.visitkorea.or.kr/cms/resource/25/3553125_image2_1.jpg",
    "category": "고택"
  },
  {
    "id": "129688",
    "title": "보은 우당고택",
    "address": "충청북도 보은군 장안면 개안길 10-2",
    "phone": "",
    "latitude": "36.4689398869",
    "longitude": "127.7901841203",
    "image": "http://tong.visitkorea.or.kr/cms/resource/69/3575369_image2_1.jpg",
    "category": "고택"
  },
  {
    "id": "3447048",
    "title": "사우당 종택",
    "address": "경상북도 성주군 수륜면 수륜길 54-4",
    "phone": "",
    "latitude": "35.8282983045",
    "longitude": "128.2149751605",
    "image": "http://tong.visitkorea.or.kr/cms/resource/24/3447024_image2_1.jpg",
    "category": "고택"
  },
  {
    "id": "2786838",
    "title": "산청 남사리 이씨고가",
    "address": "경상남도 산청군 단성면 지리산대로2883번길 16",
    "phone": "",
    "latitude": "35.2749669184",
    "longitude": "127.9350396687",
    "image": "http://tong.visitkorea.or.kr/cms/resource/93/3537993_image2_1.jpg",
    "category": "고택"
  },
  {
    "id": "2785866",
    "title": "산청 단계리 권씨고가(권씨고가)",
    "address": "경상남도 산청군 신등면 단계리",
    "phone": "",
    "latitude": "35.3802399143",
    "longitude": "128.0211209853",
    "image": "",
    "category": "고택"
  },
  {
    "id": "2669992",
    "title": "산청 이사재",
    "address": "경상남도 산청군 단성면 상동길 77",
    "phone": "",
    "latitude": "35.2766472854",
    "longitude": "127.9350923975",
    "image": "",
    "category": "고택"
  },
  {
    "id": "1606009",
    "title": "삼청동오위장김춘영가옥",
    "address": "서울특별시 중구 퇴계로34길 28",
    "phone": "",
    "latitude": "37.5586776601",
    "longitude": "126.9939920541",
    "image": "http://tong.visitkorea.or.kr/cms/resource/63/2031863_image2_1.jpg",
    "category": "고택"
  },
  {
    "id": "2998479",
    "title": "삼판서고택",
    "address": "경상북도 영주시 가흥동",
    "phone": "",
    "latitude": "36.8206121307",
    "longitude": "128.6162170634",
    "image": "http://tong.visitkorea.or.kr/cms/resource/60/2998360_image2_1.JPG",
    "category": "고택"
  },
  {
    "id": "127520",
    "title": "서귀포 김정희 유배지",
    "address": "제주특별자치도 서귀포시 대정읍 추사로 44",
    "phone": "",
    "latitude": "33.2499652075",
    "longitude": "126.2783333805",
    "image": "http://tong.visitkorea.or.kr/cms/resource/00/3552000_image2_1.jpg",
    "category": "고택"
  },
  {
    "id": "129046",
    "title": "서벽고택",
    "address": "경상북도 청송군 파천면 중들2길 22-2",
    "phone": "",
    "latitude": "36.4586250462",
    "longitude": "129.0223526645",
    "image": "http://tong.visitkorea.or.kr/cms/resource/47/3408447_image2_1.jpg",
    "category": "고택"
  },
  {
    "id": "129125",
    "title": "서산 경주김씨 고택",
    "address": "충청남도 서산시 음암면 한다리길 45",
    "phone": "",
    "latitude": "36.7411555975",
    "longitude": "126.5193409357",
    "image": "",
    "category": "고택"
  },
  {
    "id": "1373030",
    "title": "서상돈 고택",
    "address": "대구광역시 중구 서성로 6-1",
    "phone": "",
    "latitude": "35.8672090500",
    "longitude": "128.5878384221",
    "image": "http://tong.visitkorea.or.kr/cms/resource/39/3510039_image2_1.jpg",
    "category": "고택"
  },
  {
    "id": "231938",
    "title": "서울 경모궁지",
    "address": "서울특별시 종로구 대학로 103 (연건동)",
    "phone": "",
    "latitude": "37.5805308178",
    "longitude": "127.0018851600",
    "image": "http://tong.visitkorea.or.kr/cms/resource/30/1984630_image2_1.jpg",
    "category": "고택"
  },
  {
    "id": "1055245",
    "title": "서천 이하복 고택",
    "address": "충청남도 서천군 기산면 신막로57번길 32-3",
    "phone": "",
    "latitude": "36.0810243924",
    "longitude": "126.7593284025",
    "image": "http://tong.visitkorea.or.kr/cms/resource/34/3567134_image2_1.jpg",
    "category": "고택"
  },
  {
    "id": "2677655",
    "title": "성주 백세각",
    "address": "경상북도 성주군 초전면 고산1길 21-3",
    "phone": "",
    "latitude": "35.9880668540",
    "longitude": "128.2457513835",
    "image": "http://tong.visitkorea.or.kr/cms/resource/41/3566041_image2_1.JPG",
    "category": "고택"
  },
  {
    "id": "3444479",
    "title": "성주 예산리 배리댁",
    "address": "경상북도 성주군 성주읍 예산3길 22",
    "phone": "",
    "latitude": "35.9234110199",
    "longitude": "128.2851330179",
    "image": "http://tong.visitkorea.or.kr/cms/resource/63/3444363_image2_1.jpg",
    "category": "고택"
  },
  {
    "id": "2615336",
    "title": "소양고택",
    "address": "전북특별자치도 완주군 소양면 송광수만로 472-23",
    "phone": "",
    "latitude": "35.9037252144",
    "longitude": "127.2431037503",
    "image": "http://tong.visitkorea.or.kr/cms/resource/65/3351465_image2_1.jpg",
    "category": "고택"
  },
  {
    "id": "2715383",
    "title": "수고당",
    "address": "강원특별자치도 정선군 임계면 수고당길 110",
    "phone": "",
    "latitude": "37.4847902374",
    "longitude": "128.8483792626",
    "image": "http://tong.visitkorea.or.kr/cms/resource/25/3334325_image2_1.jpg",
    "category": "고택"
  },
  {
    "id": "127371",
    "title": "수내동가옥(이택구가옥)",
    "address": "경기도 성남시 분당구 성남대로 550 (수내동)",
    "phone": "",
    "latitude": "37.3803506411",
    "longitude": "127.1211938588",
    "image": "http://tong.visitkorea.or.kr/cms/resource/72/3053472_image2_1.jpg",
    "category": "고택"
  },
  {
    "id": "1606014",
    "title": "순정효황후윤씨친가",
    "address": "서울특별시 중구 퇴계로34길 28",
    "phone": "",
    "latitude": "37.5586776601",
    "longitude": "126.9939920541",
    "image": "http://tong.visitkorea.or.kr/cms/resource/00/3083100_image2_1.JPG",
    "category": "고택"
  },
  {
    "id": "1627236",
    "title": "신경섭 전통가옥",
    "address": "충청남도 보령시 청라면 장밭길 62",
    "phone": "",
    "latitude": "36.4208033535",
    "longitude": "126.6682943279",
    "image": "http://tong.visitkorea.or.kr/cms/resource/35/3568035_image2_1.jpg",
    "category": "고택"
  },
  {
    "id": "127430",
    "title": "신석정 고택",
    "address": "전북특별자치도 부안군 부안읍 석정로 63",
    "phone": "",
    "latitude": "35.7399323108",
    "longitude": "126.7342838931",
    "image": "http://tong.visitkorea.or.kr/cms/resource/91/3375191_image2_1.JPG",
    "category": "고택"
  },
  {
    "id": "125925",
    "title": "아산 맹씨 행단(맹사성 고택)",
    "address": "충청남도 아산시 배방읍 행단길 25",
    "phone": "",
    "latitude": "36.7470834810",
    "longitude": "127.0418713801",
    "image": "http://tong.visitkorea.or.kr/cms/resource/08/3569408_image2_1.jpg",
    "category": "고택"
  },
  {
    "id": "2822429",
    "title": "아산 외암마을 건재고택",
    "address": "충청남도 아산시 외암민속길 19-6",
    "phone": "",
    "latitude": "36.7305016035",
    "longitude": "127.0162463633",
    "image": "http://tong.visitkorea.or.kr/cms/resource/22/2822422_image2_1.jpg",
    "category": "고택"
  },
  {
    "id": "1626699",
    "title": "아산 외암마을 참판댁",
    "address": "충청남도 아산시 송악면 외암민속길 42-15",
    "phone": "",
    "latitude": "36.7303544385",
    "longitude": "127.0185072748",
    "image": "http://tong.visitkorea.or.kr/cms/resource/11/2822411_image2_1.jpg",
    "category": "고택"
  },
  {
    "id": "250436",
    "title": "아산 용궁댁",
    "address": "충청남도 아산시 도고면 도고산로587번길 73-21",
    "phone": "",
    "latitude": "36.7405371637",
    "longitude": "126.8926127926",
    "image": "http://tong.visitkorea.or.kr/cms/resource/39/3337539_image2_1.jpg",
    "category": "고택"
  },
  {
    "id": "264450",
    "title": "안동 고성이씨 탑동파 종택",
    "address": "경상북도 안동시 임청각길 103 (법흥동)",
    "phone": "",
    "latitude": "36.5663297727",
    "longitude": "128.7467128503",
    "image": "http://tong.visitkorea.or.kr/cms/resource/91/3535891_image2_1.jpg",
    "category": "고택"
  },
  {
    "id": "129035",
    "title": "안동 묵계서원 및 보백당 종택",
    "address": "경상북도 안동시 길안면 충효로 1736-5",
    "phone": "",
    "latitude": "36.4174860341",
    "longitude": "128.9153938790",
    "image": "http://tong.visitkorea.or.kr/cms/resource/46/3565246_image2_1.jpg",
    "category": "고택"
  },
  {
    "id": "231940",
    "title": "안동 소호헌",
    "address": "경상북도 안동시 일직면 소호헌길 2",
    "phone": "",
    "latitude": "36.4636954687",
    "longitude": "128.6634620903",
    "image": "http://tong.visitkorea.or.kr/cms/resource/99/3579499_image2_1.jpg",
    "category": "고택"
  },
  {
    "id": "231909",
    "title": "안동 예안이씨 충효당",
    "address": "경상북도 안동시 풍산읍 우렁길 73",
    "phone": "",
    "latitude": "36.5744507148",
    "longitude": "128.5802079641",
    "image": "http://tong.visitkorea.or.kr/cms/resource/81/3575981_image2_1.jpg",
    "category": "고택"
  },
  {
    "id": "127014",
    "title": "안동 유일재 종택",
    "address": "경상북도 안동시 와룡면 선돌길 113-16",
    "phone": "",
    "latitude": "36.6163884647",
    "longitude": "128.7740895225",
    "image": "http://tong.visitkorea.or.kr/cms/resource/63/3579463_image2_1.jpg",
    "category": "고택"
  },
  {
    "id": "231892",
    "title": "안동 의성김씨 종택",
    "address": "경상북도 안동시 임하면 내앞길 1-11",
    "phone": "",
    "latitude": "36.5358464307",
    "longitude": "128.8562873473",
    "image": "http://tong.visitkorea.or.kr/cms/resource/79/3579479_image2_1.jpg",
    "category": "고택"
  },
  {
    "id": "128560",
    "title": "안동 임청각",
    "address": "경상북도 안동시 임청각길 63 (법흥동)",
    "phone": "",
    "latitude": "36.5651798723",
    "longitude": "128.7450297004",
    "image": "http://tong.visitkorea.or.kr/cms/resource/48/3506348_image2_1.jpg",
    "category": "고택"
  },
  {
    "id": "794941",
    "title": "안동 진성이씨 종택",
    "address": "경상북도 안동시 와룡면 태리금산로 242-5",
    "phone": "",
    "latitude": "36.6396990796",
    "longitude": "128.7417083874",
    "image": "http://tong.visitkorea.or.kr/cms/resource/71/3579571_image2_1.jpg",
    "category": "고택"
  },
  {
    "id": "1623828",
    "title": "안동권씨유회당종가일원",
    "address": "대전광역시 중구 운남로 63",
    "phone": "",
    "latitude": "36.2776965146",
    "longitude": "127.4047932299",
    "image": "http://tong.visitkorea.or.kr/cms/resource/60/3063060_image2_1.JPG",
    "category": "고택"
  },
  {
    "id": "128542",
    "title": "안성 정무공 오정방 고택",
    "address": "경기도 안성시 양성면 덕봉길 66",
    "phone": "",
    "latitude": "37.0457710579",
    "longitude": "127.1858668232",
    "image": "http://tong.visitkorea.or.kr/cms/resource/03/3577703_image2_1.jpg",
    "category": "고택"
  },
  {
    "id": "127588",
    "title": "애은당고택·사우정고택·용계정",
    "address": "경상북도 포항시 북구 기북면 덕동문화길 31",
    "phone": "",
    "latitude": "36.1668835223",
    "longitude": "129.1860300224",
    "image": "http://tong.visitkorea.or.kr/cms/resource/78/3063878_image2_1.jpg",
    "category": "고택"
  },
  {
    "id": "1620863",
    "title": "양금석가옥",
    "address": "제주특별자치도 서귀포시 남원읍 신례로298번길 3-6",
    "phone": "",
    "latitude": "33.2913411705",
    "longitude": "126.6286104061",
    "image": "",
    "category": "고택"
  },
  {
    "id": "2795956",
    "title": "양평 창대리 고가",
    "address": "경기도 양평군 양평읍 충신로 333-6",
    "phone": "",
    "latitude": "37.4711026589",
    "longitude": "127.5059146913",
    "image": "",
    "category": "고택"
  },
  {
    "id": "2715382",
    "title": "여송정",
    "address": "강원특별자치도 정선군 여량면 유천리 산 128",
    "phone": "",
    "latitude": "37.4774720255",
    "longitude": "128.7245267204",
    "image": "",
    "category": "고택"
  },
  {
    "id": "1393351",
    "title": "연제 안승갑 고가",
    "address": "충청북도 진천군 진천읍 보련골길 46",
    "phone": "",
    "latitude": "36.8462109489",
    "longitude": "127.3533461527",
    "image": "http://tong.visitkorea.or.kr/cms/resource/21/3336321_image2_1.JPG",
    "category": "고택"
  },
  {
    "id": "3025473",
    "title": "영광 매간당 고택",
    "address": "전라남도 영광군 군남면 동간길2길 83-1",
    "phone": "",
    "latitude": "35.2408873698",
    "longitude": "126.4743195667",
    "image": "http://tong.visitkorea.or.kr/cms/resource/63/3025463_image2_1.jpg",
    "category": "고택"
  },
  {
    "id": "252546",
    "title": "영덕 무안박씨 무의공파 종택",
    "address": "경상북도 영덕군 축산면 도곡길 17-4",
    "phone": "",
    "latitude": "36.5099766206",
    "longitude": "129.4092391926",
    "image": "http://tong.visitkorea.or.kr/cms/resource/35/3572835_image2_1.jpg",
    "category": "고택"
  },
  {
    "id": "798830",
    "title": "영동 김참판댁",
    "address": "충청북도 영동군 양강면 괴목1길 13-5",
    "phone": "",
    "latitude": "36.1531308648",
    "longitude": "127.7548542924",
    "image": "",
    "category": "고택"
  },
  {
    "id": "1626791",
    "title": "영동 성장환 고택",
    "address": "충청북도 영동군 학산면 미촌길 67-11",
    "phone": "",
    "latitude": "36.1213975743",
    "longitude": "127.7104646616",
    "image": "http://tong.visitkorea.or.kr/cms/resource/70/3335870_image2_1.JPG",
    "category": "고택"
  },
  {
    "id": "1626773",
    "title": "영동 소석고택",
    "address": "충청북도 영동군 심천면 초강로6길 26",
    "phone": "",
    "latitude": "36.2181699146",
    "longitude": "127.7126812717",
    "image": "http://tong.visitkorea.or.kr/cms/resource/31/3335831_image2_1.JPG",
    "category": "고택"
  },
  {
    "id": "1626784",
    "title": "영동규당고택",
    "address": "충청북도 영동군 영동읍 금동로4길 9-9",
    "phone": "",
    "latitude": "36.1806919984",
    "longitude": "127.7763377399",
    "image": "http://tong.visitkorea.or.kr/cms/resource/67/3355167_image2_1.JPG",
    "category": "고택"
  },
  {
    "id": "3056873",
    "title": "영암 집영재",
    "address": "전라남도 영암군 학산면 은곡길 18",
    "phone": "",
    "latitude": "34.7627312131",
    "longitude": "126.5337759866",
    "image": "http://tong.visitkorea.or.kr/cms/resource/64/3056864_image2_1.jpg",
    "category": "고택"
  },
  {
    "id": "2713395",
    "title": "영월 북쌍리 고택",
    "address": "강원특별자치도 영월군 남면 들골안길 127-4",
    "phone": "",
    "latitude": "37.2054717723",
    "longitude": "128.3779020935",
    "image": "http://tong.visitkorea.or.kr/cms/resource/65/3394465_image2_1.JPG",
    "category": "고택"
  },
  {
    "id": "129433",
    "title": "영주 괴헌고택",
    "address": "경상북도 영주시 평은면 수변로 13-16",
    "phone": "",
    "latitude": "36.7340732596",
    "longitude": "128.6811249168",
    "image": "http://tong.visitkorea.or.kr/cms/resource/49/2534049_image2_1.jpg",
    "category": "고택"
  },
  {
    "id": "252602",
    "title": "영천 만취당 고택",
    "address": "경상북도 영천시 금호읍 종동길 25",
    "phone": "",
    "latitude": "35.9065185574",
    "longitude": "128.8908939800",
    "image": "http://tong.visitkorea.or.kr/cms/resource/11/3402711_image2_1.jpg",
    "category": "고택"
  },
  {
    "id": "1626780",
    "title": "예산 오추리 고택(정동호 가옥)",
    "address": "충청남도 예산군 고덕면 가래울길 34",
    "phone": "",
    "latitude": "36.7638453493",
    "longitude": "126.7199110872",
    "image": "http://tong.visitkorea.or.kr/cms/resource/17/3356917_image2_1.jpg",
    "category": "고택"
  },
  {
    "id": "129517",
    "title": "예천 예천권씨 초간공파 종택 및 예천권씨 초간종택 별당",
    "address": "경상북도 예천군 용문면 죽림길 43",
    "phone": "",
    "latitude": "36.6923254948",
    "longitude": "128.3977430377",
    "image": "http://tong.visitkorea.or.kr/cms/resource/92/3580692_image2_1.jpg",
    "category": "고택"
  },
  {
    "id": "2787267",
    "title": "오봉정사(구례)",
    "address": "전라남도 구례군 문척면 오봉정사길 113",
    "phone": "",
    "latitude": "35.1842727175",
    "longitude": "127.5243753774",
    "image": "http://tong.visitkorea.or.kr/cms/resource/47/2791547_image2_1.jpg",
    "category": "고택"
  },
  {
    "id": "3444338",
    "title": "완정고택",
    "address": "경상북도 성주군 초전면 월곡1길 47",
    "phone": "",
    "latitude": "36.0042009278",
    "longitude": "128.2344824901",
    "image": "http://tong.visitkorea.or.kr/cms/resource/87/3444287_image2_1.png",
    "category": "고택"
  },
  {
    "id": "231899",
    "title": "용흥궁",
    "address": "인천광역시 강화군 강화읍 동문안길21번길 16-1",
    "phone": "",
    "latitude": "37.7479493616",
    "longitude": "126.4859998213",
    "image": "http://tong.visitkorea.or.kr/cms/resource/70/3351970_image2_1.jpg",
    "category": "고택"
  },
  {
    "id": "561914",
    "title": "원주변씨 간재종택 및 간재정",
    "address": "경상북도 안동시 서후면 풍산태사로 2720-30",
    "phone": "",
    "latitude": "36.6012161456",
    "longitude": "128.6771013563",
    "image": "http://tong.visitkorea.or.kr/cms/resource/41/3565641_image2_1.jpg",
    "category": "고택"
  },
  {
    "id": "1626843",
    "title": "음성 공산정 고택",
    "address": "충청북도 음성군 영산로55번길 19-4",
    "phone": "",
    "latitude": "37.0772117263",
    "longitude": "127.6388167285",
    "image": "http://tong.visitkorea.or.kr/cms/resource/71/3335471_image2_1.JPG",
    "category": "고택"
  },
  {
    "id": "1114959",
    "title": "음성잿말고택 (김주태가옥)",
    "address": "충청북도 음성군 감곡면 영산안길 47-13",
    "phone": "",
    "latitude": "37.0808144359",
    "longitude": "127.6578176911",
    "image": "http://tong.visitkorea.or.kr/cms/resource/44/3335444_image2_1.JPG",
    "category": "고택"
  },
  {
    "id": "2786859",
    "title": "읍청정(산청)",
    "address": "경상남도 산청군 단성면 강누리",
    "phone": "",
    "latitude": "35.3088691938",
    "longitude": "127.9655166520",
    "image": "http://tong.visitkorea.or.kr/cms/resource/86/2789986_image2_1.jpg",
    "category": "고택"
  },
  {
    "id": "791531",
    "title": "의성 소계당",
    "address": "경상북도 의성군 점곡면 의성길안로 1034",
    "phone": "",
    "latitude": "36.4008713706",
    "longitude": "128.7740735365",
    "image": "http://tong.visitkorea.or.kr/cms/resource/42/3579542_image2_1.jpg",
    "category": "고택"
  },
  {
    "id": "250372",
    "title": "의성김씨 학봉종택",
    "address": "경상북도 안동시 서후면 풍산태사로 2830-6",
    "phone": "",
    "latitude": "36.6097233588",
    "longitude": "128.6692462529",
    "image": "http://tong.visitkorea.or.kr/cms/resource/07/3585407_image2_1.jpg",
    "category": "고택"
  },
  {
    "id": "2713385",
    "title": "이덕균가옥",
    "address": "강원특별자치도 고성군 죽왕면 송지호로 198-12",
    "phone": "",
    "latitude": "38.3285440368",
    "longitude": "128.5035454892",
    "image": "",
    "category": "고택"
  },
  {
    "id": "2777057",
    "title": "이두형가옥",
    "address": "강원특별자치도 양양군 서면 들돌길 284-1",
    "phone": "",
    "latitude": "38.0878316448",
    "longitude": "128.5678388183",
    "image": "http://tong.visitkorea.or.kr/cms/resource/75/3467075_image2_1.jpg",
    "category": "고택"
  },
  {
    "id": "1583137",
    "title": "이배원 가옥",
    "address": "전북특별자치도 익산시 함라면 천남1길 13",
    "phone": "",
    "latitude": "36.0602710307",
    "longitude": "126.9103237680",
    "image": "",
    "category": "고택"
  },
  {
    "id": "1372956",
    "title": "이상화 고택",
    "address": "대구광역시 중구 서성로 6-1",
    "phone": "",
    "latitude": "35.8672757115",
    "longitude": "128.5880022947",
    "image": "http://tong.visitkorea.or.kr/cms/resource/74/3510074_image2_1.jpg",
    "category": "고택"
  },
  {
    "id": "1590555",
    "title": "이웅재고가",
    "address": "전북특별자치도 임실군 오수면 둔덕2길 59-10",
    "phone": "",
    "latitude": "35.5046106995",
    "longitude": "127.3166576594",
    "image": "http://tong.visitkorea.or.kr/cms/resource/36/3557436_image2_1.jpg",
    "category": "고택"
  },
  {
    "id": "127060",
    "title": "이장우가옥",
    "address": "광주광역시 남구 양촌길 21",
    "phone": "",
    "latitude": "35.1406171882",
    "longitude": "126.9141331006",
    "image": "http://tong.visitkorea.or.kr/cms/resource/60/3368360_image2_1.jpg",
    "category": "고택"
  },
  {
    "id": "1201060",
    "title": "이천보 고가",
    "address": "경기도 가평군 상면 역촌길 84-14",
    "phone": "",
    "latitude": "37.7987089458",
    "longitude": "127.3481084419",
    "image": "http://tong.visitkorea.or.kr/cms/resource/43/3510843_image2_1.jpg",
    "category": "고택"
  },
  {
    "id": "126973",
    "title": "이충무공자당기거지",
    "address": "전라남도 여수시 웅천로 189 여수웅천부영1차",
    "phone": "",
    "latitude": "34.7400837224",
    "longitude": "127.6839727244",
    "image": "http://tong.visitkorea.or.kr/cms/resource/67/2516767_image2_1.jpg",
    "category": "고택"
  },
  {
    "id": "128547",
    "title": "이해룡고가",
    "address": "경기도 안성시 서운면 청룡길 109-11",
    "phone": "",
    "latitude": "36.9117049963",
    "longitude": "127.2870280864",
    "image": "http://tong.visitkorea.or.kr/cms/resource/07/3404707_image2_1.jpg",
    "category": "고택"
  },
  {
    "id": "1584115",
    "title": "익산 김병순 고택",
    "address": "전북특별자치도 익산시 함라면 수동길 20",
    "phone": "",
    "latitude": "36.0608598405",
    "longitude": "126.9096210379",
    "image": "",
    "category": "고택"
  },
  {
    "id": "2612877",
    "title": "장욱진 고택",
    "address": "경기도 용인시 기흥구 마북로 119-8 (마북동)",
    "phone": "",
    "latitude": "37.3011931343",
    "longitude": "127.1205683677",
    "image": "http://tong.visitkorea.or.kr/cms/resource/08/3570508_image2_1.jpg",
    "category": "고택"
  },
  {
    "id": "1600674",
    "title": "장철성고택",
    "address": "전북특별자치도 김제시 금구면 서도길 69",
    "phone": "",
    "latitude": "35.7703473333",
    "longitude": "127.0026536441",
    "image": "http://tong.visitkorea.or.kr/cms/resource/33/3358233_image2_1.JPG",
    "category": "고택"
  },
  {
    "id": "1594746",
    "title": "장현식고택",
    "address": "전북특별자치도 전주시 완산구 향교길 119-6 (교동)",
    "phone": "",
    "latitude": "35.8121563491",
    "longitude": "127.1564916410",
    "image": "http://tong.visitkorea.or.kr/cms/resource/36/3537036_image2_1.jpg",
    "category": "고택"
  },
  {
    "id": "1390248",
    "title": "장흥 오헌고택",
    "address": "전라남도 장흥군 관산읍 방촌1길 44",
    "phone": "",
    "latitude": "34.5489480547",
    "longitude": "126.9397315678",
    "image": "",
    "category": "고택"
  },
  {
    "id": "1390215",
    "title": "장흥 죽헌고택",
    "address": "전라남도 장흥군 관산읍 방촌길 101",
    "phone": "",
    "latitude": "34.5488287923",
    "longitude": "126.9498529048",
    "image": "http://tong.visitkorea.or.kr/cms/resource/94/3553894_image2_1.jpg",
    "category": "고택"
  },
  {
    "id": "126387",
    "title": "전주 풍패지관 (전주객사)",
    "address": "전북특별자치도 전주시 완산구 충경로 59",
    "phone": "",
    "latitude": "35.8182860101",
    "longitude": "127.1451286034",
    "image": "http://tong.visitkorea.or.kr/cms/resource/64/3066164_image2_1.jpg",
    "category": "고택"
  },
  {
    "id": "129030",
    "title": "전주유씨 무실종택",
    "address": "경상북도 안동시 임동면 수곡용계로 1714-12",
    "phone": "",
    "latitude": "36.5534401472",
    "longitude": "128.9236919700",
    "image": "http://tong.visitkorea.or.kr/cms/resource/24/3579524_image2_1.jpg",
    "category": "고택"
  },
  {
    "id": "1600719",
    "title": "정구례고가(정구례옛집)",
    "address": "전북특별자치도 김제시 장화2길 150-5",
    "phone": "",
    "latitude": "35.7739388945",
    "longitude": "126.8585497199",
    "image": "",
    "category": "고택"
  },
  {
    "id": "231907",
    "title": "정읍 김명관 고택",
    "address": "전북특별자치도 정읍시 산외면 공동길 72-10",
    "phone": "",
    "latitude": "35.6161623752",
    "longitude": "127.0199921979",
    "image": "http://tong.visitkorea.or.kr/cms/resource/79/1606479_image2_1.jpg",
    "category": "고택"
  },
  {
    "id": "129514",
    "title": "정읍 전봉준 유적",
    "address": "전북특별자치도 정읍시 이평면 조소1길 20",
    "phone": "",
    "latitude": "35.6709581902",
    "longitude": "126.8145340639",
    "image": "http://tong.visitkorea.or.kr/cms/resource/96/3520596_image2_1.jpg",
    "category": "고택"
  },
  {
    "id": "1621161",
    "title": "제주 성읍마을 고창환 고택",
    "address": "제주특별자치도 서귀포시 표선면 성읍서문로 4-7",
    "phone": "",
    "latitude": "33.3872944340",
    "longitude": "126.8001350317",
    "image": "http://tong.visitkorea.or.kr/cms/resource/93/3552193_image2_1.jpg",
    "category": "고택"
  },
  {
    "id": "1621155",
    "title": "제주 성읍마을 고평오 고택",
    "address": "제주특별자치도 서귀포시 표선면 성읍정의현로34번길 5-3",
    "phone": "",
    "latitude": "33.3859918271",
    "longitude": "126.8018154715",
    "image": "http://tong.visitkorea.or.kr/cms/resource/37/3551937_image2_1.jpg",
    "category": "고택"
  },
  {
    "id": "1682936",
    "title": "제천 중전리 고가",
    "address": "충청북도 제천시 금성면 신담길 278",
    "phone": "",
    "latitude": "37.0624458357",
    "longitude": "128.1908758421",
    "image": "http://tong.visitkorea.or.kr/cms/resource/88/3348888_image2_1.JPG",
    "category": "고택"
  },
  {
    "id": "1684863",
    "title": "제천 지곡리 고가",
    "address": "충청북도 제천시 청풍면 청풍호로 2048",
    "phone": "",
    "latitude": "37.0046326700",
    "longitude": "128.1710348542",
    "image": "http://tong.visitkorea.or.kr/cms/resource/09/3348909_image2_1.JPG",
    "category": "고택"
  },
  {
    "id": "2789002",
    "title": "조규승가옥",
    "address": "강원특별자치도 양양군 현남면 개매길 215-5",
    "phone": "",
    "latitude": "37.9441993833",
    "longitude": "128.7653420593",
    "image": "http://tong.visitkorea.or.kr/cms/resource/01/3506501_image2_1.jpg",
    "category": "고택"
  },
  {
    "id": "1619375",
    "title": "조병수 가옥",
    "address": "인천광역시 중구 용유로380번길 21",
    "phone": "",
    "latitude": "37.4512241600",
    "longitude": "126.4044377299",
    "image": "http://tong.visitkorea.or.kr/cms/resource/83/3353083_image2_1.jpg",
    "category": "고택"
  },
  {
    "id": "1171915",
    "title": "조선왕가",
    "address": "경기도 연천군 연천읍 현문로 339-10",
    "phone": "",
    "latitude": "38.0636429880",
    "longitude": "127.1014732707",
    "image": "http://tong.visitkorea.or.kr/cms/resource/49/2482749_image2_1.jpg",
    "category": "고택"
  },
  {
    "id": "1583188",
    "title": "조해영가옥",
    "address": "전북특별자치도 익산시 함라면 수동길 8",
    "phone": "",
    "latitude": "36.0612681448",
    "longitude": "126.9106542685",
    "image": "",
    "category": "고택"
  },
  {
    "id": "2782981",
    "title": "존재고택",
    "address": "전라남도 장흥군 관산읍 방촌길 91-32",
    "phone": "",
    "latitude": "34.5495370518",
    "longitude": "126.9501334184",
    "image": "http://tong.visitkorea.or.kr/cms/resource/10/3552010_image2_1.jpg",
    "category": "고택"
  },
  {
    "id": "2782485",
    "title": "종학당",
    "address": "충청남도 논산시 노성면 종학길 35",
    "phone": "",
    "latitude": "36.2904840726",
    "longitude": "127.0970176379",
    "image": "http://tong.visitkorea.or.kr/cms/resource/55/3577055_image2_1.jpg",
    "category": "고택"
  },
  {
    "id": "126375",
    "title": "진도 운림산방",
    "address": "전라남도 진도군 의신면 운림산방로 315",
    "phone": "",
    "latitude": "34.4664497128",
    "longitude": "126.3083751489",
    "image": "http://tong.visitkorea.or.kr/cms/resource/39/2654839_image2_1.jpg",
    "category": "고택"
  },
  {
    "id": "2784682",
    "title": "진해루",
    "address": "경상남도 창원시 진해구 진희로 150",
    "phone": "",
    "latitude": "35.1472252909",
    "longitude": "128.6851690504",
    "image": "http://tong.visitkorea.or.kr/cms/resource/16/2784916_image2_1.jpg",
    "category": "고택"
  },
  {
    "id": "128594",
    "title": "창녕 석리 성씨고가",
    "address": "경상남도 창녕군 대지면 석동1길 11",
    "phone": "",
    "latitude": "35.5568278896",
    "longitude": "128.4595721424",
    "image": "http://tong.visitkorea.or.kr/cms/resource/25/3376125_image2_1.JPG",
    "category": "고택"
  },
  {
    "id": "128591",
    "title": "창녕 진양하씨 고택",
    "address": "경상남도 창녕군 창녕읍 시장1길 63",
    "phone": "",
    "latitude": "35.5405581685",
    "longitude": "128.4961249311",
    "image": "http://tong.visitkorea.or.kr/cms/resource/38/3070038_image2_1.JPG",
    "category": "고택"
  },
  {
    "id": "127704",
    "title": "창원 진해현 관아 및 객사유지",
    "address": "경상남도 창원시 마산합포구 진동면 진동리",
    "phone": "",
    "latitude": "35.1149364644",
    "longitude": "128.4885593028",
    "image": "http://tong.visitkorea.or.kr/cms/resource/37/3546437_image2_1.jpg",
    "category": "고택"
  },
  {
    "id": "1624846",
    "title": "창원정씨종가",
    "address": "전북특별자치도 장수군 산서면 서원길 16",
    "phone": "",
    "latitude": "35.5653996247",
    "longitude": "127.3952657843",
    "image": "http://tong.visitkorea.or.kr/cms/resource/44/3583644_image2_1.jpg",
    "category": "고택"
  },
  {
    "id": "1615878",
    "title": "철종외가",
    "address": "인천광역시 강화군 선원면 철종외가길 46-1",
    "phone": "",
    "latitude": "37.7049792203",
    "longitude": "126.4772907089",
    "image": "http://tong.visitkorea.or.kr/cms/resource/09/3522509_image2_1.jpg",
    "category": "고택"
  },
  {
    "id": "129043",
    "title": "청송 사남고택",
    "address": "경상북도 청송군 파천면 중들2길 26",
    "phone": "",
    "latitude": "36.4583000696",
    "longitude": "129.0216416259",
    "image": "http://tong.visitkorea.or.kr/cms/resource/60/3408460_image2_1.jpg",
    "category": "고택"
  },
  {
    "id": "129051",
    "title": "청송 송소고택",
    "address": "경상북도 청송군 파천면 송소고택길 15-2",
    "phone": "",
    "latitude": "36.4361832350",
    "longitude": "129.0265196163",
    "image": "http://tong.visitkorea.or.kr/cms/resource/41/3521941_image2_1.jpg",
    "category": "고택"
  },
  {
    "id": "129057",
    "title": "청송 평산신씨 판사공파 종택과 분가 고택",
    "address": "경상북도 청송군 파천면 중들2길 16",
    "phone": "",
    "latitude": "36.4585389541",
    "longitude": "129.0228304029",
    "image": "http://tong.visitkorea.or.kr/cms/resource/27/3524627_image2_1.jpg",
    "category": "고택"
  },
  {
    "id": "795829",
    "title": "청송 후송당 고택",
    "address": "경상북도 청송군 현동면 청송로 2585-4",
    "phone": "",
    "latitude": "36.2897828967",
    "longitude": "129.0097031263",
    "image": "http://tong.visitkorea.or.kr/cms/resource/79/3536679_image2_1.jpg",
    "category": "고택"
  },
  {
    "id": "129052",
    "title": "청송초전댁",
    "address": "경상북도 청송군 파천면 송소고택길 35-3",
    "phone": "",
    "latitude": "36.4380080306",
    "longitude": "129.0266751054",
    "image": "http://tong.visitkorea.or.kr/cms/resource/66/3523166_image2_1.jpg",
    "category": "고택"
  },
  {
    "id": "127274",
    "title": "청주 신전동 고가",
    "address": "충청북도 청주시 흥덕구 신전로175번길 169",
    "phone": "",
    "latitude": "36.6089418641",
    "longitude": "127.4019816704",
    "image": "http://tong.visitkorea.or.kr/cms/resource/37/3504737_image2_1.jpg",
    "category": "고택"
  },
  {
    "id": "1685586",
    "title": "청풍 황석리 고가",
    "address": "충청북도 제천시 청풍면 청풍호로 2048",
    "phone": "",
    "latitude": "37.0054047941",
    "longitude": "128.1705348764",
    "image": "http://tong.visitkorea.or.kr/cms/resource/58/3349158_image2_1.JPG",
    "category": "고택"
  },
  {
    "id": "1685627",
    "title": "청풍 후산리 고가",
    "address": "충청북도 제천시 청풍면 청풍호로 2048",
    "phone": "",
    "latitude": "37.0039938818",
    "longitude": "128.1724902977",
    "image": "http://tong.visitkorea.or.kr/cms/resource/11/3568711_image2_1.jpg",
    "category": "고택"
  },
  {
    "id": "3531662",
    "title": "최선평 가옥",
    "address": "강원특별자치도 강릉시 주문진읍 신리천로 342",
    "phone": "",
    "latitude": "37.8783576132",
    "longitude": "128.7959857776",
    "image": "",
    "category": "고택"
  },
  {
    "id": "1395270",
    "title": "최순우 옛집",
    "address": "서울특별시 성북구 성북로15길 9 (성북동)",
    "phone": "",
    "latitude": "37.5930654442",
    "longitude": "127.0003599434",
    "image": "http://tong.visitkorea.or.kr/cms/resource/31/3540431_image2_1.jpg",
    "category": "고택"
  },
  {
    "id": "127664",
    "title": "최참판댁",
    "address": "경상남도 하동군 악양면 평사리길 66-7",
    "phone": "",
    "latitude": "35.1559482096",
    "longitude": "127.6884533393",
    "image": "http://tong.visitkorea.or.kr/cms/resource/77/3305577_image2_1.jpg",
    "category": "고택"
  },
  {
    "id": "1627167",
    "title": "추사 김정희 선생 고택",
    "address": "충청남도 예산군 신암면 추사고택로 261",
    "phone": "",
    "latitude": "36.7469847727",
    "longitude": "126.7984738914",
    "image": "http://tong.visitkorea.or.kr/cms/resource/96/3536296_image2_1.jpg",
    "category": "고택"
  },
  {
    "id": "128644",
    "title": "춘천김정은가옥",
    "address": "강원특별자치도 춘천시 신동면 솟발1길 44",
    "phone": "",
    "latitude": "37.8449717137",
    "longitude": "127.7290001690",
    "image": "http://tong.visitkorea.or.kr/cms/resource/59/3537859_image2_1.jpg",
    "category": "고택"
  },
  {
    "id": "128645",
    "title": "춘천최재근가옥",
    "address": "강원특별자치도 춘천시 신동면 솟발길 33-11",
    "phone": "",
    "latitude": "37.8431857826",
    "longitude": "127.7275198016",
    "image": "http://tong.visitkorea.or.kr/cms/resource/50/2495150_image2_1.jpg",
    "category": "고택"
  },
  {
    "id": "1005548",
    "title": "충주 최응성 고가",
    "address": "충청북도 충주시 살미면 중원대로 2220",
    "phone": "",
    "latitude": "36.8958221972",
    "longitude": "127.9802217612",
    "image": "http://tong.visitkorea.or.kr/cms/resource/04/3505004_image2_1.jpg",
    "category": "고택"
  },
  {
    "id": "3038851",
    "title": "치헌",
    "address": "경상북도 안동시 임하면 천전리",
    "phone": "",
    "latitude": "36.5298915660",
    "longitude": "128.8569013551",
    "image": "http://tong.visitkorea.or.kr/cms/resource/36/3038836_image2_1.jpg",
    "category": "고택"
  },
  {
    "id": "231932",
    "title": "탁청정종가",
    "address": "경상북도 안동시 와룡면 군자리길 21",
    "phone": "",
    "latitude": "36.6732852614",
    "longitude": "128.8013965489",
    "image": "http://tong.visitkorea.or.kr/cms/resource/10/3402110_image2_1.jpg",
    "category": "고택"
  },
  {
    "id": "250369",
    "title": "퇴계종택",
    "address": "경상북도 안동시 도산면 백운로 268",
    "phone": "",
    "latitude": "36.7367677951",
    "longitude": "128.8487543703",
    "image": "",
    "category": "고택"
  },
  {
    "id": "2701896",
    "title": "평창 지동봉가옥",
    "address": "강원특별자치도 평창군 평창읍 천동길 160",
    "phone": "",
    "latitude": "37.3335153777",
    "longitude": "128.3793426209",
    "image": "",
    "category": "고택"
  },
  {
    "id": "2783558",
    "title": "필운동 홍건익 가옥",
    "address": "서울특별시 종로구 필운대로1길 14-4",
    "phone": "",
    "latitude": "37.5779721893",
    "longitude": "126.9688965725",
    "image": "http://tong.visitkorea.or.kr/cms/resource/50/3535950_image2_1.jpg",
    "category": "고택"
  },
  {
    "id": "250418",
    "title": "함안무기리주씨고가",
    "address": "경상남도 함안군 칠원읍 무기1길 33",
    "phone": "",
    "latitude": "35.2987917336",
    "longitude": "128.5392638221",
    "image": "http://tong.visitkorea.or.kr/cms/resource/20/2485720_image2_1.jpg",
    "category": "고택"
  },
  {
    "id": "2786845",
    "title": "함양 일두고택",
    "address": "경상남도 함양군 지곡면 개평길 50-13",
    "phone": "",
    "latitude": "35.5663144115",
    "longitude": "127.7685438622",
    "image": "",
    "category": "고택"
  },
  {
    "id": "2713396",
    "title": "함정균가옥",
    "address": "강원특별자치도 고성군 죽왕면 왕곡마을길 52",
    "phone": "",
    "latitude": "38.3411952436",
    "longitude": "128.4986066539",
    "image": "http://tong.visitkorea.or.kr/cms/resource/93/2713593_image2_1.jpg",
    "category": "고택"
  },
  {
    "id": "3077020",
    "title": "함평 월호리 일본식가옥과 창고",
    "address": "전라남도 함평군 학교면 중천포로 634",
    "phone": "",
    "latitude": "34.9865401102",
    "longitude": "126.5809774825",
    "image": "",
    "category": "고택"
  },
  {
    "id": "1622772",
    "title": "합천 사의정",
    "address": "경상남도 합천군 대병면 서부로 2551-3",
    "phone": "",
    "latitude": "35.5442265888",
    "longitude": "128.0004462138",
    "image": "",
    "category": "고택"
  },
  {
    "id": "2612909",
    "title": "해남 공재고택",
    "address": "전라남도 해남군 현산면 백포길 122",
    "phone": "",
    "latitude": "34.4406560171",
    "longitude": "126.5183489556",
    "image": "http://tong.visitkorea.or.kr/cms/resource/12/3383012_image2_1.JPG",
    "category": "고택"
  },
  {
    "id": "1624505",
    "title": "해남 민정기 가옥",
    "address": "전라남도 해남군 해남읍 백야길 36",
    "phone": "",
    "latitude": "34.5427537214",
    "longitude": "126.5684282271",
    "image": "",
    "category": "고택"
  },
  {
    "id": "126417",
    "title": "해남윤씨 녹우당 일원",
    "address": "전라남도 해남군 해남읍 녹우당길 135",
    "phone": "",
    "latitude": "34.5510536692",
    "longitude": "126.6219372108",
    "image": "http://tong.visitkorea.or.kr/cms/resource/20/689220_image2_1.jpg",
    "category": "고택"
  },
  {
    "id": "1624514",
    "title": "해남윤씨 영모당",
    "address": "전라남도 강진군 도암면 해강로 577-36",
    "phone": "",
    "latitude": "34.5776048470",
    "longitude": "126.7056347676",
    "image": "",
    "category": "고택"
  },
  {
    "id": "1624517",
    "title": "해남윤씨 추원당",
    "address": "전라남도 강진군 도암면 강성길 77",
    "phone": "",
    "latitude": "34.5883087709",
    "longitude": "126.6795312492",
    "image": "",
    "category": "고택"
  },
  {
    "id": "1606001",
    "title": "해풍부원군윤택영댁재실",
    "address": "서울특별시 중구 퇴계로34길 28",
    "phone": "",
    "latitude": "37.5583638148",
    "longitude": "126.9944031366",
    "image": "http://tong.visitkorea.or.kr/cms/resource/48/3083948_image2_1.JPG",
    "category": "고택"
  },
  {
    "id": "2613176",
    "title": "현부자네 집",
    "address": "전라남도 보성군 벌교읍 홍암로 89-28",
    "phone": "",
    "latitude": "34.8498629442",
    "longitude": "127.3530489531",
    "image": "",
    "category": "고택"
  },
  {
    "id": "3091065",
    "title": "홍성 노은리 고택",
    "address": "충청남도 홍성군 홍북읍 최영장군길 11-26",
    "phone": "",
    "latitude": "36.6445815647",
    "longitude": "126.7348462732",
    "image": "http://tong.visitkorea.or.kr/cms/resource/61/3091061_image2_1.JPG",
    "category": "고택"
  },
  {
    "id": "736754",
    "title": "홍승인고가",
    "address": "경기도 화성시 정남면 서봉로851번길 34-15",
    "phone": "",
    "latitude": "37.1522436070",
    "longitude": "126.9593788098",
    "image": "http://tong.visitkorea.or.kr/cms/resource/25/2483125_image2_1.jpg",
    "category": "고택"
  },
  {
    "id": "1621481",
    "title": "화기리인동장씨종택",
    "address": "경상북도 영주시 장수면 화계길 71",
    "phone": "",
    "latitude": "36.7693061204",
    "longitude": "128.5752027704",
    "image": "",
    "category": "고택"
  },
  {
    "id": "2788137",
    "title": "화사별서(조씨고가)",
    "address": "경상남도 하동군 악양면 정서리",
    "phone": "",
    "latitude": "35.1713411390",
    "longitude": "127.7009435093",
    "image": "",
    "category": "고택"
  },
  {
    "id": "2795007",
    "title": "화성 정수영 고택",
    "address": "경기도 화성시 서신면 오얏리길 56",
    "phone": "",
    "latitude": "37.1325024350",
    "longitude": "126.7006611574",
    "image": "http://tong.visitkorea.or.kr/cms/resource/05/2795405_image2_1.jpg",
    "category": "고택"
  },
  {
    "id": "736751",
    "title": "화성 정시영 고택",
    "address": "경기도 화성시 서신면 오얏리길 44-12",
    "phone": "",
    "latitude": "37.1331773605",
    "longitude": "126.7008638984",
    "image": "http://tong.visitkorea.or.kr/cms/resource/21/3396521_image2_1.JPG",
    "category": "고택"
  },
  {
    "id": "2357469",
    "title": "훈몽재 유지",
    "address": "전북특별자치도 순창군 쌍치면 둔전2길 83",
    "phone": "",
    "latitude": "35.4726472168",
    "longitude": "126.9684393428",
    "image": "http://tong.visitkorea.or.kr/cms/resource/89/2360289_image2_1.JPG",
    "category": "고택"
  }
]