[
  {
    "id": "126027",
    "title": "가지산도립공원(밀양)",
    "address": "경상남도 밀양시 산내면",
    "phone": "",
    "latitude": "35.5803348234",
    "longitude": "128.9804563782",
    "image": "http://tong.visitkorea.or.kr/cms/resource/38/3573038_image2_1.jpg",
    "category": "도립공원"
  },
  {
    "id": "125588",
    "title": "경포도립공원",
    "address": "강원특별자치도 강릉시 창해로 473 (강문동)",
    "phone": "",
    "latitude": "37.8027519269",
    "longitude": "128.9101194924",
    "image": "http://tong.visitkorea.or.kr/cms/resource/06/3024906_image2_1.jpg",
    "category": "도립공원"
  },
  {
    "id": "126016",
    "title": "금오산도립공원",
    "address": "경상북도 구미시 금오산로 433-3 (남통동)",
    "phone": "",
    "latitude": "36.0923893542",
    "longitude": "128.3013519049",
    "image": "http://tong.visitkorea.or.kr/cms/resource/01/3566301_image2_1.jpg",
    "category": "도립공원"
  },
  {
    "id": "125589",
    "title": "낙산도립공원",
    "address": "강원특별자치도 양양군 강현면 일출로 42",
    "phone": "",
    "latitude": "38.1161018139",
    "longitude": "128.6313821755",
    "image": "http://tong.visitkorea.or.kr/cms/resource/53/3576153_image2_1.jpg",
    "category": "도립공원"
  },
  {
    "id": "125449",
    "title": "남한산성도립공원 [유네스코 세계유산]",
    "address": "경기도 광주시 남한산성면 남한산성로 731",
    "phone": "",
    "latitude": "37.4766684605",
    "longitude": "127.1883850251",
    "image": "http://tong.visitkorea.or.kr/cms/resource/56/2612856_image2_1.jpg",
    "category": "도립공원"
  },
  {
    "id": "128001",
    "title": "대둔산도립공원(금산)",
    "address": "충청남도 금산군 진산면 대둔산로 2",
    "phone": "",
    "latitude": "36.1374586362",
    "longitude": "127.3416665299",
    "image": "http://tong.visitkorea.or.kr/cms/resource/14/3345314_image2_1.jpg",
    "category": "도립공원"
  },
  {
    "id": "128002",
    "title": "대둔산도립공원(논산)",
    "address": "충청남도 논산시 벌곡면 수락리",
    "phone": "",
    "latitude": "36.1419435389",
    "longitude": "127.3021171618",
    "image": "",
    "category": "도립공원"
  },
  {
    "id": "127673",
    "title": "대둔산도립공원(전북)",
    "address": "전북특별자치도 완주군 운주면 대둔산공원길 23",
    "phone": "",
    "latitude": "36.1172885601",
    "longitude": "127.3328123047",
    "image": "http://tong.visitkorea.or.kr/cms/resource/88/3396488_image2_1.jpg",
    "category": "도립공원"
  },
  {
    "id": "125815",
    "title": "덕산도립공원",
    "address": "충청남도 예산군 덕산면",
    "phone": "",
    "latitude": "36.6801283021",
    "longitude": "126.6225054620",
    "image": "http://tong.visitkorea.or.kr/cms/resource/92/3055992_image2_1.jpg",
    "category": "도립공원"
  },
  {
    "id": "126241",
    "title": "두륜산도립공원",
    "address": "전라남도 해남군 삼산면 대흥사길 400",
    "phone": "",
    "latitude": "34.4896049087",
    "longitude": "126.6161141958",
    "image": "http://tong.visitkorea.or.kr/cms/resource/83/3564383_image2_1.jpg",
    "category": "도립공원"
  },
  {
    "id": "126235",
    "title": "마이산도립공원",
    "address": "전북특별자치도 진안군 진안읍 마이산로 130",
    "phone": "",
    "latitude": "35.7664604977",
    "longitude": "127.4151031931",
    "image": "http://tong.visitkorea.or.kr/cms/resource/66/3540866_image2_1.jpg",
    "category": "도립공원"
  },
  {
    "id": "2939667",
    "title": "마이산도립공원 남부",
    "address": "전북특별자치도 진안군 마이산남로 182",
    "phone": "063-430-2651",
    "latitude": "35.7570528603",
    "longitude": "127.3938497716",
    "image": "http://tong.visitkorea.or.kr/cms/resource/01/3545101_image2_1.jpg",
    "category": "도립공원"
  },
  {
    "id": "2939664",
    "title": "마이산도립공원 북부",
    "address": "전북특별자치도 진안군 마이산로 255 마이산 도립공원 관리 사무소",
    "phone": "063-433-2652",
    "latitude": "35.7663910580",
    "longitude": "127.4149198778",
    "image": "http://tong.visitkorea.or.kr/cms/resource/60/1605760_image2_1.jpg",
    "category": "도립공원"
  },
  {
    "id": "127574",
    "title": "모악산도립공원",
    "address": "전북특별자치도 김제시 금산면 모악로 494",
    "phone": "",
    "latitude": "35.7185511644",
    "longitude": "127.0444151597",
    "image": "http://tong.visitkorea.or.kr/cms/resource/09/3055809_image2_1.jpg",
    "category": "도립공원"
  },
  {
    "id": "126248",
    "title": "불갑산도립공원",
    "address": "전라남도 영광군 불갑면 불갑사로 450",
    "phone": "",
    "latitude": "35.2007737156",
    "longitude": "126.5494666677",
    "image": "",
    "category": "도립공원"
  },
  {
    "id": "601489",
    "title": "서귀포해양도립공원",
    "address": "제주특별자치도 서귀포시 남성중로 43 (서홍동)",
    "phone": "",
    "latitude": "33.2398207377",
    "longitude": "126.5582787717",
    "image": "http://tong.visitkorea.or.kr/cms/resource/87/3035387_image2_1.jpg",
    "category": "도립공원"
  },
  {
    "id": "125457",
    "title": "수리산도립공원",
    "address": "경기도 군포시 속달로 347-4 (속달동)",
    "phone": "",
    "latitude": "37.3480476617",
    "longitude": "126.9005398161",
    "image": "http://tong.visitkorea.or.kr/cms/resource/42/3535642_image2_1.JPG",
    "category": "도립공원"
  },
  {
    "id": "126859",
    "title": "연인산도립공원",
    "address": "경기도 가평군 가평읍",
    "phone": "",
    "latitude": "37.8985068799",
    "longitude": "127.4145411335",
    "image": "http://tong.visitkorea.or.kr/cms/resource/74/1591274_image2_1.jpg",
    "category": "도립공원"
  },
  {
    "id": "126024",
    "title": "연화산도립공원",
    "address": "경상남도 고성군 개천면 북평리",
    "phone": "055-673-4101~7",
    "latitude": "35.0805528763",
    "longitude": "128.2593108091",
    "image": "http://tong.visitkorea.or.kr/cms/resource/98/3045098_image2_1.JPG",
    "category": "도립공원"
  },
  {
    "id": "2858467",
    "title": "제주곶자왈도립공원",
    "address": "제주특별자치도 서귀포시 대정읍 에듀시티로 178",
    "phone": "",
    "latitude": "33.2832503451",
    "longitude": "126.2735802771",
    "image": "http://tong.visitkorea.or.kr/cms/resource/65/2858465_image2_1.jpg",
    "category": "도립공원"
  },
  {
    "id": "126240",
    "title": "조계산도립공원",
    "address": "전라남도 순천시 승주읍 승주괴목1길",
    "phone": "",
    "latitude": "35.0042802527",
    "longitude": "127.2687691374",
    "image": "http://tong.visitkorea.or.kr/cms/resource/59/3018959_image2_1.jpg",
    "category": "도립공원"
  },
  {
    "id": "126253",
    "title": "천관산도립공원",
    "address": "전라남도 장흥군 관산읍",
    "phone": "",
    "latitude": "34.5483645891",
    "longitude": "126.9278437365",
    "image": "",
    "category": "도립공원"
  },
  {
    "id": "126021",
    "title": "청량산도립공원",
    "address": "경상북도 봉화군 명호면 청량로 255",
    "phone": "",
    "latitude": "36.7886599652",
    "longitude": "128.8950070644",
    "image": "http://tong.visitkorea.or.kr/cms/resource/21/3042521_image2_1.jpg",
    "category": "도립공원"
  },
  {
    "id": "125819",
    "title": "칠갑산도립공원",
    "address": "충청남도 청양군 대치면 장곡길 241",
    "phone": "",
    "latitude": "36.3998317198",
    "longitude": "126.8841143716",
    "image": "http://tong.visitkorea.or.kr/cms/resource/67/3027467_image2_1.jpg",
    "category": "도립공원"
  },
  {
    "id": "127433",
    "title": "강원특별자치도립화목원",
    "address": "강원특별자치도 춘천시 화목원길 24",
    "phone": "",
    "latitude": "37.9233347533",
    "longitude": "127.7254731639",
    "image": "http://tong.visitkorea.or.kr/cms/resource/60/3331860_image2_1.jpg",
    "category": "도립공원",
    "original_category": "수목원"
  }
]