[
  {
    "id": "2726843",
    "title": "가덕도 연대봉",
    "address": "부산광역시 강서구 천성동",
    "phone": "",
    "latitude": "35.0317518247",
    "longitude": "128.8216713782",
    "image": "",
    "category": "산"
  },
  {
    "id": "125462",
    "title": "가덕산",
    "address": "경기도 가평군 북면 목동리",
    "phone": "",
    "latitude": "37.9405556371",
    "longitude": "127.6121190936",
    "image": "http://tong.visitkorea.or.kr/cms/resource/24/1900124_image2_1.jpg",
    "category": "산"
  },
  {
    "id": "127257",
    "title": "가라산",
    "address": "경상남도 거제시 남부면 다대리",
    "phone": "",
    "latitude": "34.7410502933",
    "longitude": "128.6303346514",
    "image": "",
    "category": "산"
  },
  {
    "id": "125463",
    "title": "가리산(포천)",
    "address": "경기도 포천시 이동면 도평리",
    "phone": "",
    "latitude": "38.0450563404",
    "longitude": "127.4080179724",
    "image": "",
    "category": "산"
  },
  {
    "id": "125593",
    "title": "가리산(홍천)",
    "address": "강원특별자치도 홍천군 두촌면 가리산길 260-9",
    "phone": "",
    "latitude": "37.8543978969",
    "longitude": "127.9988086966",
    "image": "http://tong.visitkorea.or.kr/cms/resource/84/609384_image2_1.jpg",
    "category": "산"
  },
  {
    "id": "127508",
    "title": "가리왕산",
    "address": "강원특별자치도 정선군 정선읍 가리왕산로 707",
    "phone": "",
    "latitude": "37.4618262980",
    "longitude": "128.5634777835",
    "image": "http://tong.visitkorea.or.kr/cms/resource/68/2987668_image2_1.png",
    "category": "산"
  },
  {
    "id": "1884191",
    "title": "가마오름",
    "address": "제주특별자치도 제주시 한경면 청수리",
    "phone": "",
    "latitude": "33.3057279944",
    "longitude": "126.2466098987",
    "image": "http://tong.visitkorea.or.kr/cms/resource/72/3477972_image2_1.jpg",
    "category": "산"
  },
  {
    "id": "1884521",
    "title": "가새기오름",
    "address": "제주특별자치도 제주시 오라삼동",
    "phone": "064-740-6001",
    "latitude": "33.4893700755",
    "longitude": "126.5038611983",
    "image": "http://tong.visitkorea.or.kr/cms/resource/82/3477882_image2_1.jpg",
    "category": "산"
  },
  {
    "id": "1885746",
    "title": "가세오름",
    "address": "제주특별자치도 서귀포시 표선면 녹산로 554",
    "phone": "",
    "latitude": "33.3931758821",
    "longitude": "126.7231832338",
    "image": "http://tong.visitkorea.or.kr/cms/resource/61/3477261_image2_1.jpg",
    "category": "산"
  },
  {
    "id": "1885754",
    "title": "가시오름",
    "address": "제주특별자치도 서귀포시 대정읍 하모이삼로21번길 1",
    "phone": "",
    "latitude": "33.2236315617",
    "longitude": "126.2500169782",
    "image": "http://tong.visitkorea.or.kr/cms/resource/13/3477513_image2_1.jpg",
    "category": "산"
  },
  {
    "id": "125822",
    "title": "가야산(서산)",
    "address": "충청남도 서산시 해미면 산수리",
    "phone": "",
    "latitude": "36.7039864327",
    "longitude": "126.6091060355",
    "image": "http://tong.visitkorea.or.kr/cms/resource/92/3055092_image2_1.jpg",
    "category": "산"
  },
  {
    "id": "3034222",
    "title": "가제산",
    "address": "충청남도 태안군 이원면 포지리",
    "phone": "",
    "latitude": "36.8646346339",
    "longitude": "126.2905250464",
    "image": "http://tong.visitkorea.or.kr/cms/resource/09/3034209_image2_1.jpg",
    "category": "산"
  },
  {
    "id": "799819",
    "title": "가학산",
    "address": "전라남도 완도군 소안면 미라리",
    "phone": "",
    "latitude": "34.1522183506",
    "longitude": "126.6593100914",
    "image": "http://tong.visitkorea.or.kr/cms/resource/75/786375_image2_1.jpg",
    "category": "산"
  },
  {
    "id": "129537",
    "title": "각산",
    "address": "경상남도 사천시 동림동",
    "phone": "",
    "latitude": "34.9434368938",
    "longitude": "128.0571209743",
    "image": "http://tong.visitkorea.or.kr/cms/resource/09/3492509_image2_1.jpg",
    "category": "산"
  },
  {
    "id": "1887368",
    "title": "각시바위오름",
    "address": "제주특별자치도 서귀포시 호근동",
    "phone": "",
    "latitude": "33.2777271543",
    "longitude": "126.5259918298",
    "image": "http://tong.visitkorea.or.kr/cms/resource/64/3477364_image2_1.jpg",
    "category": "산"
  },
  {
    "id": "128213",
    "title": "간월산",
    "address": "울산광역시 울주군 상북면 간월산길 614",
    "phone": "",
    "latitude": "35.5561610255",
    "longitude": "129.0480650268",
    "image": "http://tong.visitkorea.or.kr/cms/resource/02/3078002_image2_1.bmp",
    "category": "산"
  },
  {
    "id": "1577238",
    "title": "갈계숲",
    "address": "경상남도 거창군 북상면",
    "phone": "",
    "latitude": "35.7789272818",
    "longitude": "127.8160256582",
    "image": "http://tong.visitkorea.or.kr/cms/resource/44/3335844_image2_1.jpg",
    "category": "산"
  },
  {
    "id": "127781",
    "title": "갈기산",
    "address": "충청북도 영동군 양산면 호탄리",
    "phone": "",
    "latitude": "36.1121138260",
    "longitude": "127.6280083624",
    "image": "http://tong.visitkorea.or.kr/cms/resource/51/3341351_image2_1.JPG",
    "category": "산"
  },
  {
    "id": "1887493",
    "title": "감낭오름",
    "address": "제주특별자치도 서귀포시 안덕면 동광리",
    "phone": "",
    "latitude": "33.3250274801",
    "longitude": "126.3497088457",
    "image": "http://tong.visitkorea.or.kr/cms/resource/06/3477406_image2_1.jpg",
    "category": "산"
  },
  {
    "id": "1576464",
    "title": "감악산(거창)",
    "address": "경상남도 거창군 신원면 연수사길 452",
    "phone": "",
    "latitude": "35.5896644164",
    "longitude": "127.9175273118",
    "image": "http://tong.visitkorea.or.kr/cms/resource/05/2860205_image2_1.jpg",
    "category": "산"
  },
  {
    "id": "125600",
    "title": "감악산(원주)",
    "address": "강원특별자치도 원주시 신림면 황둔리",
    "phone": "",
    "latitude": "37.2330309839",
    "longitude": "128.1500300952",
    "image": "",
    "category": "산"
  },
  {
    "id": "125450",
    "title": "감악산(파주)",
    "address": "경기도 파주시 적성면 자장리",
    "phone": "",
    "latitude": "37.9417548169",
    "longitude": "126.9690139441",
    "image": "",
    "category": "산"
  },
  {
    "id": "1887866",
    "title": "갑선이오름",
    "address": "제주특별자치도 서귀포시 표선면 가시리",
    "phone": "",
    "latitude": "33.3608276172",
    "longitude": "126.7818122232",
    "image": "http://tong.visitkorea.or.kr/cms/resource/45/3523545_image2_1.jpg",
    "category": "산"
  },
  {
    "id": "126034",
    "title": "갑장산",
    "address": "경상북도 상주시 낙동면 비룡리",
    "phone": "",
    "latitude": "36.3481470483",
    "longitude": "128.1881214752",
    "image": "",
    "category": "산"
  },
  {
    "id": "1182200",
    "title": "강경 옥녀봉",
    "address": "충청남도 논산시 강경읍 북옥리",
    "phone": "",
    "latitude": "36.1649080602",
    "longitude": "127.0119397028",
    "image": "",
    "category": "산"
  },
  {
    "id": "125481",
    "title": "강씨봉",
    "address": "경기도 포천시 일동면 사직리",
    "phone": "",
    "latitude": "37.9691869397",
    "longitude": "127.3824086593",
    "image": "",
    "category": "산"
  },
  {
    "id": "1624429",
    "title": "강진 백련사 동백나무 숲",
    "address": "전라남도 강진군 도암면 백련사길 145",
    "phone": "",
    "latitude": "34.5876738723",
    "longitude": "126.7486001914",
    "image": "http://tong.visitkorea.or.kr/cms/resource/53/211953_image2_1.jpg",
    "category": "산"
  },
  {
    "id": "1887873",
    "title": "개오름",
    "address": "제주특별자치도 서귀포시 표선면 성읍이리로57번길 162",
    "phone": "",
    "latitude": "33.4238621040",
    "longitude": "126.7682286281",
    "image": "http://tong.visitkorea.or.kr/cms/resource/94/3526894_image2_1.jpg",
    "category": "산"
  },
  {
    "id": "1889809",
    "title": "개오리오름",
    "address": "제주특별자치도 제주시 봉개동",
    "phone": "",
    "latitude": "33.4262287923",
    "longitude": "126.6125115262",
    "image": "http://tong.visitkorea.or.kr/cms/resource/47/3478047_image2_1.jpg",
    "category": "산"
  },
  {
    "id": "3090750",
    "title": "개천사 비자나무숲",
    "address": "전라남도 화순군 도암면 등광리",
    "phone": "",
    "latitude": "34.8981389244",
    "longitude": "126.9116143586",
    "image": "http://tong.visitkorea.or.kr/cms/resource/13/3090713_image2_1.jpg",
    "category": "산"
  },
  {
    "id": "1889833",
    "title": "갯거리오름",
    "address": "제주특별자치도 서귀포시 대포동",
    "phone": "",
    "latitude": "33.3101086116",
    "longitude": "126.4578470138",
    "image": "http://tong.visitkorea.or.kr/cms/resource/00/3585200_image2_1.jpg",
    "category": "산"
  },
  {
    "id": "2714725",
    "title": "거류산",
    "address": "경상남도 고성군 거류면 송산리",
    "phone": "",
    "latitude": "34.9953368097",
    "longitude": "128.3798219747",
    "image": "http://tong.visitkorea.or.kr/cms/resource/33/3493833_image2_1.jpg",
    "category": "산"
  },
  {
    "id": "1890152",
    "title": "거린사슴",
    "address": "제주특별자치도 서귀포시 1100로 823",
    "phone": "",
    "latitude": "33.3073171985",
    "longitude": "126.4543696003",
    "image": "http://tong.visitkorea.or.kr/cms/resource/97/3477397_image2_1.jpg",
    "category": "산"
  },
  {
    "id": "1918646",
    "title": "거슨새미오름",
    "address": "제주특별자치도 제주시 구좌읍 송당리",
    "phone": "",
    "latitude": "33.4521283086",
    "longitude": "126.7610119406",
    "image": "http://tong.visitkorea.or.kr/cms/resource/04/3477804_image2_1.jpg",
    "category": "산"
  },
  {
    "id": "2815810",
    "title": "거제케이블카",
    "address": "경상남도 거제시 거제중앙로 288",
    "phone": "",
    "latitude": "34.7843399541",
    "longitude": "128.6330110537",
    "image": "http://tong.visitkorea.or.kr/cms/resource/91/2815791_image2_1.JPG",
    "category": "산"
  },
  {
    "id": "2724379",
    "title": "건지산",
    "address": "전북특별자치도 전주시 덕진구",
    "phone": "",
    "latitude": "35.8513293678",
    "longitude": "127.1391338273",
    "image": "",
    "category": "산"
  },
  {
    "id": "2752130",
    "title": "건천편백나무숲",
    "address": "경상북도 경주시 건천읍 송선리",
    "phone": "",
    "latitude": "35.8330414673",
    "longitude": "129.0774268954",
    "image": "http://tong.visitkorea.or.kr/cms/resource/94/3518794_image2_1.jpg",
    "category": "산"
  },
  {
    "id": "1918965",
    "title": "걸시오름",
    "address": "제주특별자치도 제주시 1100로 2558-73 (노형동)",
    "phone": "",
    "latitude": "33.4126617414",
    "longitude": "126.4941248902",
    "image": "http://tong.visitkorea.or.kr/cms/resource/12/3478012_image2_1.jpg",
    "category": "산"
  },
  {
    "id": "750824",
    "title": "검단산",
    "address": "경기도 하남시 신장동",
    "phone": "",
    "latitude": "37.5175620426",
    "longitude": "127.2494005353",
    "image": "",
    "category": "산"
  },
  {
    "id": "2660543",
    "title": "검무산",
    "address": "경상북도 안동시 풍천면 갈전리",
    "phone": "",
    "latitude": "36.5832483653",
    "longitude": "128.5083252148",
    "image": "http://tong.visitkorea.or.kr/cms/resource/76/3516376_image2_1.jpg",
    "category": "산"
  },
  {
    "id": "3076572",
    "title": "것대산",
    "address": "충청북도 청주시 상당구 산성동",
    "phone": "",
    "latitude": "36.6461789265",
    "longitude": "127.5383906289",
    "image": "http://tong.visitkorea.or.kr/cms/resource/87/3490987_image2_1.jpg",
    "category": "산"
  },
  {
    "id": "716313",
    "title": "견두산",
    "address": "전북특별자치도 남원시 수지면 고평리",
    "phone": "",
    "latitude": "35.3400448809",
    "longitude": "127.4134144762",
    "image": "",
    "category": "산"
  },
  {
    "id": "716538",
    "title": "경각산",
    "address": "전북특별자치도 완주군 구이면 광곡리",
    "phone": "",
    "latitude": "35.7269104862",
    "longitude": "127.1566049676",
    "image": "",
    "category": "산"
  },
  {
    "id": "128704",
    "title": "경주 남산",
    "address": "경상북도 경주시 배동",
    "phone": "",
    "latitude": "35.7945429827",
    "longitude": "129.2222291836",
    "image": "http://tong.visitkorea.or.kr/cms/resource/13/3518913_image2_1.jpg",
    "category": "산"
  },
  {
    "id": "987844",
    "title": "경주 낭산 일원",
    "address": "경상북도 경주시 보문동",
    "phone": "",
    "latitude": "35.8232429015",
    "longitude": "129.2423293844",
    "image": "http://tong.visitkorea.or.kr/cms/resource/59/3509359_image2_1.jpg",
    "category": "산"
  },
  {
    "id": "127263",
    "title": "계룡산",
    "address": "경상남도 거제시 계룡로11길 27 (고현동)",
    "phone": "",
    "latitude": "34.8825842573",
    "longitude": "128.6176514550",
    "image": "",
    "category": "산"
  },
  {
    "id": "125612",
    "title": "계방산(평창)",
    "address": "강원특별자치도 평창군 용평면 운두령로 1243",
    "phone": "",
    "latitude": "37.7071512180",
    "longitude": "128.4445449860",
    "image": "http://tong.visitkorea.or.kr/cms/resource/37/3535037_image2_1.jpg",
    "category": "산"
  },
  {
    "id": "126904",
    "title": "계방산(홍천)",
    "address": "강원특별자치도 홍천군 내면 대한동길 363-8",
    "phone": "",
    "latitude": "37.7588892179",
    "longitude": "128.4209455498",
    "image": "",
    "category": "산"
  },
  {
    "id": "1113230",
    "title": "계양산",
    "address": "인천광역시 계양구 목상동",
    "phone": "",
    "latitude": "37.5502377020",
    "longitude": "126.7234086347",
    "image": "http://tong.visitkorea.or.kr/cms/resource/65/3043565_image2_1.jpg",
    "category": "산"
  },
  {
    "id": "126710",
    "title": "계족산(영월)",
    "address": "강원특별자치도 영월군 영월읍 정양리 451",
    "phone": "",
    "latitude": "37.1618151571",
    "longitude": "128.4969260372",
    "image": "http://tong.visitkorea.or.kr/cms/resource/06/1841606_image2_1.jpg",
    "category": "산"
  },
  {
    "id": "127825",
    "title": "고고산",
    "address": "강원특별자치도 정선군 신동읍 고림길",
    "phone": "",
    "latitude": "37.2231097851",
    "longitude": "128.5854690604",
    "image": "",
    "category": "산"
  },
  {
    "id": "127051",
    "title": "고근산",
    "address": "제주특별자치도 서귀포시 서호동",
    "phone": "",
    "latitude": "33.2668281661",
    "longitude": "126.5139125656",
    "image": "http://tong.visitkorea.or.kr/cms/resource/54/3477254_image2_1.jpg",
    "category": "산"
  },
  {
    "id": "127163",
    "title": "고대산",
    "address": "경기도 연천군 신서면 대광리",
    "phone": "",
    "latitude": "38.1977562930",
    "longitude": "127.1674160678",
    "image": "http://tong.visitkorea.or.kr/cms/resource/95/3537495_image2_1.jpg",
    "category": "산"
  },
  {
    "id": "3080268",
    "title": "고락산",
    "address": "전라남도 여수시 문수동",
    "phone": "",
    "latitude": "34.7608677045",
    "longitude": "127.6955100759",
    "image": "http://tong.visitkorea.or.kr/cms/resource/20/3580320_image2_1.jpg",
    "category": "산"
  },
  {
    "id": "531469",
    "title": "고려산",
    "address": "인천광역시 강화군 내가면 고천리",
    "phone": "",
    "latitude": "37.7407298666",
    "longitude": "126.4352713405",
    "image": "",
    "category": "산"
  },
  {
    "id": "250434",
    "title": "고령 신촌숲",
    "address": "경상북도 고령군 쌍림면 신촌길 27-7",
    "phone": "",
    "latitude": "35.6744568508",
    "longitude": "128.1852958581",
    "image": "http://tong.visitkorea.or.kr/cms/resource/73/3565573_image2_1.jpg",
    "category": "산"
  },
  {
    "id": "2819599",
    "title": "고배기동산",
    "address": "제주특별자치도 서귀포시 안덕면 광평리",
    "phone": "",
    "latitude": "33.3308301199",
    "longitude": "126.3817114923",
    "image": "http://tong.visitkorea.or.kr/cms/resource/25/2818825_image2_1.jpg",
    "category": "산"
  },
  {
    "id": "2733822",
    "title": "고봉산",
    "address": "경기도 고양시 일산동구 중산동",
    "phone": "",
    "latitude": "37.6925528931",
    "longitude": "126.7908123647",
    "image": "",
    "category": "산"
  },
  {
    "id": "1595802",
    "title": "고산",
    "address": "전북특별자치도 고창군 성송면 산수리",
    "phone": "",
    "latitude": "35.3301494949",
    "longitude": "126.6414219602",
    "image": "http://tong.visitkorea.or.kr/cms/resource/56/3055356_image2_1.jpg",
    "category": "산"
  },
  {
    "id": "2661519",
    "title": "고살리 숲길",
    "address": "제주특별자치도 서귀포시 남원읍",
    "phone": "",
    "latitude": "33.3172933815",
    "longitude": "126.5984790990",
    "image": "",
    "category": "산"
  },
  {
    "id": "3521198",
    "title": "고성 금강산",
    "address": "강원특별자치도 고성군 토성면 화암사길 100",
    "phone": "",
    "latitude": "38.2264497295",
    "longitude": "128.4700100623",
    "image": "http://tong.visitkorea.or.kr/cms/resource/18/3509118_image2_1.jpg",
    "category": "산"
  },
  {
    "id": "2613122",
    "title": "고성 장산숲",
    "address": "경상남도 고성군 마암면 옥천로 352",
    "phone": "",
    "latitude": "35.0593620138",
    "longitude": "128.3266888113",
    "image": "http://tong.visitkorea.or.kr/cms/resource/86/3499386_image2_1.JPG",
    "category": "산"
  },
  {
    "id": "127822",
    "title": "고성산",
    "address": "경기도 안성시 원곡면 칠곡리",
    "phone": "",
    "latitude": "37.0485510955",
    "longitude": "127.1748149672",
    "image": "http://tong.visitkorea.or.kr/cms/resource/11/3517511_image2_1.jpg",
    "category": "산"
  },
  {
    "id": "2758465",
    "title": "고용산(고룡산)",
    "address": "충청남도 아산시 영인면 신화리",
    "phone": "",
    "latitude": "36.8879495801",
    "longitude": "126.9848143455",
    "image": "http://tong.visitkorea.or.kr/cms/resource/51/2758551_image2_1.jpg",
    "category": "산"
  },
  {
    "id": "3436858",
    "title": "고창읍성 맹종죽림",
    "address": "전북특별자치도 고창군 고창읍 읍내리",
    "phone": "",
    "latitude": "35.4300419873",
    "longitude": "126.7030139865",
    "image": "http://tong.visitkorea.or.kr/cms/resource/60/3562260_image2_1.jpg",
    "category": "산"
  },
  {
    "id": "126039",
    "title": "고헌산(울산)",
    "address": "울산광역시 울주군 언양읍",
    "phone": "",
    "latitude": "35.6396001019",
    "longitude": "129.1150012809",
    "image": "http://tong.visitkorea.or.kr/cms/resource/15/3057715_image2_1.jpg",
    "category": "산"
  },
  {
    "id": "125606",
    "title": "공작산",
    "address": "강원특별자치도 홍천군 동면",
    "phone": "033-430-2791",
    "latitude": "37.7157058762",
    "longitude": "128.0100618204",
    "image": "",
    "category": "산"
  },
  {
    "id": "126480",
    "title": "관악산",
    "address": "서울특별시 관악구 관악로",
    "phone": "",
    "latitude": "37.4484036407",
    "longitude": "126.9540987991",
    "image": "",
    "category": "산"
  },
  {
    "id": "717093",
    "title": "관음봉",
    "address": "전북특별자치도 부안군 진서면 석포리",
    "phone": "063-581-3082",
    "latitude": "35.6224792183",
    "longitude": "126.5827503888",
    "image": "http://tong.visitkorea.or.kr/cms/resource/83/3573583_image2_1.jpg",
    "category": "산"
  },
  {
    "id": "2779550",
    "title": "관음사국기봉",
    "address": "서울특별시 관악구 신림동",
    "phone": "",
    "latitude": "37.4403515161",
    "longitude": "126.9383143508",
    "image": "http://tong.visitkorea.or.kr/cms/resource/56/2796456_image2_1.jpg",
    "category": "산"
  },
  {
    "id": "125455",
    "title": "관음산",
    "address": "경기도 포천시 일동면 수입리",
    "phone": "",
    "latitude": "38.0292563926",
    "longitude": "127.3108162176",
    "image": "",
    "category": "산"
  },
  {
    "id": "128064",
    "title": "광교산",
    "address": "경기도 용인시 수지구 고기동",
    "phone": "",
    "latitude": "37.3450531764",
    "longitude": "127.0344138451",
    "image": "http://tong.visitkorea.or.kr/cms/resource/83/3495083_image2_1.JPG",
    "category": "산"
  },
  {
    "id": "3033248",
    "title": "광교산 형제봉",
    "address": "경기도 용인시 수지구 신봉동",
    "phone": "",
    "latitude": "37.3288523239",
    "longitude": "127.0371140543",
    "image": "http://tong.visitkorea.or.kr/cms/resource/28/3033228_image2_1.jpg",
    "category": "산"
  },
  {
    "id": "127200",
    "title": "광덕산",
    "address": "충청남도 천안시 동남구 광덕면 광덕사길 30",
    "phone": "",
    "latitude": "36.6759000112",
    "longitude": "127.0423232763",
    "image": "http://tong.visitkorea.or.kr/cms/resource/09/3457809_image2_1.jpg",
    "category": "산"
  },
  {
    "id": "128098",
    "title": "광덕산(화천)",
    "address": "강원특별자치도 화천군 사내면",
    "phone": "",
    "latitude": "38.1150070894",
    "longitude": "127.4394352497",
    "image": "",
    "category": "산"
  },
  {
    "id": "126667",
    "title": "광양 옥룡사 동백나무 숲",
    "address": "전라남도 광양시 옥룡면 운암길 83",
    "phone": "",
    "latitude": "35.0461202998",
    "longitude": "127.6092270226",
    "image": "http://tong.visitkorea.or.kr/cms/resource/62/2833462_image2_1.jpg",
    "category": "산"
  },
  {
    "id": "2783939",
    "title": "광주시민의숲",
    "address": "광주광역시 북구 추암로 190",
    "phone": "",
    "latitude": "35.2330587150",
    "longitude": "126.8663516760",
    "image": "http://tong.visitkorea.or.kr/cms/resource/03/3514703_image2_1.jpg",
    "category": "산"
  },
  {
    "id": "127845",
    "title": "괘병산(정선)",
    "address": "강원특별자치도 정선군 임계면 가목리 산11",
    "phone": "",
    "latitude": "37.4839368496",
    "longitude": "128.9551308193",
    "image": "http://tong.visitkorea.or.kr/cms/resource/42/3505542_image2_1.jpg",
    "category": "산"
  },
  {
    "id": "1918950",
    "title": "괴오름",
    "address": "제주특별자치도 제주시 애월읍 봉성리 산41",
    "phone": "",
    "latitude": "33.3560883410",
    "longitude": "126.3754586925",
    "image": "http://tong.visitkorea.or.kr/cms/resource/40/3585540_image2_1.jpg",
    "category": "산"
  },
  {
    "id": "127785",
    "title": "구곡산",
    "address": "경상남도 산청군 시천면 지리산대로",
    "phone": "",
    "latitude": "35.2744976267",
    "longitude": "127.7832613606",
    "image": "http://tong.visitkorea.or.kr/cms/resource/52/3478152_image2_1.JPG",
    "category": "산"
  },
  {
    "id": "125823",
    "title": "구녀산",
    "address": "충청북도 청주시 청원구 내수읍 초정리",
    "phone": "",
    "latitude": "36.7008712236",
    "longitude": "127.6133490531",
    "image": "http://tong.visitkorea.or.kr/cms/resource/66/3341566_image2_1.JPG",
    "category": "산"
  },
  {
    "id": "1918984",
    "title": "구두리오름",
    "address": "제주특별자치도 서귀포시 표선면 가시리",
    "phone": "",
    "latitude": "33.4124065362",
    "longitude": "126.6885413552",
    "image": "http://tong.visitkorea.or.kr/cms/resource/75/3585175_image2_1.jpg",
    "category": "산"
  },
  {
    "id": "127302",
    "title": "구룡산(강원)",
    "address": "강원특별자치도 영월군 무릉도원면 운학리 1111-5",
    "phone": "",
    "latitude": "37.3298539120",
    "longitude": "128.1907402567",
    "image": "http://tong.visitkorea.or.kr/cms/resource/54/1841554_image2_1.jpg",
    "category": "산"
  },
  {
    "id": "2357761",
    "title": "구룡산(서울)",
    "address": "서울특별시 서초구 염곡동",
    "phone": "",
    "latitude": "37.4690781677",
    "longitude": "127.0615995465",
    "image": "http://tong.visitkorea.or.kr/cms/resource/90/3530390_image2_1.jpg",
    "category": "산"
  },
  {
    "id": "125827",
    "title": "구병산",
    "address": "충청북도 보은군 속리산면 구병리",
    "phone": "",
    "latitude": "36.4697883174",
    "longitude": "127.8621665586",
    "image": "",
    "category": "산"
  },
  {
    "id": "126601",
    "title": "구봉대산",
    "address": "강원특별자치도 영월군 엄둔길 38",
    "phone": "",
    "latitude": "37.3017746722",
    "longitude": "128.2361869928",
    "image": "",
    "category": "산"
  },
  {
    "id": "2714558",
    "title": "구봉산",
    "address": "강원특별자치도 춘천시 동면 순환대로 1154-115",
    "phone": "",
    "latitude": "37.8933169902",
    "longitude": "127.7771971260",
    "image": "http://tong.visitkorea.or.kr/cms/resource/54/529954_image2_1.jpg",
    "category": "산"
  },
  {
    "id": "127683",
    "title": "구봉산(대전)",
    "address": "대전광역시 서구 상보안윗길 160",
    "phone": "",
    "latitude": "36.2838835386",
    "longitude": "127.3394516798",
    "image": "http://tong.visitkorea.or.kr/cms/resource/84/3513184_image2_1.jpg",
    "category": "산"
  },
  {
    "id": "127507",
    "title": "구봉산(진안)",
    "address": "전북특별자치도 진안군 주천면 운봉리",
    "phone": "",
    "latitude": "35.9244446218",
    "longitude": "128.0000220992",
    "image": "http://tong.visitkorea.or.kr/cms/resource/49/3511849_image2_1.jpg",
    "category": "산"
  },
  {
    "id": "2783371",
    "title": "구절산",
    "address": "경상남도 고성군 동해면 외곡1길 535",
    "phone": "",
    "latitude": "35.0146825836",
    "longitude": "128.4199762910",
    "image": "http://tong.visitkorea.or.kr/cms/resource/19/3491419_image2_1.jpg",
    "category": "산"
  },
  {
    "id": "3106682",
    "title": "국립곡성치유의숲",
    "address": "전라남도 곡성군 곡성읍 청계동로 519",
    "phone": "061-363-0901",
    "latitude": "35.3109286587",
    "longitude": "127.2487519917",
    "image": "http://tong.visitkorea.or.kr/cms/resource/89/3106189_image2_1.jpg",
    "category": "산"
  },
  {
    "id": "3580799",
    "title": "국립익산치유의숲",
    "address": "전북특별자치도 익산시 웅포면 함라산길 623",
    "phone": "",
    "latitude": "36.0670311408",
    "longitude": "126.8970636660",
    "image": "http://tong.visitkorea.or.kr/cms/resource/03/3580803_image2_1.jpg",
    "category": "산"
  },
  {
    "id": "127262",
    "title": "국사봉(거제)",
    "address": "경상남도 거제시 수월동",
    "phone": "",
    "latitude": "34.8846377944",
    "longitude": "128.6724855190",
    "image": "",
    "category": "산"
  },
  {
    "id": "2357450",
    "title": "국사봉(순창)",
    "address": "전북특별자치도 순창군 쌍치면 국사봉로 308-75",
    "phone": "",
    "latitude": "35.5360404765",
    "longitude": "126.9946381748",
    "image": "http://tong.visitkorea.or.kr/cms/resource/13/3550313_image2_1.jpg",
    "category": "산"
  },
  {
    "id": "1945647",
    "title": "국사봉(인천)",
    "address": "인천광역시 중구 무의동",
    "phone": "",
    "latitude": "37.3915951817",
    "longitude": "126.4159494251",
    "image": "http://tong.visitkorea.or.kr/cms/resource/56/1945656_image2_1.jpg",
    "category": "산"
  },
  {
    "id": "127826",
    "title": "국지산",
    "address": "강원특별자치도 영월군 영월읍 흥월로 229",
    "phone": "",
    "latitude": "37.1422918044",
    "longitude": "128.4652738958",
    "image": "http://tong.visitkorea.or.kr/cms/resource/19/3342219_image2_1.jpg",
    "category": "산"
  },
  {
    "id": "1945768",
    "title": "군산오름",
    "address": "제주특별자치도 서귀포시 안덕면 창천리",
    "phone": "",
    "latitude": "33.2532274083",
    "longitude": "126.3707114017",
    "image": "http://tong.visitkorea.or.kr/cms/resource/48/3035448_image2_1.jpg",
    "category": "산"
  },
  {
    "id": "127836",
    "title": "군자산",
    "address": "충청북도 괴산군 칠성면 쌍곡리",
    "phone": "",
    "latitude": "36.7484456062",
    "longitude": "127.8797044004",
    "image": "http://tong.visitkorea.or.kr/cms/resource/49/3353449_image2_1.JPG",
    "category": "산"
  },
  {
    "id": "2765234",
    "title": "궷물오름",
    "address": "제주특별자치도 제주시 애월읍 유수암리",
    "phone": "",
    "latitude": "33.3971037558",
    "longitude": "126.4075105427",
    "image": "http://tong.visitkorea.or.kr/cms/resource/15/3531515_image2_1.jpg",
    "category": "산"
  },
  {
    "id": "125482",
    "title": "귀목봉",
    "address": "경기도 가평군 북면 적목리",
    "phone": "",
    "latitude": "37.9419179195",
    "longitude": "127.3836649009",
    "image": "",
    "category": "산"
  },
  {
    "id": "127249",
    "title": "금골산",
    "address": "전라남도 진도군 군내면 금골길",
    "phone": "",
    "latitude": "34.5404355480",
    "longitude": "126.2895778349",
    "image": "http://tong.visitkorea.or.kr/cms/resource/47/3560347_image2_1.jpg",
    "category": "산"
  },
  {
    "id": "2728430",
    "title": "금당산",
    "address": "강원특별자치도 평창군 용평면",
    "phone": "",
    "latitude": "37.5443193921",
    "longitude": "128.4096891540",
    "image": "",
    "category": "산"
  },
  {
    "id": "129140",
    "title": "금련산",
    "address": "부산광역시 수영구 광안동",
    "phone": "",
    "latitude": "35.1602230601",
    "longitude": "129.0974161159",
    "image": "",
    "category": "산"
  },
  {
    "id": "128106",
    "title": "금산(남해)",
    "address": "경상남도 남해군 상주면 상주리",
    "phone": "",
    "latitude": "34.7561370311",
    "longitude": "127.9775216615",
    "image": "http://tong.visitkorea.or.kr/cms/resource/71/3556371_image2_1.jpg",
    "category": "산"
  },
  {
    "id": "126251",
    "title": "금성산(전남)",
    "address": "전라남도 나주시 다시면 신광리",
    "phone": "",
    "latitude": "35.0532289465",
    "longitude": "126.6961517678",
    "image": "",
    "category": "산"
  },
  {
    "id": "1905410",
    "title": "금성산(합천)",
    "address": "경상남도 합천군 대병면 성리",
    "phone": "",
    "latitude": "35.5167414532",
    "longitude": "128.0367215303",
    "image": "http://tong.visitkorea.or.kr/cms/resource/43/3501943_image2_1.jpg",
    "category": "산"
  },
  {
    "id": "126921",
    "title": "금성산·비봉산(의성)",
    "address": "경상북도 의성군 금성면 탑리리",
    "phone": "",
    "latitude": "36.2622442654",
    "longitude": "128.7094248960",
    "image": "http://tong.visitkorea.or.kr/cms/resource/69/3510169_image2_1.JPG",
    "category": "산"
  },
  {
    "id": "127840",
    "title": "금수산",
    "address": "충청북도 단양군 적성면 상학1길 210",
    "phone": "",
    "latitude": "36.9849337572",
    "longitude": "128.2568666205",
    "image": "http://tong.visitkorea.or.kr/cms/resource/00/1959700_image2_1.jpg",
    "category": "산"
  },
  {
    "id": "129699",
    "title": "금오름",
    "address": "제주특별자치도 제주시 한림읍 금악리",
    "phone": "",
    "latitude": "33.3555289743",
    "longitude": "126.3059091921",
    "image": "http://tong.visitkorea.or.kr/cms/resource/35/3352435_image2_1.jpg",
    "category": "산"
  },
  {
    "id": "127509",
    "title": "금원산",
    "address": "경상남도 거창군 위천면 장기리",
    "phone": "",
    "latitude": "35.7310428434",
    "longitude": "127.7610206977",
    "image": "http://tong.visitkorea.or.kr/cms/resource/09/3502509_image2_1.jpg",
    "category": "산"
  },
  {
    "id": "128574",
    "title": "금전산",
    "address": "전라남도 순천시 낙안면 상송리",
    "phone": "",
    "latitude": "34.9237073644",
    "longitude": "127.3495307352",
    "image": "",
    "category": "산"
  },
  {
    "id": "126028",
    "title": "금정산",
    "address": "부산광역시 금정구 금성동",
    "phone": "",
    "latitude": "35.2684489780",
    "longitude": "129.0518587773",
    "image": "http://tong.visitkorea.or.kr/cms/resource/44/3575744_image2_1.jpg",
    "category": "산"
  },
  {
    "id": "127569",
    "title": "금주산",
    "address": "경기도 포천시 영중면 금주리",
    "phone": "",
    "latitude": "37.9572557598",
    "longitude": "127.2727162569",
    "image": "",
    "category": "산"
  },
  {
    "id": "3074840",
    "title": "기린봉",
    "address": "전북특별자치도 전주시 덕진구 한배미6길 55 (인후동1가)",
    "phone": "",
    "latitude": "35.8201389904",
    "longitude": "127.1689597675",
    "image": "http://tong.visitkorea.or.kr/cms/resource/32/3074832_image2_1.jpg",
    "category": "산"
  },
  {
    "id": "126033",
    "title": "기백산",
    "address": "경상남도 함양군 안의면,",
    "phone": "",
    "latitude": "35.6874394914",
    "longitude": "127.7632188894",
    "image": "http://tong.visitkorea.or.kr/cms/resource/93/1612693_image2_1.jpg",
    "category": "산"
  },
  {
    "id": "127844",
    "title": "기우산(정선)",
    "address": "강원특별자치도 정선군 정선읍 신월리",
    "phone": "",
    "latitude": "37.3564822114",
    "longitude": "128.6731377641",
    "image": "http://tong.visitkorea.or.kr/cms/resource/95/3342495_image2_1.jpg",
    "category": "산"
  },
  {
    "id": "2814812",
    "title": "기차산 해골바위",
    "address": "전북특별자치도 완주군 동상면 신월리",
    "phone": "",
    "latitude": "35.9701444451",
    "longitude": "127.3455178741",
    "image": "http://tong.visitkorea.or.kr/cms/resource/89/3510189_image2_1.jpg",
    "category": "산"
  },
  {
    "id": "128703",
    "title": "깃대봉",
    "address": "전라남도 여수시 삼산면 손죽리",
    "phone": "",
    "latitude": "34.2796462041",
    "longitude": "127.3537435901",
    "image": "http://tong.visitkorea.or.kr/cms/resource/08/3572108_image2_1.jpg",
    "category": "산"
  },
  {
    "id": "2756593",
    "title": "나각산",
    "address": "경상북도 상주시 낙동면 물량리 산65",
    "phone": "",
    "latitude": "36.3836978599",
    "longitude": "128.3016048326",
    "image": "http://tong.visitkorea.or.kr/cms/resource/39/2756739_image2_1.jpg",
    "category": "산"
  },
  {
    "id": "3082015",
    "title": "남태령고개",
    "address": "서울특별시 관악구 남현동",
    "phone": "",
    "latitude": "37.4598001285",
    "longitude": "126.9869510439",
    "image": "http://tong.visitkorea.or.kr/cms/resource/11/3082011_image2_1.JPG",
    "category": "산"
  },
  {
    "id": "717109",
    "title": "내변산",
    "address": "전북특별자치도 부안군 변산면 지서리",
    "phone": "",
    "latitude": "35.6316418721",
    "longitude": "126.5713122879",
    "image": "http://tong.visitkorea.or.kr/cms/resource/07/1604207_image2_1.jpg",
    "category": "산"
  },
  {
    "id": "2759612",
    "title": "내소사 전나무 숲길",
    "address": "전북특별자치도 부안군 진서면 내소사로 243",
    "phone": "",
    "latitude": "35.6178548254",
    "longitude": "126.5875750757",
    "image": "http://tong.visitkorea.or.kr/cms/resource/79/3519979_image2_1.jpg",
    "category": "산"
  },
  {
    "id": "2786012",
    "title": "노고산",
    "address": "대전광역시 동구 직동 산31-1",
    "phone": "",
    "latitude": "36.4241507101",
    "longitude": "127.4891622601",
    "image": "http://tong.visitkorea.or.kr/cms/resource/60/3346960_image2_1.jpg",
    "category": "산"
  },
  {
    "id": "127589",
    "title": "노성산",
    "address": "경기도 이천시 설성면 진상미로665번길 241",
    "phone": "",
    "latitude": "37.1280117250",
    "longitude": "127.5028803252",
    "image": "",
    "category": "산"
  },
  {
    "id": "125577",
    "title": "노송지대",
    "address": "경기도 수원시 장안구 파장동",
    "phone": "",
    "latitude": "37.3160529142",
    "longitude": "126.9871161758",
    "image": "http://tong.visitkorea.or.kr/cms/resource/43/3547143_image2_1.jpg",
    "category": "산"
  },
  {
    "id": "126035",
    "title": "노음산(노악산)",
    "address": "경상북도 상주시 남장동",
    "phone": "",
    "latitude": "36.4389461205",
    "longitude": "128.0967215065",
    "image": "http://tong.visitkorea.or.kr/cms/resource/97/3579397_image2_1.jpg",
    "category": "산"
  },
  {
    "id": "125619",
    "title": "노인봉",
    "address": "강원특별자치도 강릉시 연곡면 삼산리",
    "phone": "",
    "latitude": "37.8306548995",
    "longitude": "128.6576247467",
    "image": "",
    "category": "산"
  },
  {
    "id": "126588",
    "title": "노자산",
    "address": "경상남도 거제시 동부면 구천리",
    "phone": "",
    "latitude": "34.7848840259",
    "longitude": "128.6156764347",
    "image": "http://tong.visitkorea.or.kr/cms/resource/82/3576082_image2_1.jpg",
    "category": "산"
  },
  {
    "id": "125620",
    "title": "노추산",
    "address": "강원특별자치도 정선군 여량면 노추산로 912-2",
    "phone": "",
    "latitude": "37.5412681649",
    "longitude": "128.7620825190",
    "image": "http://tong.visitkorea.or.kr/cms/resource/75/3505475_image2_1.jpg",
    "category": "산"
  },
  {
    "id": "3034357",
    "title": "농암정",
    "address": "충청북도 진천군 초평면 용정리",
    "phone": "",
    "latitude": "36.8273351262",
    "longitude": "127.4957560869",
    "image": "http://tong.visitkorea.or.kr/cms/resource/39/3005839_image2_1.JPG",
    "category": "산"
  },
  {
    "id": "1965800",
    "title": "높은오름",
    "address": "제주특별자치도 제주시 구좌읍 송당리",
    "phone": "",
    "latitude": "33.4573282459",
    "longitude": "126.7928118419",
    "image": "http://tong.visitkorea.or.kr/cms/resource/04/3527004_image2_1.jpg",
    "category": "산"
  },
  {
    "id": "2740127",
    "title": "느지리오름",
    "address": "제주특별자치도 제주시 한림읍 봉수대길 5",
    "phone": "",
    "latitude": "33.3629135599",
    "longitude": "126.2607962828",
    "image": "http://tong.visitkorea.or.kr/cms/resource/56/3585556_image2_1.jpg",
    "category": "산"
  },
  {
    "id": "577461",
    "title": "다랑쉬오름(월랑봉)",
    "address": "제주특별자치도 제주시 구좌읍 세화리 산6",
    "phone": "",
    "latitude": "33.4759988880",
    "longitude": "126.8228310320",
    "image": "http://tong.visitkorea.or.kr/cms/resource/09/3527909_image2_1.jpg",
    "category": "산"
  },
  {
    "id": "2990283",
    "title": "다산 좌학리 은행나무 숲",
    "address": "경상북도 고령군 다산면 좌학리",
    "phone": "",
    "latitude": "35.8113430788",
    "longitude": "128.4326230913",
    "image": "http://tong.visitkorea.or.kr/cms/resource/31/3516931_image2_1.jpg",
    "category": "산"
  },
  {
    "id": "126947",
    "title": "단석산",
    "address": "경상북도 경주시 건천읍 방내리",
    "phone": "",
    "latitude": "35.7946432405",
    "longitude": "129.0889269732",
    "image": "http://tong.visitkorea.or.kr/cms/resource/79/3518879_image2_1.jpg",
    "category": "산"
  },
  {
    "id": "127568",
    "title": "단양 구담봉·옥순봉",
    "address": "충청북도 단양군 단성면 장회리",
    "phone": "",
    "latitude": "36.9377501023",
    "longitude": "128.2469216560",
    "image": "http://tong.visitkorea.or.kr/cms/resource/68/176668_image2_1.jpg",
    "category": "산"
  },
  {
    "id": "127305",
    "title": "단풍산",
    "address": "강원특별자치도 영월군 산솔면 녹전리",
    "phone": "",
    "latitude": "37.4133712106",
    "longitude": "128.7310975139",
    "image": "http://tong.visitkorea.or.kr/cms/resource/78/3555078_image2_1.jpg",
    "category": "산"
  },
  {
    "id": "127385",
    "title": "달마산",
    "address": "전라남도 해남군 송지면 미황사길 164",
    "phone": "",
    "latitude": "34.3830967469",
    "longitude": "126.5764257785",
    "image": "http://tong.visitkorea.or.kr/cms/resource/28/3562028_image2_1.jpg",
    "category": "산"
  },
  {
    "id": "2704703",
    "title": "당산봉",
    "address": "제주특별자치도 제주시 한경면 고산리",
    "phone": "",
    "latitude": "33.3078071658",
    "longitude": "126.1727968238",
    "image": "http://tong.visitkorea.or.kr/cms/resource/84/3477884_image2_1.jpg",
    "category": "산"
  },
  {
    "id": "125467",
    "title": "대금산(가평)",
    "address": "경기도 가평군 조종면 대보리",
    "phone": "",
    "latitude": "37.8189551498",
    "longitude": "127.4210178711",
    "image": "",
    "category": "산"
  },
  {
    "id": "126670",
    "title": "대금산(거제)",
    "address": "경상남도 거제시 연초면 명동리",
    "phone": "",
    "latitude": "34.9495364499",
    "longitude": "128.6922237384",
    "image": "http://tong.visitkorea.or.kr/cms/resource/22/3576122_image2_1.jpg",
    "category": "산"
  },
  {
    "id": "127056",
    "title": "대부산",
    "address": "경기도 양평군 옥천면 신복리",
    "phone": "",
    "latitude": "37.5676522493",
    "longitude": "127.4881190736",
    "image": "",
    "category": "산"
  },
  {
    "id": "2892257",
    "title": "대성산",
    "address": "경상남도 산청군 신등면 양전리",
    "phone": "",
    "latitude": "35.3750390571",
    "longitude": "127.9399199326",
    "image": "http://tong.visitkorea.or.kr/cms/resource/88/3532788_image2_1.JPG",
    "category": "산"
  },
  {
    "id": "3559716",
    "title": "대수산봉",
    "address": "제주특별자치도 서귀포시 성산읍 서성일로1168번길 89-17",
    "phone": "",
    "latitude": "19.6944274800",
    "longitude": "117.9925662504",
    "image": "http://tong.visitkorea.or.kr/cms/resource/45/3559645_image2_1.jpg",
    "category": "산"
  },
  {
    "id": "126569",
    "title": "대야산",
    "address": "경상북도 문경시 가은읍 완장리",
    "phone": "",
    "latitude": "36.6706471601",
    "longitude": "127.9325213124",
    "image": "http://tong.visitkorea.or.kr/cms/resource/02/3041902_image2_1.jpg",
    "category": "산"
  },
  {
    "id": "128214",
    "title": "대운산",
    "address": "울산광역시 울주군 온양읍 대운상대길 225-92",
    "phone": "",
    "latitude": "35.3901665277",
    "longitude": "129.2361865678",
    "image": "http://tong.visitkorea.or.kr/cms/resource/07/3078007_image2_1.bmp",
    "category": "산"
  },
  {
    "id": "3026624",
    "title": "대장봉",
    "address": "전북특별자치도 군산시 옥도면 대장도리",
    "phone": "",
    "latitude": "35.8173982984",
    "longitude": "126.3946150349",
    "image": "http://tong.visitkorea.or.kr/cms/resource/33/3303233_image2_1.jpg",
    "category": "산"
  },
  {
    "id": "2911386",
    "title": "대전 치유의 숲",
    "address": "대전광역시 중구 무수동 195",
    "phone": "",
    "latitude": "36.2900146617",
    "longitude": "127.4110312278",
    "image": "http://tong.visitkorea.or.kr/cms/resource/47/3542547_image2_1.jpg",
    "category": "산"
  },
  {
    "id": "2785998",
    "title": "대포숲",
    "address": "경상남도 산청군 삼장면 대포리",
    "phone": "",
    "latitude": "35.3152406890",
    "longitude": "127.8079192349",
    "image": "http://tong.visitkorea.or.kr/cms/resource/29/2790529_image2_1.jpg",
    "category": "산"
  },
  {
    "id": "127827",
    "title": "덕가산",
    "address": "강원특별자치도 영월군 김삿갓면 영월동로 1547",
    "phone": "",
    "latitude": "37.1218515249",
    "longitude": "128.5611214679",
    "image": "http://tong.visitkorea.or.kr/cms/resource/74/3342174_image2_1.jpg",
    "category": "산"
  },
  {
    "id": "578656",
    "title": "덕룡산",
    "address": "전라남도 강진군 도암면 봉황리",
    "phone": "",
    "latitude": "34.5343901088",
    "longitude": "126.6970893381",
    "image": "",
    "category": "산"
  },
  {
    "id": "3072007",
    "title": "덕봉산",
    "address": "강원특별자치도 삼척시 근덕면 교가리",
    "phone": "",
    "latitude": "37.3884505949",
    "longitude": "129.2385305922",
    "image": "http://tong.visitkorea.or.kr/cms/resource/25/3051125_image2_1.jpg",
    "category": "산"
  },
  {
    "id": "128701",
    "title": "덕숭산",
    "address": "충청남도 예산군 덕산면",
    "phone": "",
    "latitude": "36.6679463582",
    "longitude": "126.6217391894",
    "image": "http://tong.visitkorea.or.kr/cms/resource/03/3347903_image2_1.JPG",
    "category": "산"
  },
  {
    "id": "1586084",
    "title": "덕재산",
    "address": "전북특별자치도 임실군 성수면 봉강리",
    "phone": "",
    "latitude": "35.5878544206",
    "longitude": "127.3382369169",
    "image": "http://tong.visitkorea.or.kr/cms/resource/44/3516344_image2_1.jpg",
    "category": "산"
  },
  {
    "id": "2664734",
    "title": "덕적도 비조봉",
    "address": "인천광역시 옹진군 덕적면 서포리",
    "phone": "",
    "latitude": "37.2191519517",
    "longitude": "126.1311106503",
    "image": "http://tong.visitkorea.or.kr/cms/resource/63/3511363_image2_1.jpg",
    "category": "산"
  },
  {
    "id": "716856",
    "title": "덕태산",
    "address": "전북특별자치도 진안군 백운면 백운동로 401-109",
    "phone": "",
    "latitude": "35.6684971258",
    "longitude": "127.4441698615",
    "image": "http://tong.visitkorea.or.kr/cms/resource/99/3511599_image2_1.jpg",
    "category": "산"
  },
  {
    "id": "1928430",
    "title": "도너리오름",
    "address": "제주특별자치도 서귀포시 안덕면 한창로 775",
    "phone": "",
    "latitude": "33.3243994944",
    "longitude": "126.3320881680",
    "image": "http://tong.visitkorea.or.kr/cms/resource/70/3477170_image2_1.jpg",
    "category": "산"
  },
  {
    "id": "125913",
    "title": "도담삼봉",
    "address": "충청북도 단양군 매포읍 삼봉로 644",
    "phone": "",
    "latitude": "37.0003447435",
    "longitude": "128.3448249603",
    "image": "http://tong.visitkorea.or.kr/cms/resource/67/2618367_image2_1.jpg",
    "category": "산"
  },
  {
    "id": "2738665",
    "title": "도두봉",
    "address": "제주특별자치도 제주시 도두항길 4-17 (도두일동)",
    "phone": "",
    "latitude": "33.5067925638",
    "longitude": "126.4672362102",
    "image": "http://tong.visitkorea.or.kr/cms/resource/14/3523614_image2_1.jpg",
    "category": "산"
  },
  {
    "id": "125465",
    "title": "도드람산(저명산)",
    "address": "경기도 이천시 마장면 목리",
    "phone": "",
    "latitude": "37.2676519224",
    "longitude": "127.3925168955",
    "image": "http://tong.visitkorea.or.kr/cms/resource/40/3060440_image2_1.jpg",
    "category": "산"
  },
  {
    "id": "126653",
    "title": "도락산",
    "address": "충청북도 단양군 단성면 가산리",
    "phone": "",
    "latitude": "36.8564190057",
    "longitude": "128.3131680804",
    "image": "",
    "category": "산"
  },
  {
    "id": "1899959",
    "title": "도리미오름",
    "address": "제주특별자치도 제주시 구좌읍 송당리",
    "phone": "",
    "latitude": "33.4315668324",
    "longitude": "126.7697172117",
    "image": "http://tong.visitkorea.or.kr/cms/resource/80/3585580_image2_1.jpg",
    "category": "산"
  },
  {
    "id": "127271",
    "title": "도명산",
    "address": "충청북도 괴산군 청천면 화양동길 119",
    "phone": "043-542-5267",
    "latitude": "36.6703531966",
    "longitude": "127.8048133044",
    "image": "",
    "category": "산"
  },
  {
    "id": "126481",
    "title": "도봉산",
    "address": "서울특별시 도봉구 도봉동",
    "phone": "",
    "latitude": "37.7009531679",
    "longitude": "127.0155138235",
    "image": "http://tong.visitkorea.or.kr/cms/resource/47/3511647_image2_1.jpg",
    "category": "산"
  },
  {
    "id": "2714802",
    "title": "독수리봉",
    "address": "충청북도 보은군 탄부면 대양리",
    "phone": "",
    "latitude": "36.4162477630",
    "longitude": "127.5844178478",
    "image": "http://tong.visitkorea.or.kr/cms/resource/67/3581967_image2_1.jpg",
    "category": "산"
  },
  {
    "id": "3013539",
    "title": "독실산",
    "address": "전라남도 신안군 흑산면 가거도리",
    "phone": "",
    "latitude": "34.0758997144",
    "longitude": "125.1087064981",
    "image": "",
    "category": "산"
  },
  {
    "id": "3060927",
    "title": "돈암동아리랑고개",
    "address": "서울특별시 성북구 북악산로 809 (정릉동)",
    "phone": "",
    "latitude": "37.6008620145",
    "longitude": "127.0144862123",
    "image": "http://tong.visitkorea.or.kr/cms/resource/42/3053742_image2_1.jpg",
    "category": "산"
  },
  {
    "id": "2014608",
    "title": "동악산(곡성)",
    "address": "전라남도 곡성군 곡성읍 학정리",
    "phone": "",
    "latitude": "35.2889507853",
    "longitude": "127.2603293096",
    "image": "",
    "category": "산"
  },
  {
    "id": "2795779",
    "title": "동호숲",
    "address": "경상남도 거창군 웅양면 동호리 1055-1",
    "phone": "",
    "latitude": "35.8019376764",
    "longitude": "127.9219489990",
    "image": "http://tong.visitkorea.or.kr/cms/resource/29/3368629_image2_1.jpg",
    "category": "산"
  },
  {
    "id": "2381393",
    "title": "두동편백나무숲",
    "address": "전북특별자치도 익산시 성당면 두동길 15",
    "phone": "",
    "latitude": "36.1037856971",
    "longitude": "126.9214355215",
    "image": "http://tong.visitkorea.or.kr/cms/resource/91/3564291_image2_1.jpg",
    "category": "산"
  },
  {
    "id": "1906030",
    "title": "두무산(합천)",
    "address": "경상남도 합천군 가야면 청현리",
    "phone": "",
    "latitude": "35.7086435507",
    "longitude": "128.1243975243",
    "image": "",
    "category": "산"
  },
  {
    "id": "3057219",
    "title": "두산봉",
    "address": "제주특별자치도 서귀포시 성산읍 시흥리",
    "phone": "",
    "latitude": "33.4802105501",
    "longitude": "126.8857171496",
    "image": "http://tong.visitkorea.or.kr/cms/resource/99/3057199_image2_1.jpg",
    "category": "산"
  },
  {
    "id": "126751",
    "title": "두위봉",
    "address": "강원특별자치도 정선군 사북읍 지장천로 436-27",
    "phone": "",
    "latitude": "37.2112754783",
    "longitude": "128.7541848542",
    "image": "http://tong.visitkorea.or.kr/cms/resource/82/3334282_image2_1.jpg",
    "category": "산"
  },
  {
    "id": "125597",
    "title": "두타산",
    "address": "강원특별자치도 삼척시 하장면 두타로",
    "phone": "",
    "latitude": "37.3936041065",
    "longitude": "129.0218137134",
    "image": "http://tong.visitkorea.or.kr/cms/resource/68/3070668_image2_1.jpg",
    "category": "산"
  },
  {
    "id": "127649",
    "title": "두타산",
    "address": "강원특별자치도 동해시 삼화로 538 (삼화동)",
    "phone": "033-539-3700~1",
    "latitude": "37.4634293524",
    "longitude": "129.0194506792",
    "image": "http://tong.visitkorea.or.kr/cms/resource/59/2676059_image2_1.jpg",
    "category": "산"
  },
  {
    "id": "2773863",
    "title": "두타산협곡마천루",
    "address": "강원특별자치도 동해시 삼화로 584",
    "phone": "",
    "latitude": "37.4636236790",
    "longitude": "129.0145372250",
    "image": "http://tong.visitkorea.or.kr/cms/resource/18/2773918_image2_1.jpg",
    "category": "산"
  },
  {
    "id": "2610563",
    "title": "둔주봉",
    "address": "충청북도 옥천군 안남면 연주길 148-18",
    "phone": "",
    "latitude": "36.3519815498",
    "longitude": "127.6645652307",
    "image": "http://tong.visitkorea.or.kr/cms/resource/16/3547416_image2_1.jpg",
    "category": "산"
  },
  {
    "id": "1933208",
    "title": "둔지봉",
    "address": "제주특별자치도 제주시 구좌읍 한동리",
    "phone": "",
    "latitude": "33.5012456847",
    "longitude": "126.7973021108",
    "image": "http://tong.visitkorea.or.kr/cms/resource/39/3527439_image2_1.jpg",
    "category": "산"
  },
  {
    "id": "127786",
    "title": "둔철산",
    "address": "경상남도 산청군 산청읍 범학길",
    "phone": "",
    "latitude": "35.3858461097",
    "longitude": "127.9364449524",
    "image": "http://tong.visitkorea.or.kr/cms/resource/87/3476287_image2_1.jpg",
    "category": "산"
  },
  {
    "id": "1890872",
    "title": "뒤굽은이오름",
    "address": "제주특별자치도 제주시 구좌읍 송당리",
    "phone": "",
    "latitude": "33.4797309110",
    "longitude": "126.7671135570",
    "image": "http://tong.visitkorea.or.kr/cms/resource/22/3526922_image2_1.jpg",
    "category": "산"
  },
  {
    "id": "572968",
    "title": "따라비 오름",
    "address": "제주특별자치도 서귀포시 표선면 가시리",
    "phone": "",
    "latitude": "33.3859437827",
    "longitude": "126.7503310450",
    "image": "http://tong.visitkorea.or.kr/cms/resource/05/3535905_image2_1.jpg",
    "category": "산"
  },
  {
    "id": "2675011",
    "title": "땅뫼산",
    "address": "부산광역시 금정구 오륜대로 260-1",
    "phone": "",
    "latitude": "35.2472747896",
    "longitude": "129.1174425369",
    "image": "http://tong.visitkorea.or.kr/cms/resource/30/3552430_image2_1.jpg",
    "category": "산"
  },
  {
    "id": "127434",
    "title": "마구령·고치령",
    "address": "경상북도 영주시 단산면 영단로",
    "phone": "054-638-6196, 6796",
    "latitude": "37.0492440924",
    "longitude": "128.6081721803",
    "image": "http://tong.visitkorea.or.kr/cms/resource/33/3060533_image2_1.jpg",
    "category": "산"
  },
  {
    "id": "1985839",
    "title": "마금산",
    "address": "경상남도 창원시 의창구 북면 신리길30번길",
    "phone": "",
    "latitude": "35.3540033477",
    "longitude": "128.6028762048",
    "image": "http://tong.visitkorea.or.kr/cms/resource/41/3476341_image2_1.jpg",
    "category": "산"
  },
  {
    "id": "125468",
    "title": "마니산(강화)",
    "address": "인천광역시 강화군 화도면 마니산로675번길 18",
    "phone": "",
    "latitude": "37.6324672881",
    "longitude": "126.4237865154",
    "image": "",
    "category": "산"
  },
  {
    "id": "3061182",
    "title": "마니산국민관광지",
    "address": "인천광역시 강화군 화도면 마니산로675번길 18",
    "phone": "",
    "latitude": "37.6325117278",
    "longitude": "126.4238087338",
    "image": "http://tong.visitkorea.or.kr/cms/resource/14/3001014_image2_1.jpg",
    "category": "산"
  },
  {
    "id": "127299",
    "title": "마대산",
    "address": "강원특별자치도 영월군 김삿갓면 김삿갓로 216-22",
    "phone": "",
    "latitude": "37.0795432685",
    "longitude": "128.6017607474",
    "image": "",
    "category": "산"
  },
  {
    "id": "126893",
    "title": "마복산(고흥)",
    "address": "전라남도 고흥군 봉래면 외초리",
    "phone": "",
    "latitude": "34.4349036820",
    "longitude": "127.5058737174",
    "image": "http://tong.visitkorea.or.kr/cms/resource/38/3544938_image2_1.jpg",
    "category": "산"
  },
  {
    "id": "2746351",
    "title": "마안산",
    "address": "경기도 평택시 현덕면 대안리",
    "phone": "",
    "latitude": "36.9307495830",
    "longitude": "126.9499135485",
    "image": "http://tong.visitkorea.or.kr/cms/resource/38/3514138_image2_1.jpg",
    "category": "산"
  },
  {
    "id": "716562",
    "title": "만덕산",
    "address": "전북특별자치도 완주군 소양면 신촌리",
    "phone": "",
    "latitude": "35.7921439775",
    "longitude": "127.2726151723",
    "image": "http://tong.visitkorea.or.kr/cms/resource/27/3510127_image2_1.jpg",
    "category": "산"
  },
  {
    "id": "127792",
    "title": "만뢰산",
    "address": "충청북도 진천군 백곡면 대문리",
    "phone": "",
    "latitude": "36.8538487609",
    "longitude": "127.3423163779",
    "image": "http://tong.visitkorea.or.kr/cms/resource/64/3498064_image2_1.jpg",
    "category": "산"
  },
  {
    "id": "3038793",
    "title": "만송정 숲",
    "address": "경상북도 안동시 풍천면 하회리",
    "phone": "",
    "latitude": "36.5401119058",
    "longitude": "128.5233695599",
    "image": "http://tong.visitkorea.or.kr/cms/resource/57/3038757_image2_1.jpg",
    "category": "산"
  },
  {
    "id": "3429335",
    "title": "만수산 무장애나눔길",
    "address": "인천광역시 남동구 만수로111번길 38-1 (만수동)",
    "phone": "",
    "latitude": "37.4679224874",
    "longitude": "126.7356764817",
    "image": "http://tong.visitkorea.or.kr/cms/resource/42/3432342_image2_1.jpeg",
    "category": "산"
  },
  {
    "id": "128990",
    "title": "만연산",
    "address": "전라남도 화순군 화순읍 진각로",
    "phone": "",
    "latitude": "35.0943293368",
    "longitude": "126.9950576668",
    "image": "http://tong.visitkorea.or.kr/cms/resource/98/2604598_image2_1.jpg",
    "category": "산"
  },
  {
    "id": "127807",
    "title": "망산",
    "address": "경상남도 통영시 한산면 하소리",
    "phone": "",
    "latitude": "34.7703084463",
    "longitude": "128.4925236368",
    "image": "http://tong.visitkorea.or.kr/cms/resource/49/3580249_image2_1.jpg",
    "category": "산"
  },
  {
    "id": "1115203",
    "title": "망우산(서울)",
    "address": "서울특별시 중랑구 망우동 산 69-1",
    "phone": "",
    "latitude": "37.5942810870",
    "longitude": "127.1056030968",
    "image": "http://tong.visitkorea.or.kr/cms/resource/89/1902989_image2_1.jpg",
    "category": "산"
  },
  {
    "id": "127824",
    "title": "매봉산",
    "address": "강원특별자치도 영월군 중동면 성황골길 127-33",
    "phone": "",
    "latitude": "37.1523632546",
    "longitude": "128.6321225390",
    "image": "",
    "category": "산"
  },
  {
    "id": "1131275",
    "title": "매헌시민의 숲",
    "address": "서울특별시 서초구 매헌로 99 (양재동)",
    "phone": "",
    "latitude": "37.4691610476",
    "longitude": "127.0368379074",
    "image": "http://tong.visitkorea.or.kr/cms/resource/02/3571602_image2_1.jpg",
    "category": "산"
  },
  {
    "id": "125609",
    "title": "매화산(강원)",
    "address": "강원특별자치도 원주시 소초면",
    "phone": "033-733-1330",
    "latitude": "37.4063627557",
    "longitude": "128.0965381607",
    "image": "",
    "category": "산"
  },
  {
    "id": "1906036",
    "title": "매화산(합천)",
    "address": "경상남도 합천군 가야면 해인사길",
    "phone": "",
    "latitude": "35.7626870179",
    "longitude": "128.1014675273",
    "image": "",
    "category": "산"
  },
  {
    "id": "3543149",
    "title": "면천읍성 대숲바람길",
    "address": "충청남도 당진시 면천면 성상리",
    "phone": "",
    "latitude": "36.0000432216",
    "longitude": "126.6697135255",
    "image": "http://tong.visitkorea.or.kr/cms/resource/41/3543141_image2_1.jpg",
    "category": "산"
  },
  {
    "id": "125469",
    "title": "명성산",
    "address": "경기도 포천시 이동면 도평리",
    "phone": "",
    "latitude": "38.0956743687",
    "longitude": "127.3504217471",
    "image": "",
    "category": "산"
  },
  {
    "id": "1926601",
    "title": "모구리오름",
    "address": "제주특별자치도 서귀포시 성산읍 난산리",
    "phone": "",
    "latitude": "33.4081287094",
    "longitude": "126.8290126084",
    "image": "http://tong.visitkorea.or.kr/cms/resource/96/3477496_image2_1.jpg",
    "category": "산"
  },
  {
    "id": "127573",
    "title": "모악산",
    "address": "전북특별자치도 완주군 모악산길 91 모악산관리사무소",
    "phone": "",
    "latitude": "35.7295093826",
    "longitude": "127.1098840530",
    "image": "http://tong.visitkorea.or.kr/cms/resource/50/3510250_image2_1.jpg",
    "category": "산"
  },
  {
    "id": "1928045",
    "title": "모지오름",
    "address": "제주특별자치도 서귀포시 표선면 성읍리",
    "phone": "",
    "latitude": "33.3962624499",
    "longitude": "126.7728760781",
    "image": "http://tong.visitkorea.or.kr/cms/resource/83/3477483_image2_1.jpg",
    "category": "산"
  },
  {
    "id": "127849",
    "title": "모후산",
    "address": "전라남도 화순군 사평면 유마로",
    "phone": "",
    "latitude": "35.0323533824",
    "longitude": "127.1816538787",
    "image": "",
    "category": "산"
  },
  {
    "id": "129034",
    "title": "목계솔밭(청송)",
    "address": "경상북도 청송군 파천면 청송로 6070",
    "phone": "",
    "latitude": "36.5000454718",
    "longitude": "129.0298285728",
    "image": "http://tong.visitkorea.or.kr/cms/resource/20/3531320_image2_1.jpg",
    "category": "산"
  },
  {
    "id": "2787232",
    "title": "목아재",
    "address": "전라남도 구례군 토지면 외곡리",
    "phone": "",
    "latitude": "35.2164398758",
    "longitude": "127.6014177638",
    "image": "http://tong.visitkorea.or.kr/cms/resource/53/2790353_image2_1.jpg",
    "category": "산"
  },
  {
    "id": "127303",
    "title": "목우산",
    "address": "강원특별자치도 영월군 산솔면 응고개길 169-2",
    "phone": "",
    "latitude": "37.1370078636",
    "longitude": "128.6939007994",
    "image": "http://tong.visitkorea.or.kr/cms/resource/64/3342164_image2_1.jpg",
    "category": "산"
  },
  {
    "id": "127842",
    "title": "몰운대(정선)",
    "address": "강원특별자치도 정선군 화암면 약수길 1330",
    "phone": "",
    "latitude": "37.3181559522",
    "longitude": "128.8117487099",
    "image": "http://tong.visitkorea.or.kr/cms/resource/00/3100000_image2_1.jpg",
    "category": "산"
  },
  {
    "id": "125483",
    "title": "몽덕산",
    "address": "경기도 가평군 북면 화악리",
    "phone": "",
    "latitude": "37.9549704564",
    "longitude": "127.6030556042",
    "image": "",
    "category": "산"
  },
  {
    "id": "2614783",
    "title": "무등산 정상3봉 (무등산 국가지질공원)",
    "address": "광주광역시 북구 무등로 1550 (금곡동)",
    "phone": "",
    "latitude": "35.1442791515",
    "longitude": "126.9888819591",
    "image": "http://tong.visitkorea.or.kr/cms/resource/78/2614778_image2_1.bmp",
    "category": "산"
  },
  {
    "id": "3082713",
    "title": "무룡고개",
    "address": "전북특별자치도 장수군 번암면 지지리",
    "phone": "",
    "latitude": "35.6440862159",
    "longitude": "127.6143748760",
    "image": "http://tong.visitkorea.or.kr/cms/resource/06/3082706_image2_1.jpg",
    "category": "산"
  },
  {
    "id": "3017579",
    "title": "무봉산",
    "address": "경기도 화성시 중동",
    "phone": "",
    "latitude": "37.2051520522",
    "longitude": "127.1529153530",
    "image": "http://tong.visitkorea.or.kr/cms/resource/08/3004208_image2_1.jpg",
    "category": "산"
  },
  {
    "id": "3014710",
    "title": "무안 물맞이 치유의 숲",
    "address": "전라남도 무안군 무안읍 치유의숲길 40",
    "phone": "",
    "latitude": "34.9692097609",
    "longitude": "126.4752511461",
    "image": "http://tong.visitkorea.or.kr/cms/resource/45/3535745_image2_1.jpg",
    "category": "산"
  },
  {
    "id": "2752132",
    "title": "무장산",
    "address": "경상북도 경주시 암곡동",
    "phone": "",
    "latitude": "35.8752417593",
    "longitude": "129.3452299958",
    "image": "http://tong.visitkorea.or.kr/cms/resource/76/3509276_image2_1.jpg",
    "category": "산"
  },
  {
    "id": "127092",
    "title": "무척산",
    "address": "경상남도 김해시 생림면, 상동면",
    "phone": "",
    "latitude": "35.3510973628",
    "longitude": "128.8649589236",
    "image": "http://tong.visitkorea.or.kr/cms/resource/57/3542057_image2_1.jpg",
    "category": "산"
  },
  {
    "id": "127576",
    "title": "무학산",
    "address": "경상남도 창원시 마산회원구 내서읍 감천리",
    "phone": "",
    "latitude": "35.2107404533",
    "longitude": "128.5358248283",
    "image": "http://tong.visitkorea.or.kr/cms/resource/00/3576700_image2_1.jpg",
    "category": "산"
  },
  {
    "id": "2433925",
    "title": "물영아리오름",
    "address": "제주특별자치도 서귀포시 남원읍 태수로 552",
    "phone": "",
    "latitude": "33.3268525509",
    "longitude": "126.7169963890",
    "image": "http://tong.visitkorea.or.kr/cms/resource/64/3552664_image2_1.jpg",
    "category": "산"
  },
  {
    "id": "1576625",
    "title": "미녀봉",
    "address": "경상남도 거창군 가조면 기리2길",
    "phone": "055-940-3470",
    "latitude": "35.6800038985",
    "longitude": "128.0561848732",
    "image": "http://tong.visitkorea.or.kr/cms/resource/79/3531579_image2_1.jpg",
    "category": "산"
  },
  {
    "id": "2763687",
    "title": "미래사 편백나무숲",
    "address": "경상남도 통영시 산양읍 미륵산길 192",
    "phone": "",
    "latitude": "34.8043866942",
    "longitude": "128.4209789691",
    "image": "http://tong.visitkorea.or.kr/cms/resource/59/3557659_image2_1.jpg",
    "category": "산"
  },
  {
    "id": "125607",
    "title": "미륵산",
    "address": "강원특별자치도 원주시 귀래면 용암동막길",
    "phone": "",
    "latitude": "37.1718990437",
    "longitude": "127.8454926191",
    "image": "",
    "category": "산"
  },
  {
    "id": "126245",
    "title": "미륵산(익산)",
    "address": "전북특별자치도 익산시 금마면 신용리",
    "phone": "",
    "latitude": "36.0258300361",
    "longitude": "127.0429294914",
    "image": "http://tong.visitkorea.or.kr/cms/resource/76/3511676_image2_1.jpg",
    "category": "산"
  },
  {
    "id": "126659",
    "title": "미륵산(통영)",
    "address": "경상남도 통영시 봉평동",
    "phone": "",
    "latitude": "34.8108358884",
    "longitude": "128.4162236584",
    "image": "http://tong.visitkorea.or.kr/cms/resource/74/3557774_image2_1.jpg",
    "category": "산"
  },
  {
    "id": "1906159",
    "title": "미숭산",
    "address": "경상남도 합천군 야로면 미숭산로",
    "phone": "",
    "latitude": "35.7278815062",
    "longitude": "128.1933020349",
    "image": "",
    "category": "산"
  },
  {
    "id": "2765223",
    "title": "미악산",
    "address": "제주특별자치도 서귀포시 인정오름로 387-63",
    "phone": "",
    "latitude": "33.3005945221",
    "longitude": "126.5542194241",
    "image": "http://tong.visitkorea.or.kr/cms/resource/54/3585154_image2_1.jpg",
    "category": "산"
  },
  {
    "id": "125616",
    "title": "민둥산",
    "address": "강원특별자치도 정선군 남면 무릉리",
    "phone": "",
    "latitude": "37.2709523444",
    "longitude": "128.7749256517",
    "image": "http://tong.visitkorea.or.kr/cms/resource/27/3492827_image2_1.jpg",
    "category": "산"
  },
  {
    "id": "127815",
    "title": "민주지산",
    "address": "충청북도 영동군 상촌면 물한리",
    "phone": "",
    "latitude": "36.0414926756",
    "longitude": "127.8593563818",
    "image": "",
    "category": "산"
  },
  {
    "id": "1933217",
    "title": "바늘오름",
    "address": "제주특별자치도 제주시 조천읍 교래리",
    "phone": "",
    "latitude": "33.4537041957",
    "longitude": "126.6540100777",
    "image": "http://tong.visitkorea.or.kr/cms/resource/44/3477944_image2_1.jpg",
    "category": "산"
  },
  {
    "id": "129479",
    "title": "바람의 언덕",
    "address": "경상남도 거제시 남부면 도장포마을",
    "phone": "",
    "latitude": "34.7440838814",
    "longitude": "128.6633372606",
    "image": "http://tong.visitkorea.or.kr/cms/resource/81/3368081_image2_1.jpg",
    "category": "산"
  },
  {
    "id": "126675",
    "title": "바래봉",
    "address": "전북특별자치도 남원시 산내면 내령리",
    "phone": "",
    "latitude": "35.4215412863",
    "longitude": "127.5762174314",
    "image": "http://tong.visitkorea.or.kr/cms/resource/90/3516990_image2_1.jpg",
    "category": "산"
  },
  {
    "id": "2765227",
    "title": "바리메오름",
    "address": "제주특별자치도 제주시 애월읍 어음리 산1",
    "phone": "",
    "latitude": "33.3930648051",
    "longitude": "126.3752995443",
    "image": "http://tong.visitkorea.or.kr/cms/resource/66/3523666_image2_1.jpg",
    "category": "산"
  },
  {
    "id": "129272",
    "title": "박달산(괴산)",
    "address": "충청북도 괴산군 장연면",
    "phone": "",
    "latitude": "36.8424549992",
    "longitude": "127.9201064497",
    "image": "http://tong.visitkorea.or.kr/cms/resource/70/1851970_image2_1.jpg",
    "category": "산"
  },
  {
    "id": "129273",
    "title": "박달산(파주)",
    "address": "경기도 파주시 광탄면 분수리",
    "phone": "",
    "latitude": "37.7617743746",
    "longitude": "126.8895680390",
    "image": "http://tong.visitkorea.or.kr/cms/resource/78/1860078_image2_1.jpg",
    "category": "산"
  },
  {
    "id": "1626995",
    "title": "박달재",
    "address": "충청북도 제천시봉양읍 원박리",
    "phone": "",
    "latitude": "37.1445283432",
    "longitude": "128.0572965694",
    "image": "http://tong.visitkorea.or.kr/cms/resource/22/3493922_image2_1.jpg",
    "category": "산"
  },
  {
    "id": "127828",
    "title": "발산",
    "address": "강원특별자치도 영월군 영월읍 보덕사길 15-2",
    "phone": "1577-0545",
    "latitude": "37.1965353777",
    "longitude": "128.4554620630",
    "image": "",
    "category": "산"
  },
  {
    "id": "2784737",
    "title": "밤재",
    "address": "전라남도 구례군 산동면 계천리 산12-1",
    "phone": "",
    "latitude": "35.3281078142",
    "longitude": "127.4407095975",
    "image": "http://tong.visitkorea.or.kr/cms/resource/03/2790603_image2_1.jpg",
    "category": "산"
  },
  {
    "id": "2891725",
    "title": "방어산",
    "address": "경상남도 함안군 군북면 하림리",
    "phone": "",
    "latitude": "35.2536395921",
    "longitude": "128.2932226898",
    "image": "",
    "category": "산"
  },
  {
    "id": "717051",
    "title": "방장산",
    "address": "전북특별자치도 고창군 신림면 신평리",
    "phone": "",
    "latitude": "35.4562064319",
    "longitude": "126.7471482953",
    "image": "http://tong.visitkorea.or.kr/cms/resource/44/3518644_image2_1.jpg",
    "category": "산"
  },
  {
    "id": "127499",
    "title": "방태산",
    "address": "강원특별자치도 인제군 기린면 방태산길",
    "phone": "",
    "latitude": "37.9438728399",
    "longitude": "128.3962310388",
    "image": "http://tong.visitkorea.or.kr/cms/resource/79/3357579_image2_1.jpg",
    "category": "산"
  },
  {
    "id": "2748867",
    "title": "배내고개",
    "address": "울산광역시 울주군 상북면 양등리 801-1",
    "phone": "",
    "latitude": "35.5816938807",
    "longitude": "129.0275911051",
    "image": "",
    "category": "산"
  },
  {
    "id": "3031303",
    "title": "배방산",
    "address": "충청남도 아산시 배방읍 회룡리",
    "phone": "",
    "latitude": "36.7478392141",
    "longitude": "127.0568311227",
    "image": "http://tong.visitkorea.or.kr/cms/resource/01/3031301_image2_1.jpg",
    "category": "산"
  },
  {
    "id": "2661483",
    "title": "배봉산",
    "address": "서울특별시 동대문구 전농동",
    "phone": "",
    "latitude": "37.5809541050",
    "longitude": "127.0638156159",
    "image": "",
    "category": "산"
  },
  {
    "id": "3069902",
    "title": "배부른산",
    "address": "강원특별자치도 원주시 흥업면 사제리",
    "phone": "",
    "latitude": "37.3250519567",
    "longitude": "127.9074214911",
    "image": "http://tong.visitkorea.or.kr/cms/resource/96/3069896_image2_1.jpg",
    "category": "산"
  },
  {
    "id": "2914353",
    "title": "배후령고개",
    "address": "강원특별자치도 춘천시 신북읍 유포리",
    "phone": "",
    "latitude": "37.9775351697",
    "longitude": "127.7880797332",
    "image": "http://tong.visitkorea.or.kr/cms/resource/39/2914339_image2_1.JPG",
    "category": "산"
  },
  {
    "id": "2610573",
    "title": "백골산성",
    "address": "대전광역시 동구 산하동",
    "phone": "",
    "latitude": "36.3624220044",
    "longitude": "127.5083538968",
    "image": "",
    "category": "산"
  },
  {
    "id": "125613",
    "title": "백덕산(영월)",
    "address": "강원특별자치도 영월군 무릉도원면 백년계곡길 200-5",
    "phone": "",
    "latitude": "37.3834325667",
    "longitude": "128.2707259161",
    "image": "",
    "category": "산"
  },
  {
    "id": "125596",
    "title": "백덕산(평창)",
    "address": "강원특별자치도 평창군 평창읍 원당리",
    "phone": "",
    "latitude": "37.4277639186",
    "longitude": "128.2897589983",
    "image": "",
    "category": "산"
  },
  {
    "id": "2614815",
    "title": "백마능선 (무등산권 국가지질공원)",
    "address": "광주광역시 북구 무등로 1550",
    "phone": "",
    "latitude": "35.1441458348",
    "longitude": "126.9890013959",
    "image": "http://tong.visitkorea.or.kr/cms/resource/14/2614814_image2_1.bmp",
    "category": "산"
  },
  {
    "id": "125824",
    "title": "백마산",
    "address": "충청북도 음성군 원남면 주봉리",
    "phone": "",
    "latitude": "36.8442861675",
    "longitude": "127.6609990948",
    "image": "",
    "category": "산"
  },
  {
    "id": "127579",
    "title": "백봉산",
    "address": "경기도 남양주시 금곡동, 평내동, 와부읍, 화도읍",
    "phone": "",
    "latitude": "37.6375927014",
    "longitude": "127.2578379932",
    "image": "http://tong.visitkorea.or.kr/cms/resource/90/3077090_image2_1.jpg",
    "category": "산"
  },
  {
    "id": "127841",
    "title": "백석봉(정선)",
    "address": "강원특별자치도 정선군 북평면 졸드루길 11-16",
    "phone": "",
    "latitude": "37.4681351924",
    "longitude": "128.6308465346",
    "image": "http://tong.visitkorea.or.kr/cms/resource/73/3505273_image2_1.jpg",
    "category": "산"
  },
  {
    "id": "126244",
    "title": "백아산",
    "address": "전라남도 화순군 백아면 용촌길",
    "phone": "",
    "latitude": "35.1724371708",
    "longitude": "127.1571524997",
    "image": "http://tong.visitkorea.or.kr/cms/resource/14/1608214_image2_1.jpg",
    "category": "산"
  },
  {
    "id": "2993160",
    "title": "백악마루",
    "address": "서울특별시 종로구 부암동 30",
    "phone": "",
    "latitude": "37.5939481211",
    "longitude": "126.9695127307",
    "image": "",
    "category": "산"
  },
  {
    "id": "127838",
    "title": "백악산",
    "address": "충청북도 괴산군 청천면 괴산로대방래길 158",
    "phone": "",
    "latitude": "36.6193704739",
    "longitude": "127.8225298143",
    "image": "",
    "category": "산"
  },
  {
    "id": "126044",
    "title": "백암산(울진)",
    "address": "경상북도 울진군 온정면 덕인리",
    "phone": "",
    "latitude": "36.7180063356",
    "longitude": "129.2983316983",
    "image": "http://tong.visitkorea.or.kr/cms/resource/72/1979172_image2_1.jpg",
    "category": "산"
  },
  {
    "id": "126247",
    "title": "백암산(장성)",
    "address": "전라남도 장성군 북하면 신성리",
    "phone": "",
    "latitude": "35.4398295652",
    "longitude": "126.8552835516",
    "image": "http://tong.visitkorea.or.kr/cms/resource/88/1255388_image2_1.jpg",
    "category": "산"
  },
  {
    "id": "2731801",
    "title": "백약이오름",
    "address": "제주특별자치도 서귀포시 표선면 성읍리 산1",
    "phone": "",
    "latitude": "33.4372359797",
    "longitude": "126.7901986394",
    "image": "http://tong.visitkorea.or.kr/cms/resource/91/2731791_image2_1.jpg",
    "category": "산"
  },
  {
    "id": "2614723",
    "title": "백양산 (부산 국가지질공원)",
    "address": "부산광역시 부산진구 새싹로 295",
    "phone": "051-605-4000",
    "latitude": "35.1853692278",
    "longitude": "129.0424174355",
    "image": "http://tong.visitkorea.or.kr/cms/resource/34/3368334_image2_1.jpg",
    "category": "산"
  },
  {
    "id": "2677748",
    "title": "백양산 웰빙숲",
    "address": "부산광역시 사상구 모라동",
    "phone": "",
    "latitude": "35.1849381103",
    "longitude": "129.0093258839",
    "image": "http://tong.visitkorea.or.kr/cms/resource/04/3575804_image2_1.jpg",
    "category": "산"
  },
  {
    "id": "126255",
    "title": "백운산(광양)",
    "address": "전라남도 광양시 옥룡면",
    "phone": "",
    "latitude": "35.0984728069",
    "longitude": "127.6128809112",
    "image": "",
    "category": "산"
  },
  {
    "id": "127081",
    "title": "백운산(정선)",
    "address": "강원특별자치도 정선군 신동읍 점재길",
    "phone": "",
    "latitude": "37.2804339450",
    "longitude": "128.5961608375",
    "image": "http://tong.visitkorea.or.kr/cms/resource/95/3505595_image2_1.jpg",
    "category": "산"
  },
  {
    "id": "125471",
    "title": "백운산(포천)",
    "address": "경기도 포천시 이동면 포화로 236-73",
    "phone": "",
    "latitude": "38.0717116048",
    "longitude": "127.4102780889",
    "image": "http://tong.visitkorea.or.kr/cms/resource/85/3024485_image2_1.jpg",
    "category": "산"
  },
  {
    "id": "126769",
    "title": "백월산",
    "address": "경상남도 창원시 의창구 북면 마산리",
    "phone": "",
    "latitude": "35.3337395188",
    "longitude": "128.6335240728",
    "image": "",
    "category": "산"
  },
  {
    "id": "2704699",
    "title": "백화산",
    "address": "경상북도 상주시 모동면 수봉리",
    "phone": "",
    "latitude": "36.3024471032",
    "longitude": "127.9052201412",
    "image": "",
    "category": "산"
  },
  {
    "id": "252585",
    "title": "백화산(영동)",
    "address": "충청북도 영동군 황간면 우매리",
    "phone": "",
    "latitude": "36.2778443390",
    "longitude": "127.9043209013",
    "image": "",
    "category": "산"
  },
  {
    "id": "1532480",
    "title": "백화산(태안)",
    "address": "충청남도 태안군 태안읍 동문리 41-2 일대",
    "phone": "",
    "latitude": "36.7669460973",
    "longitude": "126.3012016645",
    "image": "http://tong.visitkorea.or.kr/cms/resource/74/3493374_image2_1.jpg",
    "category": "산"
  },
  {
    "id": "2673424",
    "title": "법화산",
    "address": "경기도 용인시 기흥구 청덕동",
    "phone": "",
    "latitude": "37.3047515772",
    "longitude": "127.1496156324",
    "image": "http://tong.visitkorea.or.kr/cms/resource/59/3503159_image2_1.jpg",
    "category": "산"
  },
  {
    "id": "2846008",
    "title": "벗고개",
    "address": "경기도 양평군 양동면 벗고갯길 121",
    "phone": "",
    "latitude": "37.5020254435",
    "longitude": "127.7311517178",
    "image": "http://tong.visitkorea.or.kr/cms/resource/91/2845991_image2_1.jpg",
    "category": "산"
  },
  {
    "id": "2796715",
    "title": "베릿네오름",
    "address": "제주특별자치도 서귀포시 중문동 2314-2",
    "phone": "",
    "latitude": "33.2474788502",
    "longitude": "126.4220098576",
    "image": "http://tong.visitkorea.or.kr/cms/resource/07/3552607_image2_1.jpg",
    "category": "산"
  },
  {
    "id": "126663",
    "title": "벽방산",
    "address": "경상남도 통영시 광도면 안정리",
    "phone": "",
    "latitude": "34.9593378743",
    "longitude": "128.3691238586",
    "image": "http://tong.visitkorea.or.kr/cms/resource/24/3558024_image2_1.jpg",
    "category": "산"
  },
  {
    "id": "1069292",
    "title": "별도봉",
    "address": "제주특별자치도 제주시 화북일동",
    "phone": "",
    "latitude": "33.5192286663",
    "longitude": "126.5531117946",
    "image": "http://tong.visitkorea.or.kr/cms/resource/05/3527105_image2_1.jpg",
    "category": "산"
  },
  {
    "id": "2569514",
    "title": "병풍산",
    "address": "강원특별자치도 화천군 간동면 방천리",
    "phone": "",
    "latitude": "38.0747077206",
    "longitude": "127.8167297626",
    "image": "",
    "category": "산"
  },
  {
    "id": "126252",
    "title": "병풍산(담양)",
    "address": "전라남도 담양군 수북면 대방리",
    "phone": "",
    "latitude": "35.3246209072",
    "longitude": "126.8856615499",
    "image": "http://tong.visitkorea.or.kr/cms/resource/57/3582057_image2_1.jpg",
    "category": "산"
  },
  {
    "id": "2407325",
    "title": "보강천미루나무숲",
    "address": "충청북도 증평군 증평읍 인삼로 104-48",
    "phone": "",
    "latitude": "36.7885188929",
    "longitude": "127.5802940184",
    "image": "",
    "category": "산"
  },
  {
    "id": "126772",
    "title": "보련산",
    "address": "충청북도 충주시 노은면 보련골길 78",
    "phone": "",
    "latitude": "37.0512698171",
    "longitude": "127.7658532485",
    "image": "http://tong.visitkorea.or.kr/cms/resource/35/3344835_image2_1.JPG",
    "category": "산"
  },
  {
    "id": "578670",
    "title": "보은산",
    "address": "전라남도 강진군 강진읍 동성리",
    "phone": "",
    "latitude": "34.6555082328",
    "longitude": "126.7671191406",
    "image": "http://tong.visitkorea.or.kr/cms/resource/25/1970925_image2_1.jpg",
    "category": "산"
  },
  {
    "id": "1576566",
    "title": "보해산(금귀봉)",
    "address": "경상남도 거창군 가북면 가북로",
    "phone": "055-940-3470",
    "latitude": "35.7301741421",
    "longitude": "127.9528704222",
    "image": "http://tong.visitkorea.or.kr/cms/resource/81/3341081_image2_1.jpg",
    "category": "산"
  },
  {
    "id": "1997570",
    "title": "보현산(영천)",
    "address": "경상북도 영천시 화북면 정각리",
    "phone": "",
    "latitude": "36.1657435896",
    "longitude": "128.9773262187",
    "image": "http://tong.visitkorea.or.kr/cms/resource/03/3518003_image2_1.jpg",
    "category": "산"
  },
  {
    "id": "127810",
    "title": "봉래산(고흥)",
    "address": "전라남도 고흥군 봉래면 외초리",
    "phone": "",
    "latitude": "34.4349036820",
    "longitude": "127.5058737174",
    "image": "http://tong.visitkorea.or.kr/cms/resource/39/3544939_image2_1.jpg",
    "category": "산"
  },
  {
    "id": "252563",
    "title": "봉래산(부산)",
    "address": "부산광역시 영도구 청학동",
    "phone": "",
    "latitude": "35.0822393454",
    "longitude": "129.0553274634",
    "image": "http://tong.visitkorea.or.kr/cms/resource/65/3503265_image2_1.jpg",
    "category": "산"
  },
  {
    "id": "2777305",
    "title": "봉래산(영월)",
    "address": "강원특별자치도 영월군 영월읍 영흥리",
    "phone": "",
    "latitude": "37.1984496284",
    "longitude": "128.4862231360",
    "image": "http://tong.visitkorea.or.kr/cms/resource/35/3557235_image2_1.JPG",
    "category": "산"
  },
  {
    "id": "2788101",
    "title": "봉화산",
    "address": "전북특별자치도 남원시 아영면 구상리",
    "phone": "",
    "latitude": "35.5358424159",
    "longitude": "127.5858191440",
    "image": "http://tong.visitkorea.or.kr/cms/resource/46/2791546_image2_1.jpg",
    "category": "산"
  },
  {
    "id": "1115042",
    "title": "봉화산(서울)",
    "address": "서울특별시 중랑구 묵동",
    "phone": "",
    "latitude": "37.6083541160",
    "longitude": "127.0870155001",
    "image": "http://tong.visitkorea.or.kr/cms/resource/23/3573123_image2_1.jpg",
    "category": "산"
  },
  {
    "id": "3007602",
    "title": "봉황대(춘천)",
    "address": "강원특별자치도 춘천시 스포츠타운길 318 (삼천동)",
    "phone": "",
    "latitude": "37.8709680346",
    "longitude": "127.6938137121",
    "image": "http://tong.visitkorea.or.kr/cms/resource/51/3007551_image2_1.jpg",
    "category": "산"
  },
  {
    "id": "3454440",
    "title": "부소산",
    "address": "충청남도 부여군 부여읍 쌍북리",
    "phone": "",
    "latitude": "36.2894449371",
    "longitude": "126.9168143694",
    "image": "http://tong.visitkorea.or.kr/cms/resource/44/3453844_image2_1.jpg",
    "category": "산"
  },
  {
    "id": "129477",
    "title": "부여 수리바위",
    "address": "충청남도 부여군 외산면 만수리",
    "phone": "",
    "latitude": "36.2911076946",
    "longitude": "126.7017752887",
    "image": "http://tong.visitkorea.or.kr/cms/resource/37/3349037_image2_1.jpg",
    "category": "산"
  },
  {
    "id": "127261",
    "title": "북병산",
    "address": "경상남도 거제시 동부면",
    "phone": "",
    "latitude": "34.8177088723",
    "longitude": "128.6564803533",
    "image": "http://tong.visitkorea.or.kr/cms/resource/06/3519206_image2_1.jpg",
    "category": "산"
  },
  {
    "id": "809190",
    "title": "북악산",
    "address": "서울특별시 종로구 청운동",
    "phone": "",
    "latitude": "37.5931538442",
    "longitude": "126.9737151476",
    "image": "",
    "category": "산"
  },
  {
    "id": "2783363",
    "title": "북한산 백운대(우이동)",
    "address": "서울특별시 강북구 도선사길 234 (우이동)",
    "phone": "",
    "latitude": "37.6583104651",
    "longitude": "126.9909450591",
    "image": "http://tong.visitkorea.or.kr/cms/resource/83/2795083_image2_1.jpeg",
    "category": "산"
  },
  {
    "id": "2779558",
    "title": "북한산 족두리봉",
    "address": "서울특별시 은평구 진흥로 325 (불광동)",
    "phone": "",
    "latitude": "37.6108068309",
    "longitude": "126.9449506033",
    "image": "http://tong.visitkorea.or.kr/cms/resource/13/2796513_image2_1.jpg",
    "category": "산"
  },
  {
    "id": "126545",
    "title": "불곡산",
    "address": "경기도 양주시 유양동",
    "phone": "031-8082-6220",
    "latitude": "37.7986448111",
    "longitude": "127.0288986934",
    "image": "http://tong.visitkorea.or.kr/cms/resource/23/3067723_image2_1.jpg",
    "category": "산"
  },
  {
    "id": "716576",
    "title": "불명산",
    "address": "전북특별자치도 완주군 경천면 화암사길 271",
    "phone": "",
    "latitude": "36.0664935453",
    "longitude": "127.2868260956",
    "image": "http://tong.visitkorea.or.kr/cms/resource/11/3562411_image2_1.jpg",
    "category": "산"
  },
  {
    "id": "126482",
    "title": "불암산",
    "address": "서울특별시 노원구 상계동",
    "phone": "",
    "latitude": "37.6637533728",
    "longitude": "127.0949159758",
    "image": "",
    "category": "산"
  },
  {
    "id": "2779449",
    "title": "비밀의 숲",
    "address": "제주특별자치도 제주시 구좌읍 송당리 2173",
    "phone": "",
    "latitude": "33.4537780343",
    "longitude": "126.7552818445",
    "image": "http://tong.visitkorea.or.kr/cms/resource/87/3354187_image2_1.jpg",
    "category": "산"
  },
  {
    "id": "128285",
    "title": "비봉산(안성)",
    "address": "경기도 안성시 보개면 불현리",
    "phone": "",
    "latitude": "37.0268499092",
    "longitude": "127.2789172786",
    "image": "http://tong.visitkorea.or.kr/cms/resource/00/3517700_image2_1.jpg",
    "category": "산"
  },
  {
    "id": "126602",
    "title": "비봉산(양구)",
    "address": "강원특별자치도 양구군 양구읍 하리",
    "phone": "",
    "latitude": "38.1144566351",
    "longitude": "128.0046225421",
    "image": "http://tong.visitkorea.or.kr/cms/resource/22/3514822_image2_1.jpg",
    "category": "산"
  },
  {
    "id": "2610497",
    "title": "비봉산(제천)",
    "address": "충청북도 제천시 청풍면 광의리",
    "phone": "",
    "latitude": "37.0082373003",
    "longitude": "128.1435899888",
    "image": "http://tong.visitkorea.or.kr/cms/resource/83/3062583_image2_1.JPG",
    "category": "산"
  },
  {
    "id": "1895633",
    "title": "비양봉",
    "address": "제주특별자치도 제주시 한림읍 협재리",
    "phone": "",
    "latitude": "33.4085746459",
    "longitude": "126.2271120833",
    "image": "http://tong.visitkorea.or.kr/cms/resource/71/3585371_image2_1.jpg",
    "category": "산"
  },
  {
    "id": "127206",
    "title": "뾰족산(보죽산)",
    "address": "전라남도 완도군 보길면 부황리",
    "phone": "",
    "latitude": "34.1246052040",
    "longitude": "126.5153011232",
    "image": "",
    "category": "산"
  },
  {
    "id": "1069144",
    "title": "사라봉",
    "address": "제주특별자치도 제주시 사라봉동길 61",
    "phone": "",
    "latitude": "33.5176259547",
    "longitude": "126.5461513246",
    "image": "http://tong.visitkorea.or.kr/cms/resource/99/3053499_image2_1.jpg",
    "category": "산"
  },
  {
    "id": "1215292",
    "title": "사라오름",
    "address": "제주특별자치도 서귀포시 남원읍 신례리 산 2-1",
    "phone": "",
    "latitude": "33.3642521899",
    "longitude": "126.6050441353",
    "image": "http://tong.visitkorea.or.kr/cms/resource/60/3523460_image2_1.jpg",
    "category": "산"
  },
  {
    "id": "126852",
    "title": "사량도 지리산",
    "address": "경상남도 통영시 사량면 돈지리",
    "phone": "",
    "latitude": "34.8450334605",
    "longitude": "128.1821709447",
    "image": "http://tong.visitkorea.or.kr/cms/resource/41/3580141_image2_1.jpg",
    "category": "산"
  },
  {
    "id": "126853",
    "title": "사량도 칠현산",
    "address": "경상남도 통영시 사량면 읍덕리",
    "phone": "",
    "latitude": "34.8305581466",
    "longitude": "128.2298227198",
    "image": "http://tong.visitkorea.or.kr/cms/resource/19/3580019_image2_1.jpg",
    "category": "산"
  },
  {
    "id": "127580",
    "title": "사명산",
    "address": "강원특별자치도 양구군 양구읍 월명리",
    "phone": "",
    "latitude": "38.0775562982",
    "longitude": "127.9063215077",
    "image": "http://tong.visitkorea.or.kr/cms/resource/05/3514805_image2_1.jpg",
    "category": "산"
  },
  {
    "id": "128798",
    "title": "사자산",
    "address": "강원특별자치도 영월군 무릉도원면 법흥리",
    "phone": "",
    "latitude": "37.3708894546",
    "longitude": "128.2645935065",
    "image": "",
    "category": "산"
  },
  {
    "id": "126474",
    "title": "산굼부리",
    "address": "제주특별자치도 제주시 조천읍 비자림로 768",
    "phone": "",
    "latitude": "33.4323127375",
    "longitude": "126.6928183084",
    "image": "http://tong.visitkorea.or.kr/cms/resource/55/3354255_image2_1.jpg",
    "category": "산"
  },
  {
    "id": "127581",
    "title": "산방산(거제)",
    "address": "경상남도 거제시 둔덕면 산방리",
    "phone": "",
    "latitude": "34.8589104003",
    "longitude": "128.5340538015",
    "image": "http://tong.visitkorea.or.kr/cms/resource/48/3576148_image2_1.JPG",
    "category": "산"
  },
  {
    "id": "3013585",
    "title": "산성대",
    "address": "전라남도 영암군 영암읍 용흥리",
    "phone": "",
    "latitude": "34.7788932458",
    "longitude": "126.6995304228",
    "image": "",
    "category": "산"
  },
  {
    "id": "2948051",
    "title": "산양큰엉곶",
    "address": "제주특별자치도 제주시 한경면 청수리",
    "phone": "",
    "latitude": "33.2907297100",
    "longitude": "126.2503099104",
    "image": "",
    "category": "산"
  },
  {
    "id": "128933",
    "title": "삼각산",
    "address": "서울특별시 강북구 삼양로173길 460",
    "phone": "",
    "latitude": "37.6582465830",
    "longitude": "126.9909006206",
    "image": "",
    "category": "산"
  },
  {
    "id": "2742072",
    "title": "삼릉숲",
    "address": "경상북도 경주시 배동",
    "phone": "",
    "latitude": "35.7967897114",
    "longitude": "129.2095330093",
    "image": "http://tong.visitkorea.or.kr/cms/resource/99/3542499_image2_1.jpg",
    "category": "산"
  },
  {
    "id": "1576358",
    "title": "삼봉산",
    "address": "경상남도 거창군 고제면 봉계리",
    "phone": "",
    "latitude": "35.8928431448",
    "longitude": "127.8727203449",
    "image": "http://tong.visitkorea.or.kr/cms/resource/04/3502504_image2_1.jpg",
    "category": "산"
  },
  {
    "id": "1627321",
    "title": "삼성산",
    "address": "전북특별자치도 정읍시 신정동",
    "phone": "",
    "latitude": "35.4924789942",
    "longitude": "126.8460274823",
    "image": "",
    "category": "산"
  },
  {
    "id": "127582",
    "title": "삼성산(안양)",
    "address": "경기도 안양시 만안구 석수동",
    "phone": "",
    "latitude": "37.4361520195",
    "longitude": "126.9392143868",
    "image": "",
    "category": "산"
  },
  {
    "id": "127668",
    "title": "삼수령",
    "address": "강원특별자치도 태백시 된각길 81",
    "phone": "",
    "latitude": "37.2206149936",
    "longitude": "128.9869387541",
    "image": "http://tong.visitkorea.or.kr/cms/resource/34/3525034_image2_1.jpg",
    "category": "산"
  },
  {
    "id": "125604",
    "title": "삼악산(춘천)",
    "address": "강원특별자치도 춘천시 서면 경춘로 1401-25",
    "phone": "",
    "latitude": "37.8257698724",
    "longitude": "127.6593320769",
    "image": "http://tong.visitkorea.or.kr/cms/resource/09/2742909_image2_1.jpeg",
    "category": "산"
  },
  {
    "id": "1941153",
    "title": "삼의악오름",
    "address": "제주특별자치도 제주시 아라일동",
    "phone": "",
    "latitude": "33.4398681468",
    "longitude": "126.5620989268",
    "image": "http://tong.visitkorea.or.kr/cms/resource/72/3527472_image2_1.jpg",
    "category": "산"
  },
  {
    "id": "561051",
    "title": "삽슬봉(아이스크림 고지)",
    "address": "강원특별자치도 철원군 동송읍 양지리 산 31",
    "phone": "",
    "latitude": "38.2651057461",
    "longitude": "127.2640885347",
    "image": "http://tong.visitkorea.or.kr/cms/resource/31/3344731_image2_1.jpg",
    "category": "산"
  },
  {
    "id": "2847726",
    "title": "상가리야자숲",
    "address": "제주특별자치도 제주시 고하상로 326",
    "phone": "",
    "latitude": "33.4394649613",
    "longitude": "126.3584888528",
    "image": "http://tong.visitkorea.or.kr/cms/resource/12/2847712_image2_1.JPG",
    "category": "산"
  },
  {
    "id": "127501",
    "title": "상왕산",
    "address": "전라남도 완도군 군외면",
    "phone": "",
    "latitude": "34.3481331140",
    "longitude": "126.6924469866",
    "image": "",
    "category": "산"
  },
  {
    "id": "127158",
    "title": "상정바위산",
    "address": "강원특별자치도 정선군 북평면 문곡강변길 505",
    "phone": "",
    "latitude": "37.4180840585",
    "longitude": "128.7051746989",
    "image": "http://tong.visitkorea.or.kr/cms/resource/16/3342316_image2_1.jpg",
    "category": "산"
  },
  {
    "id": "572973",
    "title": "새별오름",
    "address": "제주특별자치도 제주시 애월읍 봉성리 산 59-8",
    "phone": "",
    "latitude": "33.3673645815",
    "longitude": "126.3570489276",
    "image": "http://tong.visitkorea.or.kr/cms/resource/34/2943834_image2_1.bmp",
    "category": "산"
  },
  {
    "id": "1945414",
    "title": "새신오름",
    "address": "제주특별자치도 제주시 한경면 청수리",
    "phone": "",
    "latitude": "33.2978565065",
    "longitude": "126.2379580475",
    "image": "http://tong.visitkorea.or.kr/cms/resource/85/3477985_image2_1.jpg",
    "category": "산"
  },
  {
    "id": "2614819",
    "title": "새인봉 (무등산권 국가지질공원)",
    "address": "광주광역시 북구 무등로 1550",
    "phone": "",
    "latitude": "35.1441458348",
    "longitude": "126.9890013959",
    "image": "http://tong.visitkorea.or.kr/cms/resource/17/2614817_image2_1.bmp",
    "category": "산"
  },
  {
    "id": "2847703",
    "title": "샤이니숲길",
    "address": "제주특별자치도 제주시 조천읍 교래리",
    "phone": "",
    "latitude": "33.4273100152",
    "longitude": "126.6617211206",
    "image": "http://tong.visitkorea.or.kr/cms/resource/84/2847684_image2_1.JPG",
    "category": "산"
  },
  {
    "id": "2613628",
    "title": "서어나무 숲",
    "address": "전북특별자치도 남원시 운봉읍 운봉행정길 8-9",
    "phone": "",
    "latitude": "35.4217708552",
    "longitude": "127.5212583888",
    "image": "http://tong.visitkorea.or.kr/cms/resource/89/3517089_image2_1.jpg",
    "category": "산"
  },
  {
    "id": "125478",
    "title": "서운산",
    "address": "경기도 안성시 서운면 인리",
    "phone": "",
    "latitude": "36.9304502304",
    "longitude": "127.2966155901",
    "image": "http://tong.visitkorea.or.kr/cms/resource/80/3517680_image2_1.jpg",
    "category": "산"
  },
  {
    "id": "127645",
    "title": "석룡산",
    "address": "경기도 가평군 북면 적목리",
    "phone": "",
    "latitude": "38.0058566070",
    "longitude": "127.4756185079",
    "image": "http://tong.visitkorea.or.kr/cms/resource/46/3511346_image2_1.jpg",
    "category": "산"
  },
  {
    "id": "2714720",
    "title": "석병산",
    "address": "강원특별자치도 강릉시 옥계면 산계리 산 428",
    "phone": "",
    "latitude": "37.5777112048",
    "longitude": "128.9067933984",
    "image": "",
    "category": "산"
  },
  {
    "id": "3027640",
    "title": "석성산",
    "address": "경기도 용인시 처인구 포곡읍 마성리",
    "phone": "",
    "latitude": "37.2716502726",
    "longitude": "127.1729172289",
    "image": "http://tong.visitkorea.or.kr/cms/resource/70/3560570_image2_1.jpg",
    "category": "산"
  },
  {
    "id": "2653129",
    "title": "석포숲공원",
    "address": "경기도 용인시 처인구 이동읍 묵리",
    "phone": "",
    "latitude": "37.1597508478",
    "longitude": "127.2576154821",
    "image": "http://tong.visitkorea.or.kr/cms/resource/21/3559721_image2_1.jpg",
    "category": "산"
  },
  {
    "id": "127584",
    "title": "선달산(봉화)",
    "address": "경상북도 봉화군 물야면 오전리",
    "phone": "",
    "latitude": "37.0390499671",
    "longitude": "128.7095245323",
    "image": "",
    "category": "산"
  },
  {
    "id": "127583",
    "title": "선달산(영월)",
    "address": "강원특별자치도 영월군 김삿갓면 내리계곡로 1192-10",
    "phone": "",
    "latitude": "37.1115770050",
    "longitude": "128.6704203224",
    "image": "http://tong.visitkorea.or.kr/cms/resource/01/3342201_image2_1.jpg",
    "category": "산"
  },
  {
    "id": "128198",
    "title": "선바위",
    "address": "울산광역시 울주군 범서읍 두동로 160",
    "phone": "",
    "latitude": "35.5822393705",
    "longitude": "129.2352757129",
    "image": "http://tong.visitkorea.or.kr/cms/resource/15/3549315_image2_1.jpg",
    "category": "산"
  },
  {
    "id": "127304",
    "title": "선바위산(영월)",
    "address": "강원특별자치도 영월군 상동읍 선바위길 246",
    "phone": "",
    "latitude": "37.1530637051",
    "longitude": "128.8053653501",
    "image": "http://tong.visitkorea.or.kr/cms/resource/72/1955372_image2_1.jpg",
    "category": "산"
  },
  {
    "id": "125568",
    "title": "설봉산",
    "address": "경기도 이천시 관고동",
    "phone": "",
    "latitude": "37.2797510216",
    "longitude": "127.4200168401",
    "image": "http://tong.visitkorea.or.kr/cms/resource/54/3058354_image2_1.jpg",
    "category": "산"
  },
  {
    "id": "125621",
    "title": "설악산 대청봉",
    "address": "강원특별자치도 양양군 서면 오색리",
    "phone": "",
    "latitude": "38.1194565385",
    "longitude": "128.4653249205",
    "image": "http://tong.visitkorea.or.kr/cms/resource/87/3500587_image2_1.jpg",
    "category": "산"
  },
  {
    "id": "2704644",
    "title": "설천봉",
    "address": "전북특별자치도 무주군 설천면 심곡리",
    "phone": "",
    "latitude": "35.8665438159",
    "longitude": "127.7431186518",
    "image": "http://tong.visitkorea.or.kr/cms/resource/05/3478805_image2_1.jpg",
    "category": "산"
  },
  {
    "id": "126896",
    "title": "설화산",
    "address": "충청남도 아산시 송악면 외암로",
    "phone": "",
    "latitude": "36.7389424974",
    "longitude": "127.0274673442",
    "image": "http://tong.visitkorea.or.kr/cms/resource/81/1495881_image2_1.jpg",
    "category": "산"
  },
  {
    "id": "126949",
    "title": "설흘산",
    "address": "경상남도 남해군 남면 남면로",
    "phone": "",
    "latitude": "34.7315077529",
    "longitude": "127.8928991268",
    "image": "",
    "category": "산"
  },
  {
    "id": "2715651",
    "title": "섯알오름",
    "address": "제주특별자치도 서귀포시 대정읍 상모리 1618",
    "phone": "",
    "latitude": "33.2042091988",
    "longitude": "126.2815563372",
    "image": "http://tong.visitkorea.or.kr/cms/resource/62/3383862_image2_1.jpg",
    "category": "산"
  },
  {
    "id": "127201",
    "title": "성거산",
    "address": "충청남도 천안시 동남구 목천읍 송전1길 98",
    "phone": "",
    "latitude": "36.8356459568",
    "longitude": "127.2236247957",
    "image": "",
    "category": "산"
  },
  {
    "id": "2704232",
    "title": "성불오름",
    "address": "제주특별자치도 제주시 구좌읍 중산간동로 2532",
    "phone": "",
    "latitude": "33.4594588218",
    "longitude": "126.8086881941",
    "image": "http://tong.visitkorea.or.kr/cms/resource/23/3527023_image2_1.jpg",
    "category": "산"
  },
  {
    "id": "126435",
    "title": "성산일출봉 [유네스코 세계자연유산]",
    "address": "제주특별자치도 서귀포시 성산읍 일출로 284-12",
    "phone": "",
    "latitude": "33.4581111174",
    "longitude": "126.9415156012",
    "image": "http://tong.visitkorea.or.kr/cms/resource/82/2944282_image2_1.bmp",
    "category": "산"
  },
  {
    "id": "127503",
    "title": "성인봉 원시림 (울릉도, 독도 국가지질공원)",
    "address": "경상북도 울릉군 북면 나리",
    "phone": "",
    "latitude": "37.5081531748",
    "longitude": "130.8684402544",
    "image": "http://tong.visitkorea.or.kr/cms/resource/33/3516833_image2_1.jpg",
    "category": "산"
  },
  {
    "id": "126436",
    "title": "성판악",
    "address": "제주특별자치도 제주시 조천읍 516로 1865",
    "phone": "064-713-9950~3, 725-9950",
    "latitude": "33.3848945984",
    "longitude": "126.6203951135",
    "image": "http://tong.visitkorea.or.kr/cms/resource/04/3077604_image2_1.jpg",
    "category": "산"
  },
  {
    "id": "1627360",
    "title": "성황산",
    "address": "전북특별자치도 정읍시 수성동",
    "phone": "",
    "latitude": "35.5716452566",
    "longitude": "126.8605019577",
    "image": "http://tong.visitkorea.or.kr/cms/resource/81/3581581_image2_1.jpg",
    "category": "산"
  },
  {
    "id": "2767624",
    "title": "세계평화의숲",
    "address": "인천광역시 중구 신도시북로 31-35",
    "phone": "",
    "latitude": "37.4997142941",
    "longitude": "126.4804877795",
    "image": "http://tong.visitkorea.or.kr/cms/resource/25/3352725_image2_1.jpg",
    "category": "산"
  },
  {
    "id": "127057",
    "title": "소구니산",
    "address": "경기도 가평군 설악면 가일리",
    "phone": "",
    "latitude": "37.5788534511",
    "longitude": "127.4730173430",
    "image": "http://tong.visitkorea.or.kr/cms/resource/88/1939888_image2_1.jpg",
    "category": "산"
  },
  {
    "id": "129269",
    "title": "소래산",
    "address": "경기도 시흥시 신천동",
    "phone": "",
    "latitude": "37.4473978783",
    "longitude": "126.7798924685",
    "image": "http://tong.visitkorea.or.kr/cms/resource/99/3490199_image2_1.jpg",
    "category": "산"
  },
  {
    "id": "2792997",
    "title": "소리산",
    "address": "경기도 양평군 단월면 석산리",
    "phone": "",
    "latitude": "37.6377547591",
    "longitude": "127.6137195197",
    "image": "",
    "category": "산"
  },
  {
    "id": "598696",
    "title": "소머리오름(우도봉)",
    "address": "제주특별자치도 제주시 우도면 연평리",
    "phone": "",
    "latitude": "33.4915605829",
    "longitude": "126.9651405598",
    "image": "http://tong.visitkorea.or.kr/cms/resource/92/3527092_image2_1.jpg",
    "category": "산"
  },
  {
    "id": "127513",
    "title": "소요산국민관광지",
    "address": "경기도 동두천시 평화로2910번길 406-65 (상봉암동)",
    "phone": "",
    "latitude": "37.9456898149",
    "longitude": "127.0861781019",
    "image": "http://tong.visitkorea.or.kr/cms/resource/25/3077325_image2_1.jpg",
    "category": "산"
  },
  {
    "id": "2704788",
    "title": "소이산",
    "address": "강원특별자치도 철원군 철원읍 관전리",
    "phone": "",
    "latitude": "38.2503479772",
    "longitude": "127.2009169953",
    "image": "",
    "category": "산"
  },
  {
    "id": "1945394",
    "title": "손지오름",
    "address": "제주특별자치도 제주시 구좌읍 종달리",
    "phone": "",
    "latitude": "33.4564732156",
    "longitude": "126.8195400994",
    "image": "http://tong.visitkorea.or.kr/cms/resource/92/3565192_image2_1.jpg",
    "category": "산"
  },
  {
    "id": "2614642",
    "title": "송곳봉 (울릉도, 독도 국가지질공원)",
    "address": "경상북도 울릉군 북면 나리",
    "phone": "",
    "latitude": "37.5320528724",
    "longitude": "130.8519409260",
    "image": "http://tong.visitkorea.or.kr/cms/resource/48/3520448_image2_1.jpg",
    "category": "산"
  },
  {
    "id": "3581898",
    "title": "송곳산(울릉)",
    "address": "경상북도 울릉군 북면 나리",
    "phone": "",
    "latitude": "37.5319528795",
    "longitude": "130.8517409471",
    "image": "http://tong.visitkorea.or.kr/cms/resource/70/3581870_image2_1.jpg",
    "category": "산"
  },
  {
    "id": "2836910",
    "title": "송당무끈모루",
    "address": "제주특별자치도 제주시 비자림로 1661-13",
    "phone": "",
    "latitude": "33.4568057445",
    "longitude": "126.7718858903",
    "image": "http://tong.visitkorea.or.kr/cms/resource/94/2836894_image2_1.JPG",
    "category": "산"
  },
  {
    "id": "1945592",
    "title": "송아오름",
    "address": "제주특별자치도 제주시 한경면 용금로 545",
    "phone": "",
    "latitude": "33.3372049375",
    "longitude": "126.2381599336",
    "image": "http://tong.visitkorea.or.kr/cms/resource/88/3477988_image2_1.jpg",
    "category": "산"
  },
  {
    "id": "126672",
    "title": "송악산",
    "address": "제주특별자치도 서귀포시 대정읍 송악관광로 421-1",
    "phone": "",
    "latitude": "33.2077950595",
    "longitude": "126.2908304531",
    "image": "http://tong.visitkorea.or.kr/cms/resource/29/3523429_image2_1.jpg",
    "category": "산"
  },
  {
    "id": "2785980",
    "title": "송정숲",
    "address": "경상남도 산청군 삼장면 석남리",
    "phone": "",
    "latitude": "35.3358389022",
    "longitude": "127.8383187959",
    "image": "http://tong.visitkorea.or.kr/cms/resource/39/2790539_image2_1.jpg",
    "category": "산"
  },
  {
    "id": "2789692",
    "title": "송호리송림",
    "address": "충청북도 영동군 양산면 송호리",
    "phone": "",
    "latitude": "36.1300459714",
    "longitude": "127.6759202784",
    "image": "http://tong.visitkorea.or.kr/cms/resource/88/3572788_image2_1.jpg",
    "category": "산"
  },
  {
    "id": "3029586",
    "title": "쇠목재",
    "address": "경상남도 의령군 대의면 신전리",
    "phone": "",
    "latitude": "35.3876395445",
    "longitude": "128.2025215118",
    "image": "http://tong.visitkorea.or.kr/cms/resource/84/3029584_image2_1.jpg",
    "category": "산"
  },
  {
    "id": "125472",
    "title": "수덕산",
    "address": "경기도 가평군 북면 도대리",
    "phone": "",
    "latitude": "37.9168954333",
    "longitude": "127.5124066640",
    "image": "",
    "category": "산"
  },
  {
    "id": "126483",
    "title": "수락산",
    "address": "서울특별시 노원구 상계동 산1-1",
    "phone": "",
    "latitude": "37.6854837875",
    "longitude": "127.0732589963",
    "image": "",
    "category": "산"
  },
  {
    "id": "3015608",
    "title": "수망리 마흐니숲길",
    "address": "제주특별자치도 서귀포시 남원읍 수망리",
    "phone": "",
    "latitude": "33.3612177928",
    "longitude": "126.6914561552",
    "image": "http://tong.visitkorea.or.kr/cms/resource/97/3015597_image2_1.jpg",
    "category": "산"
  },
  {
    "id": "2714826",
    "title": "수산봉",
    "address": "제주특별자치도 제주시 애월읍 수산리 산1-1",
    "phone": "",
    "latitude": "33.4738476510",
    "longitude": "126.3828359615",
    "image": "http://tong.visitkorea.or.kr/cms/resource/26/3527226_image2_1.jpg",
    "category": "산"
  },
  {
    "id": "1945208",
    "title": "수악(물오름)",
    "address": "제주특별자치도 서귀포시 남원읍 516로 1042",
    "phone": "",
    "latitude": "33.3246677430",
    "longitude": "126.6094946439",
    "image": "http://tong.visitkorea.or.kr/cms/resource/92/3477492_image2_1.jpg",
    "category": "산"
  },
  {
    "id": "3036140",
    "title": "수암봉",
    "address": "경기도 안산시 상록구 수암동",
    "phone": "",
    "latitude": "37.3641511901",
    "longitude": "126.8915151866",
    "image": "http://tong.visitkorea.or.kr/cms/resource/34/3036134_image2_1.jpg",
    "category": "산"
  },
  {
    "id": "3081008",
    "title": "수암산",
    "address": "충청남도 예산군 덕산면 둔리",
    "phone": "",
    "latitude": "36.6709466580",
    "longitude": "126.6590135222",
    "image": "http://tong.visitkorea.or.kr/cms/resource/03/3081003_image2_1.jpg",
    "category": "산"
  },
  {
    "id": "126434",
    "title": "수월봉",
    "address": "제주특별자치도 제주시 한경면 고산리 3760",
    "phone": "",
    "latitude": "33.2947890147",
    "longitude": "126.1634201497",
    "image": "http://tong.visitkorea.or.kr/cms/resource/12/3354312_image2_1.jpg",
    "category": "산"
  },
  {
    "id": "129465",
    "title": "수주팔봉",
    "address": "충청북도 충주시 살미면",
    "phone": "",
    "latitude": "36.8983208793",
    "longitude": "127.9242267129",
    "image": "",
    "category": "산"
  },
  {
    "id": "3075744",
    "title": "수태골",
    "address": "대구광역시 동구 도학동",
    "phone": "",
    "latitude": "35.9874554521",
    "longitude": "128.6791853434",
    "image": "http://tong.visitkorea.or.kr/cms/resource/46/3543246_image2_1.png",
    "category": "산"
  },
  {
    "id": "127737",
    "title": "쉰움산",
    "address": "강원특별자치도 삼척시 미로면 하거노리",
    "phone": "",
    "latitude": "37.4463592952",
    "longitude": "129.0296891733",
    "image": "http://tong.visitkorea.or.kr/cms/resource/56/3503456_image2_1.jpg",
    "category": "산"
  },
  {
    "id": "126614",
    "title": "승달산",
    "address": "전라남도 무안군 청계면 월선리",
    "phone": "",
    "latitude": "34.9094634119",
    "longitude": "126.4564542618",
    "image": "",
    "category": "산"
  },
  {
    "id": "2674974",
    "title": "승학산",
    "address": "부산광역시 사하구 하단동",
    "phone": "",
    "latitude": "35.1310381466",
    "longitude": "128.9851266839",
    "image": "http://tong.visitkorea.or.kr/cms/resource/46/3029246_image2_1.jpg",
    "category": "산"
  },
  {
    "id": "128673",
    "title": "시루봉",
    "address": "경상남도 창원시 진해구 자은동",
    "phone": "",
    "latitude": "35.1578554758",
    "longitude": "128.7302870496",
    "image": "http://tong.visitkorea.or.kr/cms/resource/48/3576748_image2_1.jpg",
    "category": "산"
  },
  {
    "id": "3490412",
    "title": "식장산 정상쉼터",
    "address": "대전광역시 동구 낭월동",
    "phone": "",
    "latitude": "36.3012397640",
    "longitude": "127.4889795160",
    "image": "http://tong.visitkorea.or.kr/cms/resource/86/3490386_image2_1.jpg",
    "category": "산"
  },
  {
    "id": "2778053",
    "title": "신라왕경숲",
    "address": "경상북도 경주시 구황동",
    "phone": "",
    "latitude": "35.8399687258",
    "longitude": "129.2388625445",
    "image": "http://tong.visitkorea.or.kr/cms/resource/12/3541612_image2_1.jpg",
    "category": "산"
  },
  {
    "id": "127831",
    "title": "신선봉",
    "address": "충청북도 괴산군 연풍면 원풍리",
    "phone": "",
    "latitude": "36.8128773320",
    "longitude": "128.0435295665",
    "image": "",
    "category": "산"
  },
  {
    "id": "127660",
    "title": "신어산",
    "address": "경상남도 김해시 상동면 묵방리",
    "phone": "",
    "latitude": "35.2967469766",
    "longitude": "128.9650489008",
    "image": "http://tong.visitkorea.or.kr/cms/resource/19/3541319_image2_1.jpg",
    "category": "산"
  },
  {
    "id": "2740133",
    "title": "아끈다랑쉬 오름",
    "address": "제주특별자치도 제주시 구좌읍 세화리 2593",
    "phone": "",
    "latitude": "33.4754212946",
    "longitude": "126.8302942866",
    "image": "http://tong.visitkorea.or.kr/cms/resource/32/3528332_image2_1.jpg",
    "category": "산"
  },
  {
    "id": "2682988",
    "title": "아미산(당진)",
    "address": "충청남도 당진시 순성면",
    "phone": "",
    "latitude": "36.8453599974",
    "longitude": "126.6652332798",
    "image": "http://tong.visitkorea.or.kr/cms/resource/88/2901588_image2_1.jpg",
    "category": "산"
  },
  {
    "id": "129614",
    "title": "아미산(부여)",
    "address": "충청남도 부여군 외산면",
    "phone": "",
    "latitude": "36.2798699519",
    "longitude": "126.6935652103",
    "image": "http://tong.visitkorea.or.kr/cms/resource/53/3540353_image2_1.JPG",
    "category": "산"
  },
  {
    "id": "1351320",
    "title": "아부오름",
    "address": "제주특별자치도 제주시 구좌읍 송당리",
    "phone": "",
    "latitude": "33.4473291064",
    "longitude": "126.7776133886",
    "image": "http://tong.visitkorea.or.kr/cms/resource/27/3011827_image2_1.jpg",
    "category": "산"
  },
  {
    "id": "129552",
    "title": "아차산",
    "address": "서울특별시 광진구 긴고랑로 213 (중곡동)",
    "phone": "",
    "latitude": "37.5624651612",
    "longitude": "127.0956965713",
    "image": "http://tong.visitkorea.or.kr/cms/resource/37/3499237_image2_1.jpg",
    "category": "산"
  },
  {
    "id": "2779539",
    "title": "아차산 고구려정",
    "address": "서울특별시 광진구 구의동",
    "phone": "",
    "latitude": "37.5583518691",
    "longitude": "127.1023155306",
    "image": "http://tong.visitkorea.or.kr/cms/resource/29/3499229_image2_1.jpg",
    "category": "산"
  },
  {
    "id": "2385686",
    "title": "아홉산숲",
    "address": "부산광역시 기장군 철마면 미동길 37-1",
    "phone": "",
    "latitude": "35.2871407693",
    "longitude": "129.1715589466",
    "image": "http://tong.visitkorea.or.kr/cms/resource/91/3309791_image2_1.jpg",
    "category": "산"
  },
  {
    "id": "2788098",
    "title": "악양 취간림",
    "address": "경상남도 하동군 악양면 정동리",
    "phone": "",
    "latitude": "35.1623395505",
    "longitude": "127.7110178571",
    "image": "http://tong.visitkorea.or.kr/cms/resource/78/3550978_image2_1.jpg",
    "category": "산"
  },
  {
    "id": "2610560",
    "title": "악어봉",
    "address": "충청북도 충주시 살미면 신당리",
    "phone": "",
    "latitude": "36.9124076606",
    "longitude": "128.0483873967",
    "image": "http://tong.visitkorea.or.kr/cms/resource/48/3485948_image2_1.jpg",
    "category": "산"
  },
  {
    "id": "127835",
    "title": "악휘봉",
    "address": "충청북도 괴산군 연풍면 입석1길 35",
    "phone": "",
    "latitude": "36.7702638929",
    "longitude": "127.9531638705",
    "image": "http://tong.visitkorea.or.kr/cms/resource/56/3353456_image2_1.JPG",
    "category": "산"
  },
  {
    "id": "3026668",
    "title": "안덕월라봉",
    "address": "제주특별자치도 서귀포시 안덕면 감산리",
    "phone": "",
    "latitude": "33.2436725784",
    "longitude": "126.3497828747",
    "image": "http://tong.visitkorea.or.kr/cms/resource/50/3026650_image2_1.jpg",
    "category": "산"
  },
  {
    "id": "2724387",
    "title": "안돌오름",
    "address": "제주특별자치도 제주시 구좌읍 송당리 산 66-2",
    "phone": "",
    "latitude": "33.4573054352",
    "longitude": "126.7560844718",
    "image": "http://tong.visitkorea.or.kr/cms/resource/57/3523657_image2_1.jpg",
    "category": "산"
  },
  {
    "id": "127384",
    "title": "안민고개",
    "address": "경상남도 창원시 진해구 경화동",
    "phone": "",
    "latitude": "35.1692381302",
    "longitude": "126.7000124415",
    "image": "http://tong.visitkorea.or.kr/cms/resource/50/3565150_image2_1.jpg",
    "category": "산"
  },
  {
    "id": "2614652",
    "title": "알봉 (울릉도, 독도 국가지질공원)",
    "address": "경상북도 울릉군 북면 나리",
    "phone": "",
    "latitude": "37.5204154473",
    "longitude": "130.8582435295",
    "image": "",
    "category": "산"
  },
  {
    "id": "127260",
    "title": "앵산",
    "address": "경상남도 거제시 하청면 석포리",
    "phone": "",
    "latitude": "34.9411775995",
    "longitude": "128.6118587364",
    "image": "http://tong.visitkorea.or.kr/cms/resource/35/3478135_image2_1.JPG",
    "category": "산"
  },
  {
    "id": "125451",
    "title": "앵자봉",
    "address": "경기도 광주시 퇴촌면 우산리",
    "phone": "",
    "latitude": "37.4164514615",
    "longitude": "127.3978177292",
    "image": "",
    "category": "산"
  },
  {
    "id": "1576712",
    "title": "양각산",
    "address": "경상남도 거창군 웅양면 산포리",
    "phone": "",
    "latitude": "35.8385314461",
    "longitude": "127.9608862306",
    "image": "",
    "category": "산"
  },
  {
    "id": "3071435",
    "title": "양성산",
    "address": "충청북도 청주시 상당구 문의면 미천리",
    "phone": "",
    "latitude": "36.5129459940",
    "longitude": "127.4834186744",
    "image": "http://tong.visitkorea.or.kr/cms/resource/30/3071430_image2_1.jpg",
    "category": "산"
  },
  {
    "id": "127202",
    "title": "어승생",
    "address": "제주특별자치도 제주시 해안동",
    "phone": "",
    "latitude": "33.3856593715",
    "longitude": "126.5067521811",
    "image": "http://tong.visitkorea.or.kr/cms/resource/72/3555172_image2_1.jpg",
    "category": "산"
  },
  {
    "id": "1391494",
    "title": "억불산",
    "address": "전라남도 장흥군 용산면",
    "phone": "",
    "latitude": "34.6584579124",
    "longitude": "126.9345960121",
    "image": "http://tong.visitkorea.or.kr/cms/resource/71/1374171_image2_1.jpg",
    "category": "산"
  },
  {
    "id": "578515",
    "title": "여귀산",
    "address": "전라남도 진도군 임회면 상만리",
    "phone": "",
    "latitude": "34.3883598454",
    "longitude": "126.2214096389",
    "image": "",
    "category": "산"
  },
  {
    "id": "3081514",
    "title": "여우고개",
    "address": "경기도 부천시 소사본동",
    "phone": "",
    "latitude": "37.4669513683",
    "longitude": "126.7915130858",
    "image": "http://tong.visitkorea.or.kr/cms/resource/02/3081502_image2_1.JPG",
    "category": "산"
  },
  {
    "id": "716644",
    "title": "연석산",
    "address": "전북특별자치도 완주군 동상면 사봉리",
    "phone": "",
    "latitude": "35.9075429895",
    "longitude": "127.3313180205",
    "image": "http://tong.visitkorea.or.kr/cms/resource/84/3510184_image2_1.jpg",
    "category": "산"
  },
  {
    "id": "650224",
    "title": "연자봉",
    "address": "전북특별자치도 정읍시 내장산로 936",
    "phone": "",
    "latitude": "35.4805534759",
    "longitude": "126.8993897134",
    "image": "http://tong.visitkorea.or.kr/cms/resource/23/3581423_image2_1.jpg",
    "category": "산"
  },
  {
    "id": "2788831",
    "title": "연태봉",
    "address": "부산광역시 강서구 천성동 산 6-98",
    "phone": "",
    "latitude": "35.0305993811",
    "longitude": "128.8329509833",
    "image": "",
    "category": "산"
  },
  {
    "id": "1925369",
    "title": "열안지오름(봉개동)",
    "address": "제주특별자치도 제주시 봉개동",
    "phone": "",
    "latitude": "33.4726124405",
    "longitude": "126.6055499659",
    "image": "http://tong.visitkorea.or.kr/cms/resource/61/3477961_image2_1.jpg",
    "category": "산"
  },
  {
    "id": "1925366",
    "title": "열안지오름(오라동)",
    "address": "제주특별자치도 제주시 산록북로",
    "phone": "",
    "latitude": "33.4265967334",
    "longitude": "126.5207167107",
    "image": "http://tong.visitkorea.or.kr/cms/resource/06/3556206_image2_1.jpg",
    "category": "산"
  },
  {
    "id": "129220",
    "title": "영광 법성진 숲쟁이",
    "address": "전라남도 영광군 법성면 연우로 34",
    "phone": "",
    "latitude": "35.3646200606",
    "longitude": "126.4436081218",
    "image": "http://tong.visitkorea.or.kr/cms/resource/38/3057538_image2_1.jpg",
    "category": "산"
  },
  {
    "id": "2524188",
    "title": "영남 알프스",
    "address": "울산광역시 울주군 상북면 알프스온천5길 103-8",
    "phone": "",
    "latitude": "35.5563585902",
    "longitude": "129.0676299774",
    "image": "",
    "category": "산"
  },
  {
    "id": "3446569",
    "title": "영암산(성주)",
    "address": "경상북도 성주군 초전면 용봉리",
    "phone": "",
    "latitude": "36.0462443601",
    "longitude": "128.2884237750",
    "image": "http://tong.visitkorea.or.kr/cms/resource/38/3446438_image2_1.jpg",
    "category": "산"
  },
  {
    "id": "2704700",
    "title": "영양 자작나무숲",
    "address": "경상북도 영양군 수비면 자작나무길 96",
    "phone": "",
    "latitude": "36.7259512545",
    "longitude": "129.2259989814",
    "image": "",
    "category": "산"
  },
  {
    "id": "128129",
    "title": "영인산",
    "address": "충청남도 아산시 염치읍 아산온천로",
    "phone": "",
    "latitude": "36.8450314678",
    "longitude": "126.9373281400",
    "image": "",
    "category": "산"
  },
  {
    "id": "2704351",
    "title": "영주산",
    "address": "제주특별자치도 서귀포시 표선면 성읍리",
    "phone": "",
    "latitude": "33.4042093891",
    "longitude": "12.79737228191",
    "image": "http://tong.visitkorea.or.kr/cms/resource/68/3528268_image2_1.jpg",
    "category": "산"
  },
  {
    "id": "126923",
    "title": "영축산",
    "address": "경상남도 양산시 하북면 지산리",
    "phone": "",
    "latitude": "35.5164406133",
    "longitude": "129.0544266891",
    "image": "http://tong.visitkorea.or.kr/cms/resource/40/3502940_image2_1.jpg",
    "category": "산"
  },
  {
    "id": "128017",
    "title": "영취산(여수)",
    "address": "전라남도 여수시 중흥동",
    "phone": "",
    "latitude": "34.8167367653",
    "longitude": "127.7140598088",
    "image": "http://tong.visitkorea.or.kr/cms/resource/85/3548985_image2_1.JPG",
    "category": "산"
  },
  {
    "id": "1914614",
    "title": "오도산",
    "address": "경상남도 합천군 묘산면 산제리",
    "phone": "",
    "latitude": "35.6739410339",
    "longitude": "128.0750222635",
    "image": "http://tong.visitkorea.or.kr/cms/resource/08/3501908_image2_1.jpg",
    "category": "산"
  },
  {
    "id": "3085458",
    "title": "오동근린공원 유아숲체험장",
    "address": "서울특별시 강북구 덕릉로42길 49 (번동)",
    "phone": "",
    "latitude": "37.6330697001",
    "longitude": "127.0322420107",
    "image": "http://tong.visitkorea.or.kr/cms/resource/70/3084470_image2_1.JPG",
    "category": "산"
  },
  {
    "id": "1926354",
    "title": "오백나한",
    "address": "제주특별자치도 서귀포시 하원동",
    "phone": "",
    "latitude": "33.3545294146",
    "longitude": "126.5027115669",
    "image": "http://tong.visitkorea.or.kr/cms/resource/72/3528372_image2_1.jpg",
    "category": "산"
  },
  {
    "id": "129611",
    "title": "오봉산(보성)",
    "address": "전라남도 보성군 득량면 해평리",
    "phone": "",
    "latitude": "34.7512235603",
    "longitude": "127.1627459065",
    "image": "",
    "category": "산"
  },
  {
    "id": "128180",
    "title": "오봉산(양산)",
    "address": "경상남도 양산시 물금읍 원동로",
    "phone": "",
    "latitude": "35.3421898331",
    "longitude": "129.0048414017",
    "image": "",
    "category": "산"
  },
  {
    "id": "1612244",
    "title": "오봉산(완주)",
    "address": "전북특별자치도 완주군 구이면 백여리 소모마을 일원",
    "phone": "",
    "latitude": "35.6443444143",
    "longitude": "127.1306427523",
    "image": "http://tong.visitkorea.or.kr/cms/resource/95/3562495_image2_1.jpg",
    "category": "산"
  },
  {
    "id": "126637",
    "title": "오산(구례)",
    "address": "전라남도 구례군 문척면",
    "phone": "",
    "latitude": "35.1798002407",
    "longitude": "127.4806682302",
    "image": "http://tong.visitkorea.or.kr/cms/resource/89/3569889_image2_1.jpg",
    "category": "산"
  },
  {
    "id": "125618",
    "title": "오색령(한계령)",
    "address": "강원특별자치도 양양군 서면 대청봉길 1",
    "phone": "",
    "latitude": "38.1209090520",
    "longitude": "128.4603975449",
    "image": "http://tong.visitkorea.or.kr/cms/resource/27/3569527_image2_1.jpg",
    "category": "산"
  },
  {
    "id": "126746",
    "title": "오서산",
    "address": "충청남도 홍성군 광천읍 담산리",
    "phone": "",
    "latitude": "36.4584461024",
    "longitude": "126.6595135681",
    "image": "",
    "category": "산"
  },
  {
    "id": "2737297",
    "title": "오성산",
    "address": "전북특별자치도 군산시 성산면 성덕리",
    "phone": "",
    "latitude": "36.0134436524",
    "longitude": "126.7843140363",
    "image": "http://tong.visitkorea.or.kr/cms/resource/03/3573303_image2_1.jpg",
    "category": "산"
  },
  {
    "id": "2765204",
    "title": "오소재쉼터",
    "address": "전라남도 해남군 북일면 흥촌리 산117-7",
    "phone": "",
    "latitude": "34.4822174145",
    "longitude": "126.6506085641",
    "image": "",
    "category": "산"
  },
  {
    "id": "127259",
    "title": "옥녀봉(거제)",
    "address": "경상남도 거제시 아주동",
    "phone": "",
    "latitude": "34.8517223835",
    "longitude": "128.6921985684",
    "image": "",
    "category": "산"
  },
  {
    "id": "3022702",
    "title": "옥마산",
    "address": "충청남도 보령시 남포면 창동1길 300",
    "phone": "",
    "latitude": "36.3098403650",
    "longitude": "126.6265482219",
    "image": "http://tong.visitkorea.or.kr/cms/resource/49/3022549_image2_1.jpg",
    "category": "산"
  },
  {
    "id": "127340",
    "title": "옹성산",
    "address": "전라남도 화순군 이서면",
    "phone": "",
    "latitude": "35.1154209628",
    "longitude": "127.1326894339",
    "image": "",
    "category": "산"
  },
  {
    "id": "2366455",
    "title": "와룡산(대구)",
    "address": "대구광역시 달서구 선원로33안길 66",
    "phone": "",
    "latitude": "35.8697101184",
    "longitude": "128.5103674020",
    "image": "http://tong.visitkorea.or.kr/cms/resource/34/3496834_image2_1.jpg",
    "category": "산"
  },
  {
    "id": "129535",
    "title": "와룡산(사천)",
    "address": "경상남도 사천시 벌리동",
    "phone": "",
    "latitude": "34.9865386190",
    "longitude": "128.1139204386",
    "image": "",
    "category": "산"
  },
  {
    "id": "2705087",
    "title": "완주상관편백숲",
    "address": "전북특별자치도 완주군 상관면",
    "phone": "",
    "latitude": "35.7325743957",
    "longitude": "127.1949291912",
    "image": "http://tong.visitkorea.or.kr/cms/resource/15/3360215_image2_1.JPG",
    "category": "산"
  },
  {
    "id": "127301",
    "title": "완택산",
    "address": "강원특별자치도 영월군 영월읍 뒷골길 154",
    "phone": "",
    "latitude": "37.2009866089",
    "longitude": "128.5475036771",
    "image": "",
    "category": "산"
  },
  {
    "id": "125460",
    "title": "왕방산",
    "address": "경기도 포천시 신북면 심곡리",
    "phone": "",
    "latitude": "37.8967551233",
    "longitude": "127.1558148169",
    "image": "",
    "category": "산"
  },
  {
    "id": "127787",
    "title": "왕산·필봉산",
    "address": "경상남도 산청군 금서면 구형왕릉로",
    "phone": "",
    "latitude": "35.4255758231",
    "longitude": "127.8284200816",
    "image": "http://tong.visitkorea.or.kr/cms/resource/79/3532679_image2_1.jpg",
    "category": "산"
  },
  {
    "id": "2713585",
    "title": "왕이메오름",
    "address": "제주특별자치도 서귀포시 안덕면 광평리",
    "phone": "",
    "latitude": "33.3421787614",
    "longitude": "126.3750562608",
    "image": "",
    "category": "산"
  },
  {
    "id": "3078018",
    "title": "요월정원림",
    "address": "전라남도 장성군 황룡면 요월정로 84-5",
    "phone": "",
    "latitude": "35.2776016512",
    "longitude": "126.7462695302",
    "image": "http://tong.visitkorea.or.kr/cms/resource/35/3052235_image2_1.jpg",
    "category": "산"
  },
  {
    "id": "3090562",
    "title": "용골산",
    "address": "울산광역시 울주군 서생면 용리",
    "phone": "",
    "latitude": "35.3738865144",
    "longitude": "129.3159800722",
    "image": "http://tong.visitkorea.or.kr/cms/resource/50/3090550_image2_1.JPG",
    "category": "산"
  },
  {
    "id": "3074779",
    "title": "용궐산",
    "address": "전북특별자치도 순창군 동계면 장군목길 564",
    "phone": "",
    "latitude": "35.4632633953",
    "longitude": "127.2017661238",
    "image": "http://tong.visitkorea.or.kr/cms/resource/51/3074751_image2_1.jpg",
    "category": "산"
  },
  {
    "id": "572960",
    "title": "용눈이오름",
    "address": "제주특별자치도 제주시 구좌읍 종달논길",
    "phone": "",
    "latitude": "33.4588064928",
    "longitude": "126.8320556271",
    "image": "http://tong.visitkorea.or.kr/cms/resource/30/3011830_image2_1.jpg",
    "category": "산"
  },
  {
    "id": "814123",
    "title": "용마산",
    "address": "서울특별시 중랑구 면목동",
    "phone": "",
    "latitude": "37.5711530424",
    "longitude": "127.0958157577",
    "image": "",
    "category": "산"
  },
  {
    "id": "125821",
    "title": "용봉산",
    "address": "충청남도 홍성군 홍북읍 상하리",
    "phone": "",
    "latitude": "36.6441468010",
    "longitude": "126.6495123169",
    "image": "",
    "category": "산"
  },
  {
    "id": "127144",
    "title": "용암산",
    "address": "전라남도 화순군 한천면 용암길 149",
    "phone": "",
    "latitude": "34.9663744318",
    "longitude": "127.0020213624",
    "image": "",
    "category": "산"
  },
  {
    "id": "2784215",
    "title": "용전숲",
    "address": "경상남도 김해시 진례면 신월리",
    "phone": "",
    "latitude": "35.2263400169",
    "longitude": "128.7608241974",
    "image": "http://tong.visitkorea.or.kr/cms/resource/20/3521920_image2_1.jpg",
    "category": "산"
  },
  {
    "id": "125599",
    "title": "용화산 (강원평화지역 국가지질공원)",
    "address": "강원특별자치도 화천군 하남면 삼화리",
    "phone": "",
    "latitude": "38.0482927641",
    "longitude": "127.7437760990",
    "image": "http://tong.visitkorea.or.kr/cms/resource/96/3485896_image2_1.png",
    "category": "산"
  },
  {
    "id": "128656",
    "title": "우두산",
    "address": "경상남도 거창군 가조면 수월리",
    "phone": "",
    "latitude": "35.7521538279",
    "longitude": "128.0431424081",
    "image": "",
    "category": "산"
  },
  {
    "id": "2675047",
    "title": "우암동 도시숲",
    "address": "부산광역시 남구 우암동 127-142",
    "phone": "",
    "latitude": "35.1274929334",
    "longitude": "129.0726358346",
    "image": "http://tong.visitkorea.or.kr/cms/resource/23/3354023_image2_1.jpg",
    "category": "산"
  },
  {
    "id": "125825",
    "title": "우암산",
    "address": "충청북도 청주시 청원구 우암동",
    "phone": "",
    "latitude": "36.6486475127",
    "longitude": "127.5064184280",
    "image": "http://tong.visitkorea.or.kr/cms/resource/57/3491257_image2_1.jpg",
    "category": "산"
  },
  {
    "id": "125458",
    "title": "운길산",
    "address": "경기도 남양주시 조안면 북한강로433번길 186",
    "phone": "",
    "latitude": "37.5687820481",
    "longitude": "127.3017415319",
    "image": "http://tong.visitkorea.or.kr/cms/resource/21/3077121_image2_1.jpg",
    "category": "산"
  },
  {
    "id": "127819",
    "title": "운달산",
    "address": "경상북도 문경시 산북면",
    "phone": "",
    "latitude": "36.7484350484",
    "longitude": "128.2113941714",
    "image": "http://tong.visitkorea.or.kr/cms/resource/00/3528000_image2_1.jpg",
    "category": "산"
  },
  {
    "id": "128072",
    "title": "운암산(고흥)",
    "address": "전라남도 고흥군 두원면 운대리",
    "phone": "",
    "latitude": "34.6242351567",
    "longitude": "127.3347173131",
    "image": "http://tong.visitkorea.or.kr/cms/resource/97/3547697_image2_1.jpg",
    "category": "산"
  },
  {
    "id": "716603",
    "title": "운암산(완주)",
    "address": "전북특별자치도 완주군 동상면 대아리",
    "phone": "",
    "latitude": "35.9863414117",
    "longitude": "127.2777651449",
    "image": "",
    "category": "산"
  },
  {
    "id": "3580954",
    "title": "운일암반일암 구름다리",
    "address": "전북특별자치도 진안군 주천면 동상주천로 1888",
    "phone": "",
    "latitude": "35.9762642352",
    "longitude": "127.4048068778",
    "image": "http://tong.visitkorea.or.kr/cms/resource/99/3580899_image2_1.jpg",
    "category": "산"
  },
  {
    "id": "126243",
    "title": "운장산",
    "address": "전북특별자치도 완주군 동상면",
    "phone": "",
    "latitude": "35.9213331989",
    "longitude": "127.3377170860",
    "image": "http://tong.visitkorea.or.kr/cms/resource/80/531380_image2_1.jpg",
    "category": "산"
  },
  {
    "id": "126246",
    "title": "운장산(진안)",
    "address": "전북특별자치도 진안군 주천면 대불리",
    "phone": "",
    "latitude": "35.9110430472",
    "longitude": "127.3573156145",
    "image": "http://tong.visitkorea.or.kr/cms/resource/19/3511819_image2_1.jpg",
    "category": "산"
  },
  {
    "id": "127130",
    "title": "운제산",
    "address": "경상북도 포항시 남구 대송면 대각리",
    "phone": "",
    "latitude": "35.9495391813",
    "longitude": "129.3587266782",
    "image": "http://tong.visitkorea.or.kr/cms/resource/56/2689556_image2_1.jpg",
    "category": "산"
  },
  {
    "id": "128228",
    "title": "울산 12경",
    "address": "울산광역시 남구 태화동",
    "phone": "",
    "latitude": "35.5475915537",
    "longitude": "129.2918939669",
    "image": "http://tong.visitkorea.or.kr/cms/resource/11/3078011_image2_1.jpg",
    "category": "산"
  },
  {
    "id": "1818945",
    "title": "원대리 자작나무 숲 (속삭이는 자작나무 숲)",
    "address": "강원특별자치도 인제군 인제읍 자작나무숲길 760",
    "phone": "",
    "latitude": "38.0092669329",
    "longitude": "128.1943057023",
    "image": "http://tong.visitkorea.or.kr/cms/resource/73/3072373_image2_1.jpg",
    "category": "산"
  },
  {
    "id": "1614020",
    "title": "원등산",
    "address": "전북특별자치도 완주군 소양면 해월리",
    "phone": "",
    "latitude": "35.8872446394",
    "longitude": "127.2936163566",
    "image": "http://tong.visitkorea.or.kr/cms/resource/96/3510196_image2_1.jpg",
    "category": "산"
  },
  {
    "id": "2675029",
    "title": "원적산공원 은행나무숲",
    "address": "인천광역시 부평구 산곡1동 80-22",
    "phone": "",
    "latitude": "37.5131859382",
    "longitude": "126.6942706631",
    "image": "http://tong.visitkorea.or.kr/cms/resource/16/3352316_image2_1.jpg",
    "category": "산"
  },
  {
    "id": "2606381",
    "title": "월류봉",
    "address": "충청북도 영동군 황간면 원촌리",
    "phone": "",
    "latitude": "36.2343129647",
    "longitude": "127.8917176683",
    "image": "http://tong.visitkorea.or.kr/cms/resource/60/3543160_image2_1.jpg",
    "category": "산"
  },
  {
    "id": "2769492",
    "title": "월미산",
    "address": "인천광역시 중구 북성동1가 125",
    "phone": "",
    "latitude": "37.4712808586",
    "longitude": "126.6026468561",
    "image": "http://tong.visitkorea.or.kr/cms/resource/66/3381766_image2_1.jpg",
    "category": "산"
  },
  {
    "id": "1576678",
    "title": "월여산",
    "address": "경상남도 거창군 신원면 구사리",
    "phone": "055-940-3470",
    "latitude": "35.5468420333",
    "longitude": "127.9485201659",
    "image": "http://tong.visitkorea.or.kr/cms/resource/40/3501140_image2_1.jpg",
    "category": "산"
  },
  {
    "id": "1973369",
    "title": "윗세오름",
    "address": "제주특별자치도 제주시 애월읍 광령리",
    "phone": "",
    "latitude": "33.3608206597",
    "longitude": "126.5199599283",
    "image": "http://tong.visitkorea.or.kr/cms/resource/14/3527014_image2_1.jpg",
    "category": "산"
  },
  {
    "id": "126257",
    "title": "유달산",
    "address": "전라남도 목포시 죽교동 산27-3",
    "phone": "",
    "latitude": "34.7942722193",
    "longitude": "126.3713590096",
    "image": "",
    "category": "산"
  },
  {
    "id": "125484",
    "title": "유명산",
    "address": "경기도 가평군 설악면 유명산길 79-53",
    "phone": "",
    "latitude": "37.5932493406",
    "longitude": "127.4914680287",
    "image": "http://tong.visitkorea.or.kr/cms/resource/08/3077308_image2_1.jpg",
    "category": "산"
  },
  {
    "id": "125598",
    "title": "육향산",
    "address": "강원특별자치도 삼척시 정상동",
    "phone": "",
    "latitude": "37.4357996537",
    "longitude": "129.1849950346",
    "image": "http://tong.visitkorea.or.kr/cms/resource/00/3071200_image2_1.jpg",
    "category": "산"
  },
  {
    "id": "3082269",
    "title": "은고개",
    "address": "경기도 광주시 남한산성면 엄미리",
    "phone": "",
    "latitude": "37.4738530651",
    "longitude": "127.2406164693",
    "image": "http://tong.visitkorea.or.kr/cms/resource/63/3082263_image2_1.JPG",
    "category": "산"
  },
  {
    "id": "2782911",
    "title": "응봉",
    "address": "강원특별자치도 고성군 거진읍 화진포길 204-25",
    "phone": "",
    "latitude": "38.4659741075",
    "longitude": "128.4463213907",
    "image": "http://tong.visitkorea.or.kr/cms/resource/87/3577887_image2_1.jpg",
    "category": "산"
  },
  {
    "id": "127738",
    "title": "응봉산(강원)",
    "address": "강원특별자치도 삼척시 가곡면 풍곡리",
    "phone": "",
    "latitude": "37.0872205462",
    "longitude": "129.2001737646",
    "image": "",
    "category": "산"
  },
  {
    "id": "1874105",
    "title": "응봉산(서울)",
    "address": "서울특별시 성동구 응봉동",
    "phone": "",
    "latitude": "37.5482517369",
    "longitude": "127.0298140866",
    "image": "http://tong.visitkorea.or.kr/cms/resource/82/3510882_image2_1.jpg",
    "category": "산"
  },
  {
    "id": "129490",
    "title": "응봉산(울진)",
    "address": "경상북도 울진군 북면 덕구리",
    "phone": "",
    "latitude": "37.0690320034",
    "longitude": "129.2536362220",
    "image": "",
    "category": "산"
  },
  {
    "id": "2614846",
    "title": "의상봉 (무등산권 국가지질공원)",
    "address": "광주광역시 북구 무등로 1550",
    "phone": "",
    "latitude": "35.1441458348",
    "longitude": "126.9890013959",
    "image": "http://tong.visitkorea.or.kr/cms/resource/44/2614844_image2_1.bmp",
    "category": "산"
  },
  {
    "id": "2740123",
    "title": "이승이오름 (이승악)",
    "address": "제주특별자치도 서귀포시 남원읍 신례천로 267-110",
    "phone": "",
    "latitude": "33.3140386947",
    "longitude": "126.6304291801",
    "image": "http://tong.visitkorea.or.kr/cms/resource/88/2740388_image2_1.jpg",
    "category": "산"
  },
  {
    "id": "126479",
    "title": "인왕산",
    "address": "서울특별시 종로구 옥인동",
    "phone": "",
    "latitude": "37.5850545270",
    "longitude": "126.9593139127",
    "image": "http://tong.visitkorea.or.kr/cms/resource/78/3493378_image2_1.jpg",
    "category": "산"
  },
  {
    "id": "126043",
    "title": "일월산",
    "address": "경상북도 영양군 일월면 용화리",
    "phone": "",
    "latitude": "36.8016484844",
    "longitude": "129.0983275005",
    "image": "",
    "category": "산"
  },
  {
    "id": "716188",
    "title": "입암산",
    "address": "전북특별자치도 정읍시 입암면 입암로",
    "phone": "063-538-7875",
    "latitude": "35.4947393244",
    "longitude": "126.8151523891",
    "image": "http://tong.visitkorea.or.kr/cms/resource/17/3581717_image2_1.jpg",
    "category": "산"
  },
  {
    "id": "126774",
    "title": "자굴산",
    "address": "경상남도 의령군 칠곡면 내조리",
    "phone": "",
    "latitude": "35.3759408704",
    "longitude": "128.2029217897",
    "image": "http://tong.visitkorea.or.kr/cms/resource/78/3490678_image2_1.jpg",
    "category": "산"
  },
  {
    "id": "2754456",
    "title": "자드락숲",
    "address": "울산광역시 울주군 두서면 서하천전로 76",
    "phone": "",
    "latitude": "35.6278245225",
    "longitude": "129.1615530960",
    "image": "http://tong.visitkorea.or.kr/cms/resource/00/3341900_image2_1.jpg",
    "category": "산"
  },
  {
    "id": "2745623",
    "title": "자인계정숲(경산 자인의계정숲)",
    "address": "경상북도 경산시 자인면 계정길 68",
    "phone": "",
    "latitude": "35.8178883523",
    "longitude": "128.8190222342",
    "image": "http://tong.visitkorea.or.kr/cms/resource/05/3512305_image2_1.jpg",
    "category": "산"
  },
  {
    "id": "2736143",
    "title": "작은동산",
    "address": "충청북도 제천시 청풍면",
    "phone": "",
    "latitude": "37.0169289637",
    "longitude": "128.1970932723",
    "image": "",
    "category": "산"
  },
  {
    "id": "127300",
    "title": "잣봉(영월)",
    "address": "강원특별자치도 영월군 영월읍 어라연길 4",
    "phone": "",
    "latitude": "37.2360235974",
    "longitude": "128.5134806881",
    "image": "",
    "category": "산"
  },
  {
    "id": "2614727",
    "title": "장산 (부산 국가지질공원)",
    "address": "부산광역시 해운대구 장산로 331-18",
    "phone": "",
    "latitude": "35.1811053657",
    "longitude": "129.1681899430",
    "image": "http://tong.visitkorea.or.kr/cms/resource/66/2661666_image2_1.jpg",
    "category": "산"
  },
  {
    "id": "127298",
    "title": "장산(영월)",
    "address": "강원특별자치도 영월군 상동읍 구래리 산 1-16",
    "phone": "",
    "latitude": "37.1445070355",
    "longitude": "128.8408790975",
    "image": "",
    "category": "산"
  },
  {
    "id": "1577195",
    "title": "장풍숲",
    "address": "경상남도 거창군 마리면 율리",
    "phone": "",
    "latitude": "35.7309417490",
    "longitude": "127.8549207273",
    "image": "",
    "category": "산"
  },
  {
    "id": "126231",
    "title": "재약산",
    "address": "경상남도 밀양시 단장면 구천리",
    "phone": "",
    "latitude": "35.5209744841",
    "longitude": "128.9613069263",
    "image": "http://tong.visitkorea.or.kr/cms/resource/76/3573076_image2_1.jpg",
    "category": "산"
  },
  {
    "id": "1351196",
    "title": "저지오름(닥몰오름,새오름)",
    "address": "제주특별자치도 제주시 한경면 중산간서로",
    "phone": "",
    "latitude": "33.3338221918",
    "longitude": "126.2517754921",
    "image": "http://tong.visitkorea.or.kr/cms/resource/30/3400730_image2_1.jpg",
    "category": "산"
  },
  {
    "id": "126890",
    "title": "적대봉",
    "address": "전라남도 고흥군 금산면 석정리",
    "phone": "061-830-5422",
    "latitude": "34.4633727642",
    "longitude": "127.1798626166",
    "image": "http://tong.visitkorea.or.kr/cms/resource/71/3544971_image2_1.jpg",
    "category": "산"
  },
  {
    "id": "127741",
    "title": "적상산",
    "address": "전북특별자치도 무주군 적상면 괴목리",
    "phone": "",
    "latitude": "35.9425120499",
    "longitude": "127.6919628124",
    "image": "http://tong.visitkorea.or.kr/cms/resource/67/3559567_image2_1.jpg",
    "category": "산"
  },
  {
    "id": "128669",
    "title": "적석산",
    "address": "경상남도 창원시 마산합포구 진전면 적석산2길 136",
    "phone": "",
    "latitude": "35.1123094206",
    "longitude": "128.3585124043",
    "image": "http://tong.visitkorea.or.kr/cms/resource/26/3576826_image2_1.jpg",
    "category": "산"
  },
  {
    "id": "127207",
    "title": "적자봉(격자봉)",
    "address": "전라남도 완도군 보길면 부용리",
    "phone": "061-550-6621(면사무소)",
    "latitude": "34.1374763541",
    "longitude": "126.5378044069",
    "image": "",
    "category": "산"
  },
  {
    "id": "3061202",
    "title": "전득이고개",
    "address": "인천광역시 강화군 삼산면 매음리",
    "phone": "",
    "latitude": "37.6735087612",
    "longitude": "126.3687181997",
    "image": "http://tong.visitkorea.or.kr/cms/resource/72/3001172_image2_1.jpg",
    "category": "산"
  },
  {
    "id": "125614",
    "title": "점봉산",
    "address": "강원특별자치도 인제군 인제읍 한석산로 2221-101",
    "phone": "033-672-2883",
    "latitude": "38.0355365342",
    "longitude": "128.3621646522",
    "image": "http://tong.visitkorea.or.kr/cms/resource/51/2005551_image2_1.jpg",
    "category": "산"
  },
  {
    "id": "572984",
    "title": "점봉산 곰배령",
    "address": "강원특별자치도 인제군 기린면 곰배령길 20",
    "phone": "",
    "latitude": "38.0365274096",
    "longitude": "128.4713602680",
    "image": "http://tong.visitkorea.or.kr/cms/resource/22/3502522_image2_1.jpg",
    "category": "산"
  },
  {
    "id": "1607623",
    "title": "정령치",
    "address": "전북특별자치도 남원시 산내면 정령치로 1523",
    "phone": "",
    "latitude": "35.3638163064",
    "longitude": "127.5220487154",
    "image": "http://tong.visitkorea.or.kr/cms/resource/29/3583529_image2_1.jpg",
    "category": "산"
  },
  {
    "id": "1926369",
    "title": "정물알오름",
    "address": "제주특별자치도 제주시 한림읍 금악리",
    "phone": "",
    "latitude": "33.3393282866",
    "longitude": "126.3249106803",
    "image": "http://tong.visitkorea.or.kr/cms/resource/43/3585443_image2_1.jpg",
    "category": "산"
  },
  {
    "id": "1926379",
    "title": "정물오름",
    "address": "제주특별자치도 제주시 한림읍 금악리",
    "phone": "",
    "latitude": "33.3380257364",
    "longitude": "126.3302158047",
    "image": "http://tong.visitkorea.or.kr/cms/resource/89/3077589_image2_1.jpg",
    "category": "산"
  },
  {
    "id": "126770",
    "title": "정병산",
    "address": "경상남도 창원시 의창구 동읍 단계리",
    "phone": "",
    "latitude": "35.2634207428",
    "longitude": "128.6938484843",
    "image": "http://tong.visitkorea.or.kr/cms/resource/75/3576875_image2_1.jpg",
    "category": "산"
  },
  {
    "id": "127667",
    "title": "정족산",
    "address": "인천광역시 강화군 길상면 온수리",
    "phone": "",
    "latitude": "37.6324543953",
    "longitude": "126.4804118869",
    "image": "http://tong.visitkorea.or.kr/cms/resource/39/3559339_image2_1.jpg",
    "category": "산"
  },
  {
    "id": "126651",
    "title": "제비봉",
    "address": "충청북도 단양군 단성면 외중방리",
    "phone": "",
    "latitude": "36.9221495152",
    "longitude": "128.2683229692",
    "image": "",
    "category": "산"
  },
  {
    "id": "1246089",
    "title": "제암산",
    "address": "전라남도 장흥군 장흥읍 금산신기길 131",
    "phone": "",
    "latitude": "34.6990815256",
    "longitude": "126.9581846105",
    "image": "",
    "category": "산"
  },
  {
    "id": "125617",
    "title": "제왕산/능경봉",
    "address": "강원특별자치도 강릉시 성산면 어흘리",
    "phone": "",
    "latitude": "37.7099545878",
    "longitude": "128.7806256921",
    "image": "",
    "category": "산"
  },
  {
    "id": "127861",
    "title": "제주 서귀포 산방산",
    "address": "제주특별자치도 서귀포시 안덕면 사계리",
    "phone": "",
    "latitude": "33.2424277101",
    "longitude": "126.3140110065",
    "image": "http://tong.visitkorea.or.kr/cms/resource/61/3536261_image2_1.jpg",
    "category": "산"
  },
  {
    "id": "1918417",
    "title": "제지기오름",
    "address": "제주특별자치도 서귀포시 보목동",
    "phone": "",
    "latitude": "33.2419935340",
    "longitude": "126.6095687240",
    "image": "http://tong.visitkorea.or.kr/cms/resource/21/3527121_image2_1.jpg",
    "category": "산"
  },
  {
    "id": "299998",
    "title": "제천 옥순봉",
    "address": "충청북도 제천시 수산면 괴곡리",
    "phone": "",
    "latitude": "36.9443547236",
    "longitude": "128.2375084191",
    "image": "http://tong.visitkorea.or.kr/cms/resource/90/3480590_image2_1.jpg",
    "category": "산"
  },
  {
    "id": "126030",
    "title": "조령산",
    "address": "경상북도 문경시 문경읍 상초리",
    "phone": "",
    "latitude": "36.7711488084",
    "longitude": "128.0447223157",
    "image": "http://tong.visitkorea.or.kr/cms/resource/04/3519804_image2_1.jpg",
    "category": "산"
  },
  {
    "id": "127843",
    "title": "조양산(정선)",
    "address": "강원특별자치도 정선군 정선읍 용담길 102-22",
    "phone": "1544-9053",
    "latitude": "37.3772350070",
    "longitude": "128.6539110882",
    "image": "http://tong.visitkorea.or.kr/cms/resource/74/3342274_image2_1.jpg",
    "category": "산"
  },
  {
    "id": "716659",
    "title": "종남산",
    "address": "전북특별자치도 완주군 소양면 대흥리",
    "phone": "",
    "latitude": "35.8953897026",
    "longitude": "127.2230724197",
    "image": "",
    "category": "산"
  },
  {
    "id": "2778035",
    "title": "종남산(밀양)",
    "address": "경상남도 밀양시 상남면 남산리",
    "phone": "",
    "latitude": "35.4487393125",
    "longitude": "128.7221242938",
    "image": "http://tong.visitkorea.or.kr/cms/resource/68/3499768_image2_1.jpg",
    "category": "산"
  },
  {
    "id": "125461",
    "title": "주금산",
    "address": "경기도 포천시 내촌면 능곡청정길 50",
    "phone": "",
    "latitude": "37.7835449315",
    "longitude": "127.2446905360",
    "image": "",
    "category": "산"
  },
  {
    "id": "578684",
    "title": "주작산",
    "address": "전라남도 강진군 신전면 수양리",
    "phone": "",
    "latitude": "34.5048406378",
    "longitude": "126.6967400791",
    "image": "",
    "category": "산"
  },
  {
    "id": "126036",
    "title": "주흘산",
    "address": "경상북도 문경시 문경읍 새재로 884-8",
    "phone": "",
    "latitude": "36.7574315622",
    "longitude": "128.0786391164",
    "image": "http://tong.visitkorea.or.kr/cms/resource/13/3041913_image2_1.jpg",
    "category": "산"
  },
  {
    "id": "228858",
    "title": "죽령",
    "address": "경상북도 영주시 풍기읍 수철리",
    "phone": "",
    "latitude": "36.8992807951",
    "longitude": "128.4635561728",
    "image": "http://tong.visitkorea.or.kr/cms/resource/80/1968280_image2_1.jpg",
    "category": "산"
  },
  {
    "id": "126752",
    "title": "중미산",
    "address": "경기도 양평군 옥천면 중미산로 1152",
    "phone": "",
    "latitude": "37.5830221580",
    "longitude": "127.4591879233",
    "image": "",
    "category": "산"
  },
  {
    "id": "125474",
    "title": "중원산",
    "address": "경기도 양평군 용문면 중원리",
    "phone": "",
    "latitude": "37.5595525041",
    "longitude": "127.6020200818",
    "image": "",
    "category": "산"
  },
  {
    "id": "129083",
    "title": "중평솔밭",
    "address": "경상북도 청송군 파천면 중평병부길 26-15",
    "phone": "",
    "latitude": "36.4560616585",
    "longitude": "129.0333684317",
    "image": "http://tong.visitkorea.or.kr/cms/resource/11/3408711_image2_1.jpg",
    "category": "산"
  },
  {
    "id": "126636",
    "title": "지리산 만복대",
    "address": "전라남도 구례군 산동면 위안리",
    "phone": "",
    "latitude": "35.3369563243",
    "longitude": "127.7306449143",
    "image": "",
    "category": "산"
  },
  {
    "id": "716410",
    "title": "지리산 반야봉",
    "address": "전북특별자치도 남원시 산내면 와운길 324",
    "phone": "",
    "latitude": "35.3314493303",
    "longitude": "127.6131331903",
    "image": "",
    "category": "산"
  },
  {
    "id": "250411",
    "title": "지리산 천왕봉",
    "address": "경상남도 산청군 시천면 지리산대로",
    "phone": "",
    "latitude": "35.3035826319",
    "longitude": "127.7488858476",
    "image": "http://tong.visitkorea.or.kr/cms/resource/25/3076925_image2_1.jpg",
    "category": "산"
  },
  {
    "id": "1918413",
    "title": "지미봉",
    "address": "제주특별자치도 제주시 구좌읍 종달리",
    "phone": "",
    "latitude": "33.4992031582",
    "longitude": "126.9020069661",
    "image": "http://tong.visitkorea.or.kr/cms/resource/85/3523585_image2_1.jpg",
    "category": "산"
  },
  {
    "id": "2715658",
    "title": "지안재",
    "address": "경상남도 함양군 함양읍 구룡리 산 119-3",
    "phone": "",
    "latitude": "35.4733543070",
    "longitude": "127.7021188488",
    "image": "",
    "category": "산"
  },
  {
    "id": "2616535",
    "title": "진부령",
    "address": "강원특별자치도 고성군 간성읍 진부리",
    "phone": "",
    "latitude": "38.3318233670",
    "longitude": "128.3166040880",
    "image": "http://tong.visitkorea.or.kr/cms/resource/00/3569600_image2_1.jpg",
    "category": "산"
  },
  {
    "id": "126811",
    "title": "진악산",
    "address": "충청남도 금산군 남이면 성곡리",
    "phone": "",
    "latitude": "36.0666441862",
    "longitude": "127.4817170573",
    "image": "",
    "category": "산"
  },
  {
    "id": "1612090",
    "title": "채계산",
    "address": "전북특별자치도 순창군 적성면 담순로 2172-33",
    "phone": "063-650-1613",
    "latitude": "35.4012207934",
    "longitude": "127.2235741233",
    "image": "http://tong.visitkorea.or.kr/cms/resource/90/3519090_image2_1.jpg",
    "category": "산"
  },
  {
    "id": "716704",
    "title": "천등산",
    "address": "전북특별자치도 완주군 운주면 산북리",
    "phone": "",
    "latitude": "36.0856445289",
    "longitude": "127.3090152731",
    "image": "http://tong.visitkorea.or.kr/cms/resource/24/3510124_image2_1.jpg",
    "category": "산"
  },
  {
    "id": "126892",
    "title": "천등산(고흥)",
    "address": "전라남도 고흥군 풍양면 송정리",
    "phone": "",
    "latitude": "34.5413990373",
    "longitude": "127.2787909289",
    "image": "http://tong.visitkorea.or.kr/cms/resource/21/3544921_image2_1.jpg",
    "category": "산"
  },
  {
    "id": "1597759",
    "title": "천마봉",
    "address": "전북특별자치도 고창군 아산면 삼인리",
    "phone": "",
    "latitude": "35.4666077551",
    "longitude": "126.5659196999",
    "image": "http://tong.visitkorea.or.kr/cms/resource/08/3348008_image2_1.jpg",
    "category": "산"
  },
  {
    "id": "1114311",
    "title": "천마산",
    "address": "충청남도 계룡시 금암동",
    "phone": "",
    "latitude": "36.2648867702",
    "longitude": "127.2420886739",
    "image": "",
    "category": "산"
  },
  {
    "id": "1624877",
    "title": "천반산",
    "address": "전북특별자치도 장수군 천천면 연평리",
    "phone": "",
    "latitude": "35.8109909201",
    "longitude": "127.5372022891",
    "image": "http://tong.visitkorea.or.kr/cms/resource/53/2918153_image2_1.jpg",
    "category": "산"
  },
  {
    "id": "129623",
    "title": "천방산",
    "address": "충청남도 서천군 문산면 신농리",
    "phone": "",
    "latitude": "36.1348343620",
    "longitude": "126.7275548444",
    "image": "",
    "category": "산"
  },
  {
    "id": "2736676",
    "title": "천생산",
    "address": "경상북도 구미시 천생산길 200",
    "phone": "",
    "latitude": "36.0966446591",
    "longitude": "128.4651234051",
    "image": "http://tong.visitkorea.or.kr/cms/resource/41/3349241_image2_1.jpg",
    "category": "산"
  },
  {
    "id": "126045",
    "title": "천성산",
    "address": "경상남도 양산시 하북면 용연리",
    "phone": "055-392-2933",
    "latitude": "35.4202413955",
    "longitude": "129.1123270868",
    "image": "http://tong.visitkorea.or.kr/cms/resource/41/3489441_image2_1.JPG",
    "category": "산"
  },
  {
    "id": "1895611",
    "title": "천아오름",
    "address": "제주특별자치도 제주시 애월읍 광령리",
    "phone": "",
    "latitude": "33.3969294468",
    "longitude": "126.4499096413",
    "image": "http://tong.visitkorea.or.kr/cms/resource/93/3526993_image2_1.jpg",
    "category": "산"
  },
  {
    "id": "2714804",
    "title": "천주산",
    "address": "경상남도 창원시 의창구 소계동",
    "phone": "",
    "latitude": "35.2718401431",
    "longitude": "128.5908239288",
    "image": "http://tong.visitkorea.or.kr/cms/resource/90/3500490_image2_1.jpg",
    "category": "산"
  },
  {
    "id": "125907",
    "title": "천태산",
    "address": "충청북도 영동군 양산면 누교리",
    "phone": "",
    "latitude": "36.1586024648",
    "longitude": "127.5996540718",
    "image": "http://tong.visitkorea.or.kr/cms/resource/36/3059936_image2_1.JPG",
    "category": "산"
  },
  {
    "id": "126924",
    "title": "천태산",
    "address": "경상남도 양산시 원동면",
    "phone": "",
    "latitude": "35.3998202862",
    "longitude": "128.8986935268",
    "image": "http://tong.visitkorea.or.kr/cms/resource/86/3489186_image2_1.JPG",
    "category": "산"
  },
  {
    "id": "578691",
    "title": "천태산(강진)",
    "address": "전라남도 강진군 대구면 용운리",
    "phone": "",
    "latitude": "34.5270824919",
    "longitude": "126.8588003121",
    "image": "http://tong.visitkorea.or.kr/cms/resource/10/2878010_image2_1.jpg",
    "category": "산"
  },
  {
    "id": "127846",
    "title": "천황산",
    "address": "경상남도 밀양시 단장면",
    "phone": "",
    "latitude": "35.5576011195",
    "longitude": "128.9722355087",
    "image": "http://tong.visitkorea.or.kr/cms/resource/11/3337611_image2_1.jpg",
    "category": "산"
  },
  {
    "id": "127252",
    "title": "첨찰산",
    "address": "전라남도 진도군 의신면 사천리",
    "phone": "",
    "latitude": "34.4693410999",
    "longitude": "126.3111470587",
    "image": "http://tong.visitkorea.or.kr/cms/resource/03/1992803_image2_1.jpg",
    "category": "산"
  },
  {
    "id": "125452",
    "title": "청계산",
    "address": "서울특별시 서초구 원지동",
    "phone": "",
    "latitude": "37.4437532162",
    "longitude": "127.0553147223",
    "image": "http://tong.visitkorea.or.kr/cms/resource/25/1796725_image2_1.jpg",
    "category": "산"
  },
  {
    "id": "127284",
    "title": "청대산",
    "address": "강원특별자치도 속초시 청대로 207",
    "phone": "",
    "latitude": "38.1839594168",
    "longitude": "128.5711855239",
    "image": "http://tong.visitkorea.or.kr/cms/resource/09/3071409_image2_1.jpg",
    "category": "산"
  },
  {
    "id": "2755172",
    "title": "청벽산",
    "address": "충청남도 공주시 반포면 마암리 산 4-4",
    "phone": "",
    "latitude": "36.4285676628",
    "longitude": "127.2209361575",
    "image": "",
    "category": "산"
  },
  {
    "id": "2742373",
    "title": "청수곶자왈",
    "address": "제주특별자치도 제주시 한경면 연명로 348",
    "phone": "",
    "latitude": "33.3022924580",
    "longitude": "126.2590505609",
    "image": "http://tong.visitkorea.or.kr/cms/resource/74/3524874_image2_1.jpg",
    "category": "산"
  },
  {
    "id": "127811",
    "title": "청옥산(봉화)",
    "address": "경상북도 봉화군 석포면",
    "phone": "",
    "latitude": "37.0433987200",
    "longitude": "128.9607436445",
    "image": "http://tong.visitkorea.or.kr/cms/resource/98/3573098_image2_1.jpg",
    "category": "산"
  },
  {
    "id": "125595",
    "title": "청옥산(평창)",
    "address": "강원특별자치도 평창군 미탄면 백운리",
    "phone": "",
    "latitude": "37.4106200313",
    "longitude": "128.5076704504",
    "image": "http://tong.visitkorea.or.kr/cms/resource/28/3034228_image2_1.jpg",
    "category": "산"
  },
  {
    "id": "2031668",
    "title": "초안산",
    "address": "서울특별시 노원구 월계동",
    "phone": "",
    "latitude": "37.6391108936",
    "longitude": "127.0449906758",
    "image": "http://tong.visitkorea.or.kr/cms/resource/46/3466146_image2_1.jpg",
    "category": "산"
  },
  {
    "id": "127601",
    "title": "최정산",
    "address": "대구광역시 달성군 가창면 주리2길",
    "phone": "",
    "latitude": "35.7573299383",
    "longitude": "128.5946103198",
    "image": "http://tong.visitkorea.or.kr/cms/resource/99/3516699_image2_1.jpg",
    "category": "산"
  },
  {
    "id": "126254",
    "title": "추월산",
    "address": "전라남도 담양군 용면 월계리",
    "phone": "061-380-3492",
    "latitude": "35.3999694693",
    "longitude": "126.9760544076",
    "image": "http://tong.visitkorea.or.kr/cms/resource/93/3581993_image2_1.jpg",
    "category": "산"
  },
  {
    "id": "125459",
    "title": "축령산",
    "address": "경기도 남양주시 수동면 축령산로 299",
    "phone": "",
    "latitude": "37.7529607789",
    "longitude": "127.3091660984",
    "image": "http://tong.visitkorea.or.kr/cms/resource/15/3077115_image2_1.jpg",
    "category": "산"
  },
  {
    "id": "3500117",
    "title": "치악산 바람길숲",
    "address": "강원특별자치도 원주시 우산동",
    "phone": "",
    "latitude": "37.3648506042",
    "longitude": "127.9326208353",
    "image": "http://tong.visitkorea.or.kr/cms/resource/09/3500109_image2_1.jpg",
    "category": "산"
  },
  {
    "id": "1627635",
    "title": "칠보산",
    "address": "전북특별자치도 정읍시 칠보면 축현리",
    "phone": "",
    "latitude": "35.5711634428",
    "longitude": "126.9463276762",
    "image": "http://tong.visitkorea.or.kr/cms/resource/99/3581599_image2_1.jpg",
    "category": "산"
  },
  {
    "id": "127837",
    "title": "칠보산(괴산)",
    "address": "충청북도 괴산군 칠성면 쌍곡리",
    "phone": "",
    "latitude": "36.7398474713",
    "longitude": "127.9277197878",
    "image": "",
    "category": "산"
  },
  {
    "id": "128722",
    "title": "칠성산",
    "address": "강원특별자치도 강릉시 구정면 어단리",
    "phone": "",
    "latitude": "37.6768856384",
    "longitude": "128.8953080497",
    "image": "",
    "category": "산"
  },
  {
    "id": "125479",
    "title": "칠장산",
    "address": "경기도 안성시 삼죽면 미장리",
    "phone": "",
    "latitude": "37.0308486914",
    "longitude": "127.3912181416",
    "image": "",
    "category": "산"
  },
  {
    "id": "2738712",
    "title": "큰노꼬메오름",
    "address": "제주특별자치도 제주시 애월읍 유수암리 산138",
    "phone": "",
    "latitude": "33.3922627569",
    "longitude": "126.4158515939",
    "image": "http://tong.visitkorea.or.kr/cms/resource/52/3527352_image2_1.jpg",
    "category": "산"
  },
  {
    "id": "2767695",
    "title": "큰사슴이오름",
    "address": "제주특별자치도 서귀포시 표선면 가시리",
    "phone": "",
    "latitude": "33.3987281437",
    "longitude": "126.7292131404",
    "image": "http://tong.visitkorea.or.kr/cms/resource/49/3495649_image2_1.jpg",
    "category": "산"
  },
  {
    "id": "1625014",
    "title": "타관산",
    "address": "전북특별자치도 장수군 장수읍 송천리 산154-1",
    "phone": "",
    "latitude": "35.6287499605",
    "longitude": "127.5072930932",
    "image": "",
    "category": "산"
  },
  {
    "id": "125611",
    "title": "태기산",
    "address": "강원특별자치도 횡성군 둔내면 경강로",
    "phone": "",
    "latitude": "37.6061178216",
    "longitude": "128.2645642866",
    "image": "http://tong.visitkorea.or.kr/cms/resource/23/2687623_image2_1.jpg",
    "category": "산"
  },
  {
    "id": "125820",
    "title": "태조산(태조봉)",
    "address": "충청남도 천안시 동남구 목천읍 덕전리",
    "phone": "",
    "latitude": "36.8175365911",
    "longitude": "127.2045936762",
    "image": "",
    "category": "산"
  },
  {
    "id": "3351579",
    "title": "태조산공원 무장애 나눔길",
    "address": "충청남도 천안시 동남구 태조산길 261 (유량동)",
    "phone": "",
    "latitude": "36.8210858969",
    "longitude": "127.1885561346",
    "image": "http://tong.visitkorea.or.kr/cms/resource/12/3381212_image2_1.jpg",
    "category": "산"
  },
  {
    "id": "3065040",
    "title": "태학산 치유의 숲",
    "address": "충청남도 천안시 동남구 풍세면 휴양림길 105-2",
    "phone": "",
    "latitude": "36.7286559313",
    "longitude": "127.0919590376",
    "image": "http://tong.visitkorea.or.kr/cms/resource/33/3065033_image2_1.jpg",
    "category": "산"
  },
  {
    "id": "125456",
    "title": "태화산(경기)",
    "address": "경기도 광주시 도척면 추곡리",
    "phone": "",
    "latitude": "37.2807513940",
    "longitude": "127.2936171458",
    "image": "",
    "category": "산"
  },
  {
    "id": "126037",
    "title": "토함산",
    "address": "경상북도 경주시 석굴로 238 (진현동)",
    "phone": "",
    "latitude": "35.7893821069",
    "longitude": "129.3507819663",
    "image": "http://tong.visitkorea.or.kr/cms/resource/77/3034277_image2_1.jpg",
    "category": "산"
  },
  {
    "id": "125476",
    "title": "통방산",
    "address": "경기도 가평군 설악면 천안리",
    "phone": "",
    "latitude": "37.6334523587",
    "longitude": "127.4561172972",
    "image": "http://tong.visitkorea.or.kr/cms/resource/55/3510655_image2_1.jpg",
    "category": "산"
  },
  {
    "id": "3559736",
    "title": "통오름",
    "address": "제주특별자치도 서귀포시 성산읍 독자봉로 281",
    "phone": "",
    "latitude": "33.3923391280",
    "longitude": "126.8502250214",
    "image": "http://tong.visitkorea.or.kr/cms/resource/56/3559656_image2_1.jpg",
    "category": "산"
  },
  {
    "id": "716917",
    "title": "팔공산(성적산)",
    "address": "전북특별자치도 장수군 장수읍 대성리 산 258-2",
    "phone": "",
    "latitude": "35.6181641657",
    "longitude": "127.4568589482",
    "image": "",
    "category": "산"
  },
  {
    "id": "2714556",
    "title": "팔달산",
    "address": "경기도 수원시 팔달구 팔달산로 131 (화서동)",
    "phone": "",
    "latitude": "37.2802435489",
    "longitude": "127.0081319361",
    "image": "http://tong.visitkorea.or.kr/cms/resource/38/3467438_image2_1.JPG",
    "category": "산"
  },
  {
    "id": "126586",
    "title": "팔봉산(서산)",
    "address": "충청남도 서산시 팔봉면 양길리",
    "phone": "",
    "latitude": "36.8042375084",
    "longitude": "126.3753578467",
    "image": "http://tong.visitkorea.or.kr/cms/resource/28/1919428_image2_1.jpg",
    "category": "산"
  },
  {
    "id": "125610",
    "title": "팔봉산(홍천)",
    "address": "강원특별자치도 홍천군 서면 한치골길 1124",
    "phone": "",
    "latitude": "37.7030736841",
    "longitude": "127.6951740981",
    "image": "http://tong.visitkorea.or.kr/cms/resource/18/3042918_image2_1.jpg",
    "category": "산"
  },
  {
    "id": "125826",
    "title": "포암산(충주)",
    "address": "충청북도 충주시 수안보면 미륵리사지길",
    "phone": "",
    "latitude": "36.8215884156",
    "longitude": "128.0961579405",
    "image": "http://tong.visitkorea.or.kr/cms/resource/48/3353448_image2_1.JPG",
    "category": "산"
  },
  {
    "id": "1918421",
    "title": "폭낭오름",
    "address": "제주특별자치도 제주시 애월읍 봉성리",
    "phone": "",
    "latitude": "33.3522277635",
    "longitude": "126.3822415228",
    "image": "http://tong.visitkorea.or.kr/cms/resource/39/3478039_image2_1.jpg",
    "category": "산"
  },
  {
    "id": "127853",
    "title": "하늘재",
    "address": "충청북도 충주시 수안보면 미륵리",
    "phone": "",
    "latitude": "36.8152475981",
    "longitude": "128.1027214224",
    "image": "http://tong.visitkorea.or.kr/cms/resource/61/3561261_image2_1.jpg",
    "category": "산"
  },
  {
    "id": "1923590",
    "title": "하늬복이오름",
    "address": "제주특별자치도 서귀포시 안덕면 상천리",
    "phone": "",
    "latitude": "33.3266196561",
    "longitude": "126.3932189204",
    "image": "http://tong.visitkorea.or.kr/cms/resource/41/3477441_image2_1.jpg",
    "category": "산"
  },
  {
    "id": "1918643",
    "title": "한대오름",
    "address": "제주특별자치도 제주시 애월읍 화전길 201",
    "phone": "064-728-2742",
    "latitude": "33.3482949190",
    "longitude": "126.3856690910",
    "image": "",
    "category": "산"
  },
  {
    "id": "127635",
    "title": "한라산",
    "address": "제주특별자치도 서귀포시 토평동",
    "phone": "",
    "latitude": "33.3618290415",
    "longitude": "126.5300118106",
    "image": "http://tong.visitkorea.or.kr/cms/resource/98/2870098_image2_1.jpg",
    "category": "산"
  },
  {
    "id": "126469",
    "title": "한라산 영실",
    "address": "제주특별자치도 서귀포시 영실로 246",
    "phone": "",
    "latitude": "33.3402306397",
    "longitude": "126.4803110551",
    "image": "http://tong.visitkorea.or.kr/cms/resource/15/3552115_image2_1.jpg",
    "category": "산"
  },
  {
    "id": "127126",
    "title": "한우산",
    "address": "경상남도 의령군 대의면 신전리",
    "phone": "",
    "latitude": "35.3935415351",
    "longitude": "128.1957219518",
    "image": "http://tong.visitkorea.or.kr/cms/resource/41/3490741_image2_1.jpg",
    "category": "산"
  },
  {
    "id": "127564",
    "title": "한천팔경",
    "address": "충청북도 영동군 황간면 원촌리",
    "phone": "",
    "latitude": "36.2379179868",
    "longitude": "127.8849598367",
    "image": "",
    "category": "산"
  },
  {
    "id": "3060358",
    "title": "한티재",
    "address": "경상북도 칠곡군 동명면 한티로 1245",
    "phone": "",
    "latitude": "36.0204646917",
    "longitude": "128.6302720634",
    "image": "http://tong.visitkorea.or.kr/cms/resource/42/3051542_image2_1.jpg",
    "category": "산"
  },
  {
    "id": "125594",
    "title": "함백산",
    "address": "강원특별자치도 태백시 황지동",
    "phone": "",
    "latitude": "37.1624758930",
    "longitude": "128.9176966940",
    "image": "http://tong.visitkorea.or.kr/cms/resource/92/2836792_image2_1.jpg",
    "category": "산"
  },
  {
    "id": "3422005",
    "title": "합천 운석충돌구",
    "address": "경상남도 합천군 초계면 원당리",
    "phone": "",
    "latitude": "35.5338399982",
    "longitude": "128.2180217782",
    "image": "http://tong.visitkorea.or.kr/cms/resource/81/3584981_image2_1.jpg",
    "category": "산"
  },
  {
    "id": "1624508",
    "title": "해남 송호리 해송림",
    "address": "전라남도 해남군 송지면 땅끝해안로 1827",
    "phone": "",
    "latitude": "34.3143868460",
    "longitude": "126.5197434929",
    "image": "http://tong.visitkorea.or.kr/cms/resource/74/3562874_image2_1.jpg",
    "category": "산"
  },
  {
    "id": "2768124",
    "title": "해명산",
    "address": "인천광역시 강화군 삼산면 석포리 산 185",
    "phone": "",
    "latitude": "37.6790300800",
    "longitude": "126.3538721856",
    "image": "",
    "category": "산"
  },
  {
    "id": "1705213",
    "title": "향적봉(덕유산)",
    "address": "전북특별자치도 무주군 설천면 청량리",
    "phone": "",
    "latitude": "35.8602445989",
    "longitude": "127.7469184844",
    "image": "http://tong.visitkorea.or.kr/cms/resource/30/3516730_image2_1.jpg",
    "category": "산"
  },
  {
    "id": "1914603",
    "title": "허굴산",
    "address": "경상남도 합천군 대병면",
    "phone": "",
    "latitude": "35.4941275527",
    "longitude": "128.0485933119",
    "image": "",
    "category": "산"
  },
  {
    "id": "3060357",
    "title": "헐티재골",
    "address": "경상북도 청도군 각북면 금천리",
    "phone": "",
    "latitude": "35.7285771171",
    "longitude": "128.5665496938",
    "image": "http://tong.visitkorea.or.kr/cms/resource/80/3051980_image2_1.jpg",
    "category": "산"
  },
  {
    "id": "125473",
    "title": "현등산(운악산)",
    "address": "경기도 가평군 조종면 운악리",
    "phone": "",
    "latitude": "37.8780548374",
    "longitude": "127.3249165792",
    "image": "http://tong.visitkorea.or.kr/cms/resource/66/3511266_image2_1.jpg",
    "category": "산"
  },
  {
    "id": "1945662",
    "title": "호룡곡산",
    "address": "인천광역시 중구 대무의로 464",
    "phone": "",
    "latitude": "37.3768526090",
    "longitude": "126.4250489979",
    "image": "http://tong.visitkorea.or.kr/cms/resource/31/3497331_image2_1.jpg",
    "category": "산"
  },
  {
    "id": "3101682",
    "title": "화랑의 언덕",
    "address": "경상북도 경주시 산내면 수의길 569",
    "phone": "",
    "latitude": "35.7700876459",
    "longitude": "129.0871778201",
    "image": "http://tong.visitkorea.or.kr/cms/resource/47/3100047_image2_1.jpg",
    "category": "산"
  },
  {
    "id": "2789998",
    "title": "화랑의언덕",
    "address": "경상북도 경주시 산내면 수의길 601",
    "phone": "",
    "latitude": "35.7720873674",
    "longitude": "129.0843530115",
    "image": "http://tong.visitkorea.or.kr/cms/resource/39/3099939_image2_1.jpg",
    "category": "산"
  },
  {
    "id": "128097",
    "title": "화악산",
    "address": "강원특별자치도 화천군 사내면 삼일리",
    "phone": "",
    "latitude": "38.0482386379",
    "longitude": "127.5221435572",
    "image": "http://tong.visitkorea.or.kr/cms/resource/26/3044226_image2_1.jpg",
    "category": "산"
  },
  {
    "id": "125477",
    "title": "화야산",
    "address": "경기도 가평군 청평면 삼회리",
    "phone": "",
    "latitude": "37.6715529740",
    "longitude": "127.4280187480",
    "image": "http://tong.visitkorea.or.kr/cms/resource/82/3510682_image2_1.jpg",
    "category": "산"
  },
  {
    "id": "2736726",
    "title": "황금산",
    "address": "충청남도 서산시 대산읍 독곶리 산 230-2",
    "phone": "",
    "latitude": "36.9915428552",
    "longitude": "126.3297458815",
    "image": "http://tong.visitkorea.or.kr/cms/resource/87/3341687_image2_1.jpg",
    "category": "산"
  },
  {
    "id": "128290",
    "title": "황령산",
    "address": "부산광역시 남구 황령산로 391-39",
    "phone": "",
    "latitude": "35.1579341561",
    "longitude": "129.0827285679",
    "image": "http://tong.visitkorea.or.kr/cms/resource/50/2732750_image2_1.jpg",
    "category": "산"
  },
  {
    "id": "126041",
    "title": "황매산(산청)",
    "address": "경상남도 산청군 차황면 법평리",
    "phone": "",
    "latitude": "35.4717397152",
    "longitude": "127.9658206425",
    "image": "http://tong.visitkorea.or.kr/cms/resource/13/3532313_image2_1.JPG",
    "category": "산"
  },
  {
    "id": "125624",
    "title": "황병산",
    "address": "강원특별자치도 평창군 대관령면",
    "phone": "",
    "latitude": "37.7554109242",
    "longitude": "128.6621572019",
    "image": "",
    "category": "산"
  },
  {
    "id": "127510",
    "title": "황석산",
    "address": "경상남도 함양군 서하면",
    "phone": "",
    "latitude": "35.6507045523",
    "longitude": "127.7512764798",
    "image": "",
    "category": "산"
  },
  {
    "id": "126031",
    "title": "황악산",
    "address": "경상북도 김천시 대항면 운수리",
    "phone": "",
    "latitude": "36.1185441894",
    "longitude": "127.9674196796",
    "image": "http://tong.visitkorea.or.kr/cms/resource/01/3519701_image2_1.jpg",
    "category": "산"
  },
  {
    "id": "128625",
    "title": "황장산",
    "address": "경상북도 문경시 동로면 생달리",
    "phone": "",
    "latitude": "36.8131482780",
    "longitude": "128.2761226399",
    "image": "http://tong.visitkorea.or.kr/cms/resource/03/3579303_image2_1.jpg",
    "category": "산"
  },
  {
    "id": "2762931",
    "title": "흑성산",
    "address": "충청남도 천안시 동남구 목천읍 교촌7길 46-12",
    "phone": "",
    "latitude": "36.8014832908",
    "longitude": "127.2274587255",
    "image": "",
    "category": "산"
  },
  {
    "id": "1890857",
    "title": "흙붉은오름",
    "address": "제주특별자치도 제주시 아라일동",
    "phone": "",
    "latitude": "33.3856296799",
    "longitude": "126.5609113693",
    "image": "",
    "category": "산"
  },
  {
    "id": "127833",
    "title": "희양산",
    "address": "충청북도 괴산군 연풍면",
    "phone": "",
    "latitude": "36.7156266600",
    "longitude": "128.0046552552",
    "image": "",
    "category": "산"
  }
]