[
  {
    "id": "127480",
    "title": "가거도",
    "address": "전라남도 신안군 흑산면 가거도길 38-2",
    "phone": "",
    "latitude": "34.0520609879",
    "longitude": "125.1263860145",
    "image": "http://tong.visitkorea.or.kr/cms/resource/28/3572128_image2_1.jpg",
    "category": "섬"
  },
  {
    "id": "2715601",
    "title": "가덕도",
    "address": "부산광역시 강서구 서천로42번길 351 (천성동)",
    "phone": "",
    "latitude": "35.0399121452",
    "longitude": "128.8284150154",
    "image": "http://tong.visitkorea.or.kr/cms/resource/69/3491669_image2_1.jpg",
    "category": "섬"
  },
  {
    "id": "578400",
    "title": "가사도",
    "address": "전라남도 진도군 조도면 가사도길 106",
    "phone": "",
    "latitude": "34.4789302819",
    "longitude": "126.0510003156",
    "image": "",
    "category": "섬"
  },
  {
    "id": "2024432",
    "title": "가우도",
    "address": "전라남도 강진군 도암면 월곶로 473",
    "phone": "",
    "latitude": "34.5283725869",
    "longitude": "126.7726522891",
    "image": "",
    "category": "섬"
  },
  {
    "id": "125848",
    "title": "가의도",
    "address": "충청남도 태안군 근흥면 가의도리",
    "phone": "",
    "latitude": "36.6761471358",
    "longitude": "126.0727080861",
    "image": "http://tong.visitkorea.or.kr/cms/resource/34/3494634_image2_1.jpg",
    "category": "섬"
  },
  {
    "id": "2754985",
    "title": "가조도",
    "address": "경상남도 거제시 사등면 가조로 1298",
    "phone": "",
    "latitude": "34.9577018859",
    "longitude": "128.5206884618",
    "image": "http://tong.visitkorea.or.kr/cms/resource/37/3576037_image2_1.jpg",
    "category": "섬"
  },
  {
    "id": "126446",
    "title": "가파도",
    "address": "제주특별자치도 서귀포시 대정읍 가파로",
    "phone": "",
    "latitude": "33.1664326869",
    "longitude": "126.2735884192",
    "image": "http://tong.visitkorea.or.kr/cms/resource/68/3543168_image2_1.jpg",
    "category": "섬"
  },
  {
    "id": "580102",
    "title": "각흘도",
    "address": "전라남도 진도군 조도면 관매작흘도길 6",
    "phone": "",
    "latitude": "34.2577606440",
    "longitude": "126.0510943280",
    "image": "",
    "category": "섬"
  },
  {
    "id": "580288",
    "title": "갈목도",
    "address": "전라남도 진도군 조도면 진목도갈목길 10",
    "phone": "",
    "latitude": "34.3062257853",
    "longitude": "125.9471912472",
    "image": "",
    "category": "섬"
  },
  {
    "id": "3018216",
    "title": "강천섬유원지",
    "address": "경기도 여주시 강천면 강천리길 88-60",
    "phone": "",
    "latitude": "37.2320949397",
    "longitude": "127.6980569614",
    "image": "http://tong.visitkorea.or.kr/cms/resource/38/3547138_image2_1.jpg",
    "category": "섬"
  },
  {
    "id": "125502",
    "title": "강화도",
    "address": "인천광역시 강화군 강화읍 강화대로",
    "phone": "",
    "latitude": "37.7465023392",
    "longitude": "126.4877441465",
    "image": "http://tong.visitkorea.or.kr/cms/resource/41/3352041_image2_1.jpg",
    "category": "섬"
  },
  {
    "id": "3026607",
    "title": "개도",
    "address": "전라남도 여수시 화정면 개도리",
    "phone": "",
    "latitude": "34.5697969057",
    "longitude": "127.6657925016",
    "image": "http://tong.visitkorea.or.kr/cms/resource/97/3582097_image2_1.jpg",
    "category": "섬"
  },
  {
    "id": "128920",
    "title": "거금도",
    "address": "전라남도 고흥군 금산면 신촌리",
    "phone": "",
    "latitude": "34.4566346433",
    "longitude": "127.1807154847",
    "image": "http://tong.visitkorea.or.kr/cms/resource/03/3518803_image2_1.jpg",
    "category": "섬"
  },
  {
    "id": "2781820",
    "title": "거북섬",
    "address": "경기도 시흥시 거북섬로 113 (정왕동)",
    "phone": "",
    "latitude": "37.3214690582",
    "longitude": "126.6797384195",
    "image": "http://tong.visitkorea.or.kr/cms/resource/72/3494072_image2_1.jpg",
    "category": "섬"
  },
  {
    "id": "126972",
    "title": "거제도",
    "address": "경상남도 거제시 거제면 거제도",
    "phone": "",
    "latitude": "34.8548244444",
    "longitude": "128.5172414841",
    "image": "http://tong.visitkorea.or.kr/cms/resource/65/1978565_image2_1.jpg",
    "category": "섬"
  },
  {
    "id": "126224",
    "title": "거제도 해금강",
    "address": "경상남도 거제시 남부면 갈곶리",
    "phone": "",
    "latitude": "34.7333354513",
    "longitude": "128.6839246455",
    "image": "http://tong.visitkorea.or.kr/cms/resource/71/3519171_image2_1.jpg",
    "category": "섬"
  },
  {
    "id": "131279",
    "title": "고군산군도",
    "address": "전북특별자치도 군산시 옥도면 대장도리",
    "phone": "",
    "latitude": "35.8168440944",
    "longitude": "126.4712109761",
    "image": "http://tong.visitkorea.or.kr/cms/resource/59/3460059_image2_1.jpg",
    "category": "섬"
  },
  {
    "id": "2752416",
    "title": "고금도",
    "address": "전라남도 완도군 고금면 신장길 31-8",
    "phone": "",
    "latitude": "34.4062510113",
    "longitude": "126.8246284492",
    "image": "http://tong.visitkorea.or.kr/cms/resource/36/2752436_image2_1.JPG",
    "category": "섬"
  },
  {
    "id": "127320",
    "title": "고대도",
    "address": "충청남도 보령시 오천면 고대도1길 1",
    "phone": "",
    "latitude": "36.3879075256",
    "longitude": "126.3668639999",
    "image": "",
    "category": "섬"
  },
  {
    "id": "126706",
    "title": "고파도",
    "address": "충청남도 서산시 팔봉면 고파도2길 10",
    "phone": "",
    "latitude": "36.9107356409",
    "longitude": "126.3359808063",
    "image": "",
    "category": "섬"
  },
  {
    "id": "580302",
    "title": "곽도",
    "address": "전라남도 진도군 조도면 맹골곽도길 23",
    "phone": "",
    "latitude": "34.1974338073",
    "longitude": "125.8592348190",
    "image": "",
    "category": "섬"
  },
  {
    "id": "127549",
    "title": "관매도",
    "address": "전라남도 진도군 조도면 관매도길 71",
    "phone": "",
    "latitude": "34.2411375211",
    "longitude": "126.0520835135",
    "image": "http://tong.visitkorea.or.kr/cms/resource/31/2824531_image2_1.jpg",
    "category": "섬"
  },
  {
    "id": "580311",
    "title": "관사도",
    "address": "전라남도 진도군 조도면 관사도길 20-10",
    "phone": "",
    "latitude": "34.3094980868",
    "longitude": "125.9753331373",
    "image": "",
    "category": "섬"
  },
  {
    "id": "2616077",
    "title": "관음도 (울릉도, 독도 국가지질공원)",
    "address": "경상북도 울릉군 북면 천부리",
    "phone": "",
    "latitude": "37.5429530626",
    "longitude": "130.9207400425",
    "image": "",
    "category": "섬"
  },
  {
    "id": "129228",
    "title": "광대도",
    "address": "전라남도 진도군 조도면 가사도길 42-365",
    "phone": "",
    "latitude": "34.5283755881",
    "longitude": "126.1047277525",
    "image": "",
    "category": "섬"
  },
  {
    "id": "973055",
    "title": "교동도(강화)",
    "address": "인천광역시 강화군 교동면 교동남로 35",
    "phone": "",
    "latitude": "37.7803447584",
    "longitude": "126.2809677323",
    "image": "http://tong.visitkorea.or.kr/cms/resource/53/3304253_image2_1.jpg",
    "category": "섬"
  },
  {
    "id": "3035854",
    "title": "구봉도",
    "address": "경기도 안산시 단원구 대부북동",
    "phone": "",
    "latitude": "37.2807520797",
    "longitude": "126.5511123610",
    "image": "http://tong.visitkorea.or.kr/cms/resource/72/3002672_image2_1.jpg",
    "category": "섬"
  },
  {
    "id": "127134",
    "title": "국화도",
    "address": "경기도 화성시 우정읍 국화길 8",
    "phone": "",
    "latitude": "37.0610776678",
    "longitude": "126.5589898548",
    "image": "",
    "category": "섬"
  },
  {
    "id": "1032715",
    "title": "굴업도",
    "address": "인천광역시 옹진군 덕적면 굴업리",
    "phone": "",
    "latitude": "37.1973520849",
    "longitude": "125.9908073720",
    "image": "http://tong.visitkorea.or.kr/cms/resource/13/3497913_image2_1.jpg",
    "category": "섬"
  },
  {
    "id": "126305",
    "title": "금당도",
    "address": "전라남도 완도군 금당면 금당로 50-1",
    "phone": "",
    "latitude": "34.4298941316",
    "longitude": "127.0712007218",
    "image": "",
    "category": "섬"
  },
  {
    "id": "129414",
    "title": "금오도",
    "address": "전라남도 여수시 남면",
    "phone": "",
    "latitude": "34.5225925094",
    "longitude": "127.7494836083",
    "image": "http://tong.visitkorea.or.kr/cms/resource/74/3572074_image2_1.jpg",
    "category": "섬"
  },
  {
    "id": "580022",
    "title": "금호도",
    "address": "전라남도 진도군 고군면 금호도길 16",
    "phone": "",
    "latitude": "34.4139370856",
    "longitude": "126.3657074533",
    "image": "",
    "category": "섬"
  },
  {
    "id": "2660376",
    "title": "기점·소악도",
    "address": "전라남도 신안군 증도면",
    "phone": "",
    "latitude": "34.9236325314",
    "longitude": "126.1949826186",
    "image": "",
    "category": "섬"
  },
  {
    "id": "577708",
    "title": "낙월도",
    "address": "전라남도 영광군 낙월면 상낙월리",
    "phone": "",
    "latitude": "35.2034806010",
    "longitude": "126.1437720739",
    "image": "",
    "category": "섬"
  },
  {
    "id": "2496315",
    "title": "낭도",
    "address": "전라남도 여수시 화정면",
    "phone": "",
    "latitude": "34.6094126875",
    "longitude": "127.5486434091",
    "image": "http://tong.visitkorea.or.kr/cms/resource/95/3521495_image2_1.jpg",
    "category": "섬"
  },
  {
    "id": "579081",
    "title": "내나로도",
    "address": "전라남도 고흥군 고흥읍",
    "phone": "",
    "latitude": "34.4971686540",
    "longitude": "127.4885070213",
    "image": "http://tong.visitkorea.or.kr/cms/resource/86/3344686_image2_1.JPG",
    "category": "섬"
  },
  {
    "id": "578459",
    "title": "내도",
    "address": "경상남도 거제시 일운면 와현리",
    "phone": "",
    "latitude": "34.7867355868",
    "longitude": "128.7138261918",
    "image": "http://tong.visitkorea.or.kr/cms/resource/42/3576042_image2_1.jpg",
    "category": "섬"
  },
  {
    "id": "580716",
    "title": "내병도",
    "address": "전라남도 진도군 조도면 내병도길 14-2",
    "phone": "",
    "latitude": "34.3750573105",
    "longitude": "125.9696210152",
    "image": "",
    "category": "섬"
  },
  {
    "id": "128105",
    "title": "노도",
    "address": "경상남도 남해군 상주면 노도길 76-16",
    "phone": "",
    "latitude": "34.7273396090",
    "longitude": "127.9406839493",
    "image": "http://tong.visitkorea.or.kr/cms/resource/64/3556464_image2_1.jpg",
    "category": "섬"
  },
  {
    "id": "1390976",
    "title": "노력도",
    "address": "전라남도 장흥군 회진면 노력도1길 215",
    "phone": "",
    "latitude": "34.4649217969",
    "longitude": "126.9663534981",
    "image": "http://tong.visitkorea.or.kr/cms/resource/46/3382046_image2_1.JPG",
    "category": "섬"
  },
  {
    "id": "1510796",
    "title": "노화도",
    "address": "전라남도 완도군 노화읍 노화로 813",
    "phone": "061-550-6261",
    "latitude": "34.1778557959",
    "longitude": "126.5758056867",
    "image": "",
    "category": "섬"
  },
  {
    "id": "127321",
    "title": "녹도",
    "address": "충청남도 보령시 오천면 녹도2길 33-2",
    "phone": "",
    "latitude": "36.2690055630",
    "longitude": "126.2650929107",
    "image": "",
    "category": "섬"
  },
  {
    "id": "2715624",
    "title": "늑도",
    "address": "경상남도 사천시 늑도길 53 (늑도동)",
    "phone": "",
    "latitude": "34.9231305129",
    "longitude": "128.0387342214",
    "image": "http://tong.visitkorea.or.kr/cms/resource/87/3515687_image2_1.jpg",
    "category": "섬"
  },
  {
    "id": "1928421",
    "title": "다려도",
    "address": "제주특별자치도 제주시 조천읍 북촌리",
    "phone": "",
    "latitude": "33.5572322923",
    "longitude": "126.6953319009",
    "image": "http://tong.visitkorea.or.kr/cms/resource/99/3565199_image2_1.jpg",
    "category": "섬"
  },
  {
    "id": "2743841",
    "title": "당남리섬",
    "address": "경기도 여주시 대신면 천서리",
    "phone": "",
    "latitude": "37.3947510587",
    "longitude": "127.5424191369",
    "image": "http://tong.visitkorea.or.kr/cms/resource/61/3540461_image2_1.jpg",
    "category": "섬"
  },
  {
    "id": "126971",
    "title": "당사도",
    "address": "전라남도 완도군 소안면 당사도길 17-19",
    "phone": "",
    "latitude": "34.1046726195",
    "longitude": "126.5956390028",
    "image": "",
    "category": "섬"
  },
  {
    "id": "2540131",
    "title": "대구 하중도 (금호꽃섬)",
    "address": "대구광역시 북구 노곡동 665",
    "phone": "",
    "latitude": "35.9007936200",
    "longitude": "128.5598788398",
    "image": "",
    "category": "섬"
  },
  {
    "id": "575404",
    "title": "대난지도",
    "address": "충청남도 당진시 석문면 난지도리 4-27",
    "phone": "",
    "latitude": "37.0489352608",
    "longitude": "126.4354319609",
    "image": "",
    "category": "섬"
  },
  {
    "id": "2387088",
    "title": "대도",
    "address": "경상남도 하동군 금남면 대도길 122",
    "phone": "",
    "latitude": "34.9319481233",
    "longitude": "127.8322770607",
    "image": "http://tong.visitkorea.or.kr/cms/resource/92/3527992_image2_1.jpg",
    "category": "섬"
  },
  {
    "id": "1560396",
    "title": "대둔도",
    "address": "전라남도 신안군 흑산면 김이수길 57",
    "phone": "",
    "latitude": "34.7290511565",
    "longitude": "125.4642575694",
    "image": "http://tong.visitkorea.or.kr/cms/resource/76/1585276_image2_1.jpg",
    "category": "섬"
  },
  {
    "id": "580729",
    "title": "대마도",
    "address": "전라남도 진도군 조도면",
    "phone": "",
    "latitude": "34.2631425145",
    "longitude": "125.9969989644",
    "image": "",
    "category": "섬"
  },
  {
    "id": "126844",
    "title": "대부도",
    "address": "경기도 안산시 단원구 대부황금로 1531",
    "phone": "",
    "latitude": "37.2437208608",
    "longitude": "126.5852713772",
    "image": "http://tong.visitkorea.or.kr/cms/resource/18/3489718_image2_1.jpg",
    "category": "섬"
  },
  {
    "id": "126700",
    "title": "대이작도",
    "address": "인천광역시 옹진군 자월면 이작리",
    "phone": "",
    "latitude": "37.1749176125",
    "longitude": "126.2587835301",
    "image": "http://tong.visitkorea.or.kr/cms/resource/56/3352556_image2_1.jpg",
    "category": "섬"
  },
  {
    "id": "2860680",
    "title": "대장도",
    "address": "전북특별자치도 군산시 옥도면 대장도리",
    "phone": "",
    "latitude": "35.8181426562",
    "longitude": "126.3945094696",
    "image": "http://tong.visitkorea.or.kr/cms/resource/53/3460053_image2_1.jpg",
    "category": "섬"
  },
  {
    "id": "128012",
    "title": "대청도",
    "address": "인천광역시 옹진군 대청면",
    "phone": "",
    "latitude": "37.8254350630",
    "longitude": "124.7026483977",
    "image": "",
    "category": "섬"
  },
  {
    "id": "2606297",
    "title": "덕적군도",
    "address": "인천광역시 옹진군 덕적면 문갑리",
    "phone": "",
    "latitude": "37.1706405843",
    "longitude": "126.1117803784",
    "image": "",
    "category": "섬"
  },
  {
    "id": "125504",
    "title": "덕적도 갈대 군락지",
    "address": "인천광역시 옹진군 덕적면 덕적북로 130",
    "phone": "",
    "latitude": "37.2276262006",
    "longitude": "126.1446675185",
    "image": "http://tong.visitkorea.or.kr/cms/resource/02/2676402_image2_1.jpg",
    "category": "섬"
  },
  {
    "id": "126969",
    "title": "도초도",
    "address": "전라남도 신안군 도초면 수항리",
    "phone": "",
    "latitude": "34.7036117781",
    "longitude": "125.9534703403",
    "image": "http://tong.visitkorea.or.kr/cms/resource/33/2821533_image2_1.jpg",
    "category": "섬"
  },
  {
    "id": "129625",
    "title": "독대섬",
    "address": "충청남도 보령시 웅천읍 독산리",
    "phone": "",
    "latitude": "36.2197573385",
    "longitude": "126.5280927518",
    "image": "http://tong.visitkorea.or.kr/cms/resource/81/3048081_image2_1.jpg",
    "category": "섬"
  },
  {
    "id": "126106",
    "title": "독도",
    "address": "경상북도 울릉군 울릉읍 독도이사부길 55",
    "phone": "",
    "latitude": "37.2394438998",
    "longitude": "131.8692557526",
    "image": "http://tong.visitkorea.or.kr/cms/resource/16/2653416_image2_1.jpg",
    "category": "섬"
  },
  {
    "id": "126284",
    "title": "돌산도",
    "address": "전라남도 여수시 돌산읍",
    "phone": "",
    "latitude": "34.7148992631",
    "longitude": "127.7769430128",
    "image": "http://tong.visitkorea.or.kr/cms/resource/81/3520981_image2_1.jpg",
    "category": "섬"
  },
  {
    "id": "2661510",
    "title": "동검도(나들길,캠핑,예술극장)",
    "address": "인천광역시 강화군 길상면 동검길63번길 60",
    "phone": "",
    "latitude": "37.5913626272",
    "longitude": "126.5184012196",
    "image": "http://tong.visitkorea.or.kr/cms/resource/07/2661507_image2_1.jpg",
    "category": "섬"
  },
  {
    "id": "2784206",
    "title": "동섬",
    "address": "경상남도 창원시 진해구 경화동",
    "phone": "",
    "latitude": "35.0954373188",
    "longitude": "128.7218255821",
    "image": "http://tong.visitkorea.or.kr/cms/resource/76/3565776_image2_1.jpg",
    "category": "섬"
  },
  {
    "id": "2650452",
    "title": "돝섬(창원)",
    "address": "경상남도 창원시 마산합포구 돝섬2길 58 (월영동)",
    "phone": "",
    "latitude": "35.1789837294",
    "longitude": "128.5811689416",
    "image": "http://tong.visitkorea.or.kr/cms/resource/14/3553514_image2_1.jpg",
    "category": "섬"
  },
  {
    "id": "2614716",
    "title": "두도 (부산 국가지질공원)",
    "address": "부산광역시 서구 암남동",
    "phone": "",
    "latitude": "35.0490923097",
    "longitude": "129.0148985467",
    "image": "",
    "category": "섬"
  },
  {
    "id": "579154",
    "title": "득량도",
    "address": "전라남도 고흥군 도양읍 득량리",
    "phone": "",
    "latitude": "34.6002755145",
    "longitude": "127.0983802841",
    "image": "http://tong.visitkorea.or.kr/cms/resource/56/3581156_image2_1.jpg",
    "category": "섬"
  },
  {
    "id": "126450",
    "title": "마라도",
    "address": "제주특별자치도 서귀포시 대정읍 마라로101번길 46",
    "phone": "",
    "latitude": "33.1186461893",
    "longitude": "126.2671011468",
    "image": "http://tong.visitkorea.or.kr/cms/resource/83/3516583_image2_1.jpg",
    "category": "섬"
  },
  {
    "id": "578216",
    "title": "만재도",
    "address": "전라남도 신안군 흑산면 만재도길 36-8",
    "phone": "",
    "latitude": "34.2085347957",
    "longitude": "125.4684245732",
    "image": "http://tong.visitkorea.or.kr/cms/resource/21/2824121_image2_1.jpg",
    "category": "섬"
  },
  {
    "id": "2387093",
    "title": "만지도",
    "address": "경상남도 통영시 산양읍 저림리",
    "phone": "",
    "latitude": "34.7400376455",
    "longitude": "128.3826228799",
    "image": "http://tong.visitkorea.or.kr/cms/resource/83/3558483_image2_1.jpg",
    "category": "섬"
  },
  {
    "id": "126087",
    "title": "매물도",
    "address": "경상남도 통영시 한산면 매죽리",
    "phone": "",
    "latitude": "34.6401355140",
    "longitude": "128.5726228680",
    "image": "",
    "category": "섬"
  },
  {
    "id": "3077084",
    "title": "맴섬",
    "address": "전라남도 해남군 송지면 땅끝마을길 111",
    "phone": "",
    "latitude": "34.2984887873",
    "longitude": "126.5297763212",
    "image": "",
    "category": "섬"
  },
  {
    "id": "580035",
    "title": "맹골도",
    "address": "전라남도 진도군 조도면 맹골도길 14-4",
    "phone": "",
    "latitude": "34.2164538122",
    "longitude": "125.8537126487",
    "image": "",
    "category": "섬"
  },
  {
    "id": "3035853",
    "title": "메추리섬",
    "address": "경기도 안산시 단원구 대부남동",
    "phone": "",
    "latitude": "37.2034497135",
    "longitude": "126.5386128348",
    "image": "http://tong.visitkorea.or.kr/cms/resource/57/3002657_image2_1.jpg",
    "category": "섬"
  },
  {
    "id": "3043298",
    "title": "명선도",
    "address": "울산광역시 울주군 서생면 진하리",
    "phone": "",
    "latitude": "35.3859413693",
    "longitude": "129.3507294877",
    "image": "http://tong.visitkorea.or.kr/cms/resource/09/3534609_image2_1.jpg",
    "category": "섬"
  },
  {
    "id": "580069",
    "title": "모도",
    "address": "전라남도 진도군 의신면 모도길 12-3",
    "phone": "",
    "latitude": "34.4075626367",
    "longitude": "126.3556307120",
    "image": "http://tong.visitkorea.or.kr/cms/resource/27/3572127_image2_1.JPG",
    "category": "섬"
  },
  {
    "id": "128195",
    "title": "목도",
    "address": "울산광역시 울주군 온산읍 당목길",
    "phone": "",
    "latitude": "35.4490509773",
    "longitude": "129.3519859423",
    "image": "http://tong.visitkorea.or.kr/cms/resource/51/3043051_image2_1.jpg",
    "category": "섬"
  },
  {
    "id": "2768083",
    "title": "목섬",
    "address": "인천광역시 옹진군 영흥면 선재리",
    "phone": "",
    "latitude": "37.2289522101",
    "longitude": "126.5327126753",
    "image": "http://tong.visitkorea.or.kr/cms/resource/64/3517564_image2_1.jpg",
    "category": "섬"
  },
  {
    "id": "126292",
    "title": "무녀도",
    "address": "전북특별자치도 군산시 옥도면 무녀도리",
    "phone": "",
    "latitude": "35.7996423796",
    "longitude": "126.4178106318",
    "image": "http://tong.visitkorea.or.kr/cms/resource/51/3556451_image2_1.jpg",
    "category": "섬"
  },
  {
    "id": "126797",
    "title": "무의도",
    "address": "인천광역시 중구 대무의로 310-11",
    "phone": "",
    "latitude": "37.3893400446",
    "longitude": "126.4249153348",
    "image": "http://tong.visitkorea.or.kr/cms/resource/95/3532995_image2_1.jpg",
    "category": "섬"
  },
  {
    "id": "580000",
    "title": "미덕도",
    "address": "전라남도 고흥군 과역면 백일길 63-118",
    "phone": "",
    "latitude": "34.7114461999",
    "longitude": "127.4151192056",
    "image": "http://tong.visitkorea.or.kr/cms/resource/56/3581556_image2_1.jpg",
    "category": "섬"
  },
  {
    "id": "127042",
    "title": "미륵도",
    "address": "경상남도 통영시 산양읍 남평리",
    "phone": "",
    "latitude": "34.7976365369",
    "longitude": "128.3698224893",
    "image": "http://tong.visitkorea.or.kr/cms/resource/95/3580495_image2_1.jpg",
    "category": "섬"
  },
  {
    "id": "3351160",
    "title": "민어도",
    "address": "충청남도 태안군 원북면 방갈리",
    "phone": "",
    "latitude": "36.8935606772",
    "longitude": "126.2222499206",
    "image": "http://tong.visitkorea.or.kr/cms/resource/84/3351084_image2_1.jpg",
    "category": "섬"
  },
  {
    "id": "578024",
    "title": "반월도·박지도",
    "address": "전라남도 신안군 안좌면",
    "phone": "",
    "latitude": "34.7102163582",
    "longitude": "126.1118228426",
    "image": "http://tong.visitkorea.or.kr/cms/resource/75/2662675_image2_1.jpg",
    "category": "섬"
  },
  {
    "id": "753983",
    "title": "반포 서래섬",
    "address": "서울특별시 서초구 반포동",
    "phone": "",
    "latitude": "37.5078529299",
    "longitude": "126.9896161124",
    "image": "http://tong.visitkorea.or.kr/cms/resource/23/3515023_image2_1.jpg",
    "category": "섬"
  },
  {
    "id": "126296",
    "title": "방축도",
    "address": "전북특별자치도 군산시 옥도면 방축도1길 13-1",
    "phone": "",
    "latitude": "35.8506858425",
    "longitude": "126.3753048086",
    "image": "",
    "category": "섬"
  },
  {
    "id": "125505",
    "title": "백령도",
    "address": "인천광역시 옹진군 백령면 북포리",
    "phone": "",
    "latitude": "37.9644571889",
    "longitude": "124.6766833179",
    "image": "http://tong.visitkorea.or.kr/cms/resource/45/3497845_image2_1.jpg",
    "category": "섬"
  },
  {
    "id": "579610",
    "title": "백일도",
    "address": "전라남도 고흥군 과역면 백일리",
    "phone": "",
    "latitude": "34.6936374760",
    "longitude": "127.4380176459",
    "image": "http://tong.visitkorea.or.kr/cms/resource/38/3519038_image2_1.jpg",
    "category": "섬"
  },
  {
    "id": "131105",
    "title": "병풍도",
    "address": "전라남도 신안군 증도면 병풍리",
    "phone": "",
    "latitude": "34.9669195282",
    "longitude": "126.2083831684",
    "image": "http://tong.visitkorea.or.kr/cms/resource/27/3560827_image2_1.jpg",
    "category": "섬"
  },
  {
    "id": "127652",
    "title": "보길도",
    "address": "전라남도 완도군 보길면",
    "phone": "",
    "latitude": "34.1569795114",
    "longitude": "126.5241662550",
    "image": "http://tong.visitkorea.or.kr/cms/resource/07/3495007_image2_1.jpg",
    "category": "섬"
  },
  {
    "id": "127043",
    "title": "볼음도",
    "address": "인천광역시 강화군 서도면 볼음도길 226",
    "phone": "",
    "latitude": "37.6708754253",
    "longitude": "126.1917150606",
    "image": "http://tong.visitkorea.or.kr/cms/resource/21/3522521_image2_1.jpg",
    "category": "섬"
  },
  {
    "id": "2637838",
    "title": "부안 솔섬",
    "address": "전북특별자치도 부안군 변산면 도청리",
    "phone": "",
    "latitude": "35.5917422071",
    "longitude": "126.4865125194",
    "image": "http://tong.visitkorea.or.kr/cms/resource/56/3520256_image2_1.jpg",
    "category": "섬"
  },
  {
    "id": "128101",
    "title": "붕어섬&황톳길",
    "address": "강원특별자치도 화천군 화천읍 강변로 2-54",
    "phone": "",
    "latitude": "38.1007385507",
    "longitude": "127.6970121290",
    "image": "http://tong.visitkorea.or.kr/cms/resource/41/3484941_image2_1.JPG",
    "category": "섬"
  },
  {
    "id": "126821",
    "title": "비금도",
    "address": "전라남도 신안군 비금면 죽림리",
    "phone": "",
    "latitude": "34.7337443661",
    "longitude": "125.9455258903",
    "image": "http://tong.visitkorea.or.kr/cms/resource/89/3572089_image2_1.jpg",
    "category": "섬"
  },
  {
    "id": "127881",
    "title": "비안도",
    "address": "전북특별자치도 군산시 옥도면 비안도길 79-1",
    "phone": "",
    "latitude": "35.7368224360",
    "longitude": "126.4579114143",
    "image": "",
    "category": "섬"
  },
  {
    "id": "127529",
    "title": "비양도",
    "address": "제주특별자치도 제주시 한림읍 협재리",
    "phone": "",
    "latitude": "33.4096328399",
    "longitude": "126.2257094042",
    "image": "http://tong.visitkorea.or.kr/cms/resource/98/3556298_image2_1.jpg",
    "category": "섬"
  },
  {
    "id": "127106",
    "title": "비진도",
    "address": "경상남도 통영시 한산면",
    "phone": "",
    "latitude": "34.7105311625",
    "longitude": "128.4575060263",
    "image": "http://tong.visitkorea.or.kr/cms/resource/02/3557702_image2_1.jpg",
    "category": "섬"
  },
  {
    "id": "2371675",
    "title": "비토섬",
    "address": "경상남도 사천시 서포면 비토안길 104-16",
    "phone": "055-835-1023",
    "latitude": "34.9749735376",
    "longitude": "127.9728330850",
    "image": "http://tong.visitkorea.or.kr/cms/resource/50/3515550_image2_1.jpg",
    "category": "섬"
  },
  {
    "id": "126968",
    "title": "사도",
    "address": "전라남도 여수시 화정면 사도길 8-1",
    "phone": "",
    "latitude": "34.5927341170",
    "longitude": "127.5556321046",
    "image": "http://tong.visitkorea.or.kr/cms/resource/90/3580290_image2_1.jpg",
    "category": "섬"
  },
  {
    "id": "126832",
    "title": "사량도",
    "address": "경상남도 통영시 사량면 진촌2길",
    "phone": "",
    "latitude": "34.8453868658",
    "longitude": "128.2198454264",
    "image": "http://tong.visitkorea.or.kr/cms/resource/36/3580036_image2_1.jpg",
    "category": "섬"
  },
  {
    "id": "579169",
    "title": "사양도",
    "address": "전라남도 고흥군 봉래면 사양리",
    "phone": "",
    "latitude": "34.4746342731",
    "longitude": "127.4422171791",
    "image": "http://tong.visitkorea.or.kr/cms/resource/58/3518958_image2_1.jpg",
    "category": "섬"
  },
  {
    "id": "2755712",
    "title": "산달도",
    "address": "경상남도 거제시 거제면 산달길 387-17",
    "phone": "",
    "latitude": "34.8326854210",
    "longitude": "128.5266356954",
    "image": "http://tong.visitkorea.or.kr/cms/resource/38/2755738_image2_1.jpg",
    "category": "섬"
  },
  {
    "id": "127550",
    "title": "삼학도",
    "address": "전라남도 목포시 삼학로92번길",
    "phone": "",
    "latitude": "34.7820933627",
    "longitude": "126.3913686456",
    "image": "http://tong.visitkorea.or.kr/cms/resource/15/3521515_image2_1.jpg",
    "category": "섬"
  },
  {
    "id": "2614630",
    "title": "삼형제굴바위 (울릉도, 독도 국가지질공원)",
    "address": "경상북도 울릉군 울릉읍 독도리",
    "phone": "",
    "latitude": "37.2425768392",
    "longitude": "131.8674780248",
    "image": "http://tong.visitkorea.or.kr/cms/resource/29/2614629_image2_1.bmp",
    "category": "섬"
  },
  {
    "id": "125844",
    "title": "삽시도",
    "address": "충청남도 보령시 오천면 삽시도",
    "phone": "",
    "latitude": "36.3400739524",
    "longitude": "126.3564300711",
    "image": "",
    "category": "섬"
  },
  {
    "id": "575857",
    "title": "상조도",
    "address": "전라남도 진도군 조도면 조도대로 1298",
    "phone": "",
    "latitude": "34.3316879939",
    "longitude": "126.0211063709",
    "image": "http://tong.visitkorea.or.kr/cms/resource/42/195542_image2_1.jpg",
    "category": "섬"
  },
  {
    "id": "579637",
    "title": "상화도(고흥)",
    "address": "전라남도 고흥군 도양읍 상화도길",
    "phone": "",
    "latitude": "34.5027761595",
    "longitude": "127.1483088572",
    "image": "http://tong.visitkorea.or.kr/cms/resource/48/3581548_image2_1.jpg",
    "category": "섬"
  },
  {
    "id": "577741",
    "title": "생일도",
    "address": "전라남도 완도군 생일면",
    "phone": "",
    "latitude": "34.3241877827",
    "longitude": "126.9813889204",
    "image": "",
    "category": "섬"
  },
  {
    "id": "580758",
    "title": "서거차도",
    "address": "전라남도 진도군 조도면 서거차도1길",
    "phone": "",
    "latitude": "34.2485399111",
    "longitude": "125.9047074247",
    "image": "http://tong.visitkorea.or.kr/cms/resource/07/3563107_image2_1.jpg",
    "category": "섬"
  },
  {
    "id": "1936039",
    "title": "서건도",
    "address": "제주특별자치도 서귀포시 강정동",
    "phone": "",
    "latitude": "33.2540292433",
    "longitude": "126.4927119133",
    "image": "http://tong.visitkorea.or.kr/cms/resource/36/3026836_image2_1.jpg",
    "category": "섬"
  },
  {
    "id": "129613",
    "title": "석대도",
    "address": "충청남도 보령시 웅천읍 관당리",
    "phone": "",
    "latitude": "36.2445432536",
    "longitude": "126.5202705884",
    "image": "http://tong.visitkorea.or.kr/cms/resource/15/217515_image2_1.jpg",
    "category": "섬"
  },
  {
    "id": "127801",
    "title": "석모도",
    "address": "인천광역시 강화군 삼산면 석모리",
    "phone": "",
    "latitude": "37.6933980801",
    "longitude": "126.3670955747",
    "image": "http://tong.visitkorea.or.kr/cms/resource/00/3523000_image2_1.jpg",
    "category": "섬"
  },
  {
    "id": "2713525",
    "title": "선도",
    "address": "전라남도 신안군 지도읍 선도길 74-2",
    "phone": "",
    "latitude": "34.9816466069",
    "longitude": "126.2674025823",
    "image": "",
    "category": "섬"
  },
  {
    "id": "226923",
    "title": "선유도",
    "address": "전북특별자치도 군산시 옥도면 선유남길 34-22",
    "phone": "",
    "latitude": "35.8102049733",
    "longitude": "126.4124052922",
    "image": "http://tong.visitkorea.or.kr/cms/resource/11/3362711_image2_1.JPG",
    "category": "섬"
  },
  {
    "id": "127851",
    "title": "선재도(선재도 어촌체험마을)",
    "address": "인천광역시 옹진군 영흥면 선재로 5",
    "phone": "",
    "latitude": "37.2329629349",
    "longitude": "126.5372399316",
    "image": "http://tong.visitkorea.or.kr/cms/resource/84/3302884_image2_1.jpg",
    "category": "섬"
  },
  {
    "id": "580768",
    "title": "성남도",
    "address": "전라남도 진도군 조도면 성남도길",
    "phone": "",
    "latitude": "34.4006778523",
    "longitude": "126.0445804813",
    "image": "",
    "category": "섬"
  },
  {
    "id": "2547987",
    "title": "세어도",
    "address": "인천광역시 서구 세어로 29",
    "phone": "",
    "latitude": "37.5725962200",
    "longitude": "126.5668056488",
    "image": "",
    "category": "섬"
  },
  {
    "id": "2608578",
    "title": "소도",
    "address": "충청남도 보령시 오천면",
    "phone": "",
    "latitude": "36.3992962702",
    "longitude": "126.4352158772",
    "image": "http://tong.visitkorea.or.kr/cms/resource/72/2608572_image2_1.jpg",
    "category": "섬"
  },
  {
    "id": "2514005",
    "title": "소등섬",
    "address": "전라남도 장흥군 용산면 상발리 산225",
    "phone": "",
    "latitude": "34.6046206793",
    "longitude": "127.0047356151",
    "image": "http://tong.visitkorea.or.kr/cms/resource/70/3303270_image2_1.jpg",
    "category": "섬"
  },
  {
    "id": "126285",
    "title": "소록도",
    "address": "전라남도 고흥군 도양읍 소록리",
    "phone": "",
    "latitude": "34.5191601047",
    "longitude": "127.1284907471",
    "image": "http://tong.visitkorea.or.kr/cms/resource/90/3522090_image2_1.jpg",
    "category": "섬"
  },
  {
    "id": "575784",
    "title": "소매물도",
    "address": "경상남도 통영시 한산면 매죽리",
    "phone": "",
    "latitude": "34.6271365702",
    "longitude": "128.5506251169",
    "image": "http://tong.visitkorea.or.kr/cms/resource/14/3495214_image2_1.jpg",
    "category": "섬"
  },
  {
    "id": "3082861",
    "title": "소삼도",
    "address": "전라남도 진도군 의신면 초사리",
    "phone": "",
    "latitude": "34.3953357775",
    "longitude": "126.3277112337",
    "image": "http://tong.visitkorea.or.kr/cms/resource/43/3082843_image2_1.jpg",
    "category": "섬"
  },
  {
    "id": "575754",
    "title": "소안도",
    "address": "전라남도 완도군 소안면",
    "phone": "",
    "latitude": "34.1492990433",
    "longitude": "126.6477111747",
    "image": "",
    "category": "섬"
  },
  {
    "id": "2782222",
    "title": "소야도",
    "address": "인천광역시 옹진군 덕적면 소야리",
    "phone": "",
    "latitude": "37.2190498418",
    "longitude": "126.1693099453",
    "image": "http://tong.visitkorea.or.kr/cms/resource/60/3511460_image2_1.jpg",
    "category": "섬"
  },
  {
    "id": "126801",
    "title": "소이작도",
    "address": "인천광역시 옹진군 자월면 이작리",
    "phone": "032-899-3750",
    "latitude": "37.1829746279",
    "longitude": "126.2364908998",
    "image": "http://tong.visitkorea.or.kr/cms/resource/15/3511315_image2_1.jpg",
    "category": "섬"
  },
  {
    "id": "127694",
    "title": "소청도",
    "address": "인천광역시 옹진군 대청면 소청리",
    "phone": "",
    "latitude": "37.7724920871",
    "longitude": "124.7523590414",
    "image": "http://tong.visitkorea.or.kr/cms/resource/72/3511172_image2_1.jpg",
    "category": "섬"
  },
  {
    "id": "2608671",
    "title": "소쿠리섬",
    "address": "경상남도 창원시 진해구 명동",
    "phone": "",
    "latitude": "35.0811387211",
    "longitude": "128.7108241484",
    "image": "http://tong.visitkorea.or.kr/cms/resource/58/3522258_image2_1.jpg",
    "category": "섬"
  },
  {
    "id": "2024407",
    "title": "손죽도",
    "address": "전라남도 여수시 삼산면 손죽길 7",
    "phone": "",
    "latitude": "34.2902784788",
    "longitude": "127.3612482313",
    "image": "http://tong.visitkorea.or.kr/cms/resource/15/3549115_image2_1.JPG",
    "category": "섬"
  },
  {
    "id": "129230",
    "title": "송도",
    "address": "전라남도 진도군 조도면 가사도리",
    "phone": "",
    "latitude": "34.5194403395",
    "longitude": "126.0959176283",
    "image": "",
    "category": "섬"
  },
  {
    "id": "1382445",
    "title": "송이도",
    "address": "전라남도 영광군 낙월면 송이리",
    "phone": "",
    "latitude": "35.2830632650",
    "longitude": "126.1449561434",
    "image": "",
    "category": "섬"
  },
  {
    "id": "579674",
    "title": "수락도",
    "address": "전라남도 고흥군 봉래면 모래금길 375-3",
    "phone": "",
    "latitude": "34.4809384381",
    "longitude": "127.4018372177",
    "image": "http://tong.visitkorea.or.kr/cms/resource/74/3581574_image2_1.jpg",
    "category": "섬"
  },
  {
    "id": "127109",
    "title": "수우도",
    "address": "경상남도 통영시 사량면",
    "phone": "",
    "latitude": "34.8305064416",
    "longitude": "128.1330728293",
    "image": "",
    "category": "섬"
  },
  {
    "id": "1395618",
    "title": "슬도",
    "address": "울산광역시 동구 방어동 산5-3",
    "phone": "",
    "latitude": "35.4782269725",
    "longitude": "129.4312671042",
    "image": "http://tong.visitkorea.or.kr/cms/resource/01/3522901_image2_1.jpg",
    "category": "섬"
  },
  {
    "id": "2496314",
    "title": "승봉도",
    "address": "인천광역시 옹진군 자월면 승봉리",
    "phone": "",
    "latitude": "37.1665472227",
    "longitude": "126.3087319826",
    "image": "http://tong.visitkorea.or.kr/cms/resource/94/3350994_image2_1.jpg",
    "category": "섬"
  },
  {
    "id": "579199",
    "title": "시산도",
    "address": "전라남도 고흥군 도양읍 시산리 178-8",
    "phone": "",
    "latitude": "34.3893684711",
    "longitude": "127.2586769819",
    "image": "http://tong.visitkorea.or.kr/cms/resource/95/3581495_image2_1.jpg",
    "category": "섬"
  },
  {
    "id": "2024440",
    "title": "시호도",
    "address": "전라남도 고흥군 동일면 덕흥리",
    "phone": "",
    "latitude": "34.5426128740",
    "longitude": "127.4473928167",
    "image": "http://tong.visitkorea.or.kr/cms/resource/22/3581022_image2_1.jpg",
    "category": "섬"
  },
  {
    "id": "577932",
    "title": "신도(신안)",
    "address": "전라남도 신안군 하의면 신도길 163",
    "phone": "",
    "latitude": "34.5881640069",
    "longitude": "125.9748406000",
    "image": "",
    "category": "섬"
  },
  {
    "id": "2387327",
    "title": "신수도",
    "address": "경상남도 사천시 신수서길 1-46",
    "phone": "",
    "latitude": "34.9039249695",
    "longitude": "128.0748787827",
    "image": "http://tong.visitkorea.or.kr/cms/resource/16/2387516_image2_1.jpg",
    "category": "섬"
  },
  {
    "id": "126293",
    "title": "신시도 어촌체험마을",
    "address": "전북특별자치도 군산시 옥도면 신시도길 83-7",
    "phone": "",
    "latitude": "35.8209518987",
    "longitude": "126.4676111936",
    "image": "",
    "category": "섬"
  },
  {
    "id": "2024639",
    "title": "신시모도 (신도ㆍ시도ㆍ모도)",
    "address": "인천광역시 옹진군 북도면",
    "phone": "",
    "latitude": "37.5338426900",
    "longitude": "126.4253141031",
    "image": "http://tong.visitkorea.or.kr/cms/resource/40/3497840_image2_1.jpg",
    "category": "섬"
  },
  {
    "id": "127765",
    "title": "신의도",
    "address": "전라남도 신안군 신의면 신의로 661",
    "phone": "",
    "latitude": "34.5848356472",
    "longitude": "126.0884611967",
    "image": "",
    "category": "섬"
  },
  {
    "id": "125851",
    "title": "신진도",
    "address": "충청남도 태안군 근흥면 신진도리",
    "phone": "",
    "latitude": "36.6764899198",
    "longitude": "126.1410935471",
    "image": "http://tong.visitkorea.or.kr/cms/resource/84/3346784_image2_1.jpg",
    "category": "섬"
  },
  {
    "id": "2387080",
    "title": "실리도",
    "address": "경상남도 창원시 마산합포구 구산면 실리섬길 25",
    "phone": "",
    "latitude": "35.0637837716",
    "longitude": "128.6370449348",
    "image": "http://tong.visitkorea.or.kr/cms/resource/70/3522270_image2_1.jpg",
    "category": "섬"
  },
  {
    "id": "2767625",
    "title": "실미도",
    "address": "인천광역시 중구 무의동",
    "phone": "",
    "latitude": "37.4008020150",
    "longitude": "126.3912903135",
    "image": "http://tong.visitkorea.or.kr/cms/resource/30/3518130_image2_1.jpg",
    "category": "섬"
  },
  {
    "id": "3031315",
    "title": "쌀조개섬",
    "address": "충청남도 아산시 영인면 창용리",
    "phone": "",
    "latitude": "36.9223677979",
    "longitude": "126.9828274704",
    "image": "http://tong.visitkorea.or.kr/cms/resource/10/3031310_image2_1.jpg",
    "category": "섬"
  },
  {
    "id": "2781446",
    "title": "아라빛섬",
    "address": "인천광역시 서구 오류동",
    "phone": "",
    "latitude": "37.5927530419",
    "longitude": "126.6141118748",
    "image": "http://tong.visitkorea.or.kr/cms/resource/96/3395796_image2_1.JPG",
    "category": "섬"
  },
  {
    "id": "1382503",
    "title": "안마도",
    "address": "전라남도 영광군 낙월면 안마도",
    "phone": "",
    "latitude": "35.3463597205",
    "longitude": "126.0277789301",
    "image": "",
    "category": "섬"
  },
  {
    "id": "125850",
    "title": "안면도",
    "address": "충청남도 태안군 안면읍 장터로 149",
    "phone": "",
    "latitude": "36.5207279866",
    "longitude": "126.3444847769",
    "image": "http://tong.visitkorea.or.kr/cms/resource/75/2426575_image2_1.jpg",
    "category": "섬"
  },
  {
    "id": "127762",
    "title": "안좌도",
    "address": "전라남도 신안군 안좌면 중부로 872",
    "phone": "",
    "latitude": "34.7561225049",
    "longitude": "126.1246539535",
    "image": "",
    "category": "섬"
  },
  {
    "id": "127758",
    "title": "암태도",
    "address": "전라남도 신안군 암태면 장단고길 7-63",
    "phone": "",
    "latitude": "34.8268115588",
    "longitude": "126.1123200313",
    "image": "http://tong.visitkorea.or.kr/cms/resource/96/3558996_image2_1.jpg",
    "category": "섬"
  },
  {
    "id": "127760",
    "title": "압해도",
    "address": "전라남도 신안군 압해읍 천사로 1004",
    "phone": "",
    "latitude": "34.8336091232",
    "longitude": "126.3511542937",
    "image": "http://tong.visitkorea.or.kr/cms/resource/05/1245605_image2_1.jpg",
    "category": "섬"
  },
  {
    "id": "126294",
    "title": "야미도",
    "address": "전북특별자치도 군산시 옥도면 야미도리",
    "phone": "",
    "latitude": "35.8483020621",
    "longitude": "126.4975855957",
    "image": "http://tong.visitkorea.or.kr/cms/resource/82/3556482_image2_1.jpg",
    "category": "섬"
  },
  {
    "id": "2824813",
    "title": "약산도(조약도)",
    "address": "전라남도 완도군 약산면 장용리",
    "phone": "",
    "latitude": "34.3865351126",
    "longitude": "126.9056134944",
    "image": "http://tong.visitkorea.or.kr/cms/resource/88/3382688_image2_1.JPG",
    "category": "섬"
  },
  {
    "id": "2913878",
    "title": "양구꽃섬",
    "address": "강원특별자치도 양구군 양구읍 함춘로 116",
    "phone": "",
    "latitude": "38.1183725506",
    "longitude": "127.9890349552",
    "image": "http://tong.visitkorea.or.kr/cms/resource/02/2921402_image2_1.jpg",
    "category": "섬"
  },
  {
    "id": "129227",
    "title": "양덕도(발가락섬)",
    "address": "전라남도 진도군 조도면 가사도길 42-204",
    "phone": "",
    "latitude": "34.4937294819",
    "longitude": "126.1048285553",
    "image": "",
    "category": "섬"
  },
  {
    "id": "2766859",
    "title": "양섬",
    "address": "경기도 여주시 여주북로 238 (하동)",
    "phone": "",
    "latitude": "37.3054405896",
    "longitude": "127.6200230151",
    "image": "http://tong.visitkorea.or.kr/cms/resource/43/3539743_image2_1.jpg",
    "category": "섬"
  },
  {
    "id": "126297",
    "title": "어청도",
    "address": "전북특별자치도 군산시 옥도면 어청도길 95-7",
    "phone": "",
    "latitude": "36.1206733463",
    "longitude": "125.9792029907",
    "image": "",
    "category": "섬"
  },
  {
    "id": "2548267",
    "title": "여서도(완도)",
    "address": "전라남도 완도군 청산면 여서도길 15",
    "phone": "",
    "latitude": "33.9866161191",
    "longitude": "126.9231687364",
    "image": "",
    "category": "섬"
  },
  {
    "id": "128163",
    "title": "여수 백도",
    "address": "전라남도 여수시 삼산면 거문리",
    "phone": "",
    "latitude": "34.0555333413",
    "longitude": "127.5827180307",
    "image": "http://tong.visitkorea.or.kr/cms/resource/43/3548943_image2_1.JPG",
    "category": "섬"
  },
  {
    "id": "126600",
    "title": "연대도",
    "address": "경상남도 통영시 산양읍 연곡리",
    "phone": "",
    "latitude": "34.7341358627",
    "longitude": "128.4015241672",
    "image": "http://tong.visitkorea.or.kr/cms/resource/56/3558456_image2_1.jpg",
    "category": "섬"
  },
  {
    "id": "126298",
    "title": "연도",
    "address": "전북특별자치도 군산시 옥도면 연도1길 18-3",
    "phone": "",
    "latitude": "36.0830880685",
    "longitude": "126.4348490986",
    "image": "",
    "category": "섬"
  },
  {
    "id": "2387053",
    "title": "연도(여수)",
    "address": "전라남도 여수시 남면 연도리",
    "phone": "",
    "latitude": "34.4367446659",
    "longitude": "127.8022783877",
    "image": "http://tong.visitkorea.or.kr/cms/resource/27/3580327_image2_1.jpg",
    "category": "섬"
  },
  {
    "id": "127412",
    "title": "연평도",
    "address": "인천광역시 옹진군 연평면 연평중앙로24번길 3",
    "phone": "",
    "latitude": "37.6649371493",
    "longitude": "125.7020074536",
    "image": "http://tong.visitkorea.or.kr/cms/resource/14/3350914_image2_1.jpg",
    "category": "섬"
  },
  {
    "id": "579414",
    "title": "연홍도",
    "address": "전라남도 고흥군 금산면",
    "phone": "",
    "latitude": "34.4578746712",
    "longitude": "127.0912649495",
    "image": "",
    "category": "섬"
  },
  {
    "id": "127103",
    "title": "연화도(통영)",
    "address": "경상남도 통영시 욕지면 연화도",
    "phone": "",
    "latitude": "34.6451838388",
    "longitude": "128.3540722764",
    "image": "",
    "category": "섬"
  },
  {
    "id": "1560382",
    "title": "영산도",
    "address": "전라남도 신안군 흑산면 영산길 21",
    "phone": "",
    "latitude": "34.6519487826",
    "longitude": "125.4666146851",
    "image": "http://tong.visitkorea.or.kr/cms/resource/53/1585353_image2_1.jpg",
    "category": "섬"
  },
  {
    "id": "125501",
    "title": "영종도",
    "address": "인천광역시 중구 운남서로 100",
    "phone": "",
    "latitude": "37.4942297169",
    "longitude": "126.5315138256",
    "image": "http://tong.visitkorea.or.kr/cms/resource/46/3352746_image2_1.jpg",
    "category": "섬"
  },
  {
    "id": "127629",
    "title": "영흥도",
    "address": "인천광역시 옹진군 영흥면 영흥로 294",
    "phone": "",
    "latitude": "37.2561176156",
    "longitude": "126.4818137900",
    "image": "http://tong.visitkorea.or.kr/cms/resource/11/2716511_image2_1.jpg",
    "category": "섬"
  },
  {
    "id": "126088",
    "title": "오륙도 (부산 국가지질공원)",
    "address": "부산광역시 남구 오륙도로 137",
    "phone": "",
    "latitude": "35.0920423481",
    "longitude": "129.1269487495",
    "image": "http://tong.visitkorea.or.kr/cms/resource/20/3496820_image2_1.jpg",
    "category": "섬"
  },
  {
    "id": "128109",
    "title": "오이도",
    "address": "경기도 시흥시 오이도로 170 (정왕동)",
    "phone": "031-310-2332,2901~4",
    "latitude": "37.3455941734",
    "longitude": "126.6875064898",
    "image": "http://tong.visitkorea.or.kr/cms/resource/09/3505209_image2_1.jpg",
    "category": "섬"
  },
  {
    "id": "579088",
    "title": "외나로도",
    "address": "전라남도 고흥군 봉래면 신금리",
    "phone": "",
    "latitude": "34.4499351722",
    "longitude": "127.4962186321",
    "image": "http://tong.visitkorea.or.kr/cms/resource/27/3518927_image2_1.jpg",
    "category": "섬"
  },
  {
    "id": "128292",
    "title": "외달도",
    "address": "전라남도 목포시 외달도길 72",
    "phone": "",
    "latitude": "34.7817112990",
    "longitude": "126.2963937134",
    "image": "http://tong.visitkorea.or.kr/cms/resource/11/2497011_image2_1.jpeg",
    "category": "섬"
  },
  {
    "id": "125853",
    "title": "외연도",
    "address": "충청남도 보령시 오천면 외연도리",
    "phone": "",
    "latitude": "36.2285460240",
    "longitude": "126.0823076346",
    "image": "http://tong.visitkorea.or.kr/cms/resource/77/3494877_image2_1.jpg",
    "category": "섬"
  },
  {
    "id": "127102",
    "title": "욕지도",
    "address": "경상남도 통영시 욕지면 동항리",
    "phone": "",
    "latitude": "34.6357358207",
    "longitude": "128.2494232888",
    "image": "",
    "category": "섬"
  },
  {
    "id": "126798",
    "title": "용유도",
    "address": "인천광역시 중구 을왕동",
    "phone": "",
    "latitude": "37.4237526538",
    "longitude": "126.4216119153",
    "image": "http://tong.visitkorea.or.kr/cms/resource/64/3518664_image2_1.jpg",
    "category": "섬"
  },
  {
    "id": "127879",
    "title": "용호도",
    "address": "경상남도 통영시 한산면 용호리",
    "phone": "",
    "latitude": "34.7415005045",
    "longitude": "128.4898468483",
    "image": "http://tong.visitkorea.or.kr/cms/resource/10/3580310_image2_1.jpg",
    "category": "섬"
  },
  {
    "id": "127336",
    "title": "우도",
    "address": "제주특별자치도 제주시 삼양고수물길 1",
    "phone": "",
    "latitude": "33.5195017100",
    "longitude": "126.9510300250",
    "image": "http://tong.visitkorea.or.kr/cms/resource/71/3554771_image2_1.jpg",
    "category": "섬"
  },
  {
    "id": "579418",
    "title": "우도(고흥)",
    "address": "전라남도 고흥군 남양면 우도길",
    "phone": "",
    "latitude": "34.7236652661",
    "longitude": "127.3103086429",
    "image": "http://tong.visitkorea.or.kr/cms/resource/73/3581473_image2_1.jpg",
    "category": "섬"
  },
  {
    "id": "587045",
    "title": "우도(서산)",
    "address": "충청남도 서산시 지곡면 도성마동길",
    "phone": "",
    "latitude": "36.8774850449",
    "longitude": "126.4009091367",
    "image": "",
    "category": "섬"
  },
  {
    "id": "127104",
    "title": "우도(통영)",
    "address": "경상남도 통영시 욕지면 연화리",
    "phone": "",
    "latitude": "34.6597792936",
    "longitude": "128.3462531331",
    "image": "",
    "category": "섬"
  },
  {
    "id": "2515730",
    "title": "우음도",
    "address": "경기도 화성시 송산면 고정리",
    "phone": "",
    "latitude": "37.2870518725",
    "longitude": "126.7390145317",
    "image": "http://tong.visitkorea.or.kr/cms/resource/36/3551736_image2_1.jpg",
    "category": "섬"
  },
  {
    "id": "126640",
    "title": "우이도",
    "address": "전라남도 신안군 도초면 우이진리길 47-9",
    "phone": "",
    "latitude": "34.6185641995",
    "longitude": "125.8530978775",
    "image": "http://tong.visitkorea.or.kr/cms/resource/35/3572135_image2_1.jpg",
    "category": "섬"
  },
  {
    "id": "128004",
    "title": "울도",
    "address": "인천광역시 옹진군 덕적면 울도로182번길 4",
    "phone": "",
    "latitude": "37.0257748713",
    "longitude": "125.9970307977",
    "image": "http://tong.visitkorea.or.kr/cms/resource/05/3511505_image2_1.jpg",
    "category": "섬"
  },
  {
    "id": "126101",
    "title": "울릉도",
    "address": "경상북도 울릉군 도동2길 66 울릉군청",
    "phone": "",
    "latitude": "37.4844649970",
    "longitude": "130.9057405167",
    "image": "http://tong.visitkorea.or.kr/cms/resource/58/3494458_image2_1.jpg",
    "category": "섬"
  },
  {
    "id": "577593",
    "title": "웅도",
    "address": "충청남도 서산시 대산읍 웅도리",
    "phone": "041-660-2601",
    "latitude": "36.9240487227",
    "longitude": "126.3785099252",
    "image": "",
    "category": "섬"
  },
  {
    "id": "127136",
    "title": "원산도",
    "address": "충청남도 보령시 오천면 원산도리",
    "phone": "",
    "latitude": "36.3745461406",
    "longitude": "126.4238119942",
    "image": "",
    "category": "섬"
  },
  {
    "id": "579742",
    "title": "원주도",
    "address": "전라남도 고흥군 과역면 백일리",
    "phone": "",
    "latitude": "34.6679353845",
    "longitude": "127.4722180727",
    "image": "http://tong.visitkorea.or.kr/cms/resource/64/3518964_image2_1.jpg",
    "category": "섬"
  },
  {
    "id": "2860855",
    "title": "월등도",
    "address": "경상남도 사천시 서포면 비토리",
    "phone": "",
    "latitude": "34.9743379116",
    "longitude": "127.9963199350",
    "image": "http://tong.visitkorea.or.kr/cms/resource/74/3527974_image2_1.jpg",
    "category": "섬"
  },
  {
    "id": "127585",
    "title": "월미도",
    "address": "인천광역시 중구 월미문화로 36 (북성동1가)",
    "phone": "",
    "latitude": "37.4754025124",
    "longitude": "126.5975805370",
    "image": "http://tong.visitkorea.or.kr/cms/resource/94/3518594_image2_1.jpg",
    "category": "섬"
  },
  {
    "id": "577623",
    "title": "유부도",
    "address": "충청남도 서천군 장항읍 유부도길",
    "phone": "",
    "latitude": "35.9940288724",
    "longitude": "126.6024363695",
    "image": "http://tong.visitkorea.or.kr/cms/resource/92/3347892_image2_1.jpg",
    "category": "섬"
  },
  {
    "id": "577894",
    "title": "율도",
    "address": "전라남도 신안군 지도읍 내양리",
    "phone": "",
    "latitude": "34.9990384614",
    "longitude": "126.2291083346",
    "image": "http://tong.visitkorea.or.kr/cms/resource/52/3562052_image2_1.jpg",
    "category": "섬"
  },
  {
    "id": "2548266",
    "title": "이수도",
    "address": "경상남도 거제시 장목면 이수도길 10",
    "phone": "",
    "latitude": "34.9679905351",
    "longitude": "128.7250315016",
    "image": "http://tong.visitkorea.or.kr/cms/resource/95/3576195_image2_1.jpg",
    "category": "섬"
  },
  {
    "id": "575658",
    "title": "임자도",
    "address": "전라남도 신안군 임자면 대광해수욕장길 179",
    "phone": "",
    "latitude": "35.0858264076",
    "longitude": "126.0917156572",
    "image": "http://tong.visitkorea.or.kr/cms/resource/44/3558944_image2_1.jpg",
    "category": "섬"
  },
  {
    "id": "2720455",
    "title": "임하도",
    "address": "전라남도 해남군 문내면 예락리",
    "phone": "",
    "latitude": "34.6111605478",
    "longitude": "126.2657115977",
    "image": "http://tong.visitkorea.or.kr/cms/resource/87/3061287_image2_1.jpg",
    "category": "섬"
  },
  {
    "id": "126708",
    "title": "입파도 홍암",
    "address": "경기도 화성시 우정읍 입파길 54",
    "phone": "",
    "latitude": "37.1062276570",
    "longitude": "126.5394292952",
    "image": "",
    "category": "섬"
  },
  {
    "id": "1437418",
    "title": "자라섬",
    "address": "경기도 가평군 가평읍 자라섬로 60",
    "phone": "",
    "latitude": "37.8209234278",
    "longitude": "127.5208753809",
    "image": "http://tong.visitkorea.or.kr/cms/resource/69/3512869_image2_1.jpg",
    "category": "섬"
  },
  {
    "id": "2547986",
    "title": "자란도",
    "address": "경상남도 고성군 하일면 송천리",
    "phone": "",
    "latitude": "34.9281387775",
    "longitude": "128.2236207128",
    "image": "http://tong.visitkorea.or.kr/cms/resource/32/3497832_image2_1.jpg",
    "category": "섬"
  },
  {
    "id": "2782195",
    "title": "자월도",
    "address": "인천광역시 옹진군 자월면 이작리",
    "phone": "",
    "latitude": "37.2521514034",
    "longitude": "126.3216118294",
    "image": "http://tong.visitkorea.or.kr/cms/resource/00/3511200_image2_1.jpg",
    "category": "섬"
  },
  {
    "id": "577866",
    "title": "자은도",
    "address": "전라남도 신안군 자은면 구영1길 8",
    "phone": "",
    "latitude": "34.8844345630",
    "longitude": "126.0474244094",
    "image": "",
    "category": "섬"
  },
  {
    "id": "129608",
    "title": "잠진도",
    "address": "인천광역시 중구 을왕동",
    "phone": "",
    "latitude": "37.4185531255",
    "longitude": "126.4140099746",
    "image": "http://tong.visitkorea.or.kr/cms/resource/61/3518461_image2_1.jpg",
    "category": "섬"
  },
  {
    "id": "126819",
    "title": "장고도",
    "address": "충청남도 보령시 오천면 삽시도리",
    "phone": "",
    "latitude": "36.3978476026",
    "longitude": "126.3405105611",
    "image": "",
    "category": "섬"
  },
  {
    "id": "126967",
    "title": "장군도",
    "address": "전라남도 여수시 남산동",
    "phone": "",
    "latitude": "34.7332714952",
    "longitude": "127.7359461298",
    "image": "http://tong.visitkorea.or.kr/cms/resource/53/3580353_image2_1.jpg",
    "category": "섬"
  },
  {
    "id": "2496312",
    "title": "장도",
    "address": "전라남도 보성군 벌교읍 장도리",
    "phone": "",
    "latitude": "34.7917489941",
    "longitude": "127.4552692250",
    "image": "http://tong.visitkorea.or.kr/cms/resource/36/2497036_image2_1.jpg",
    "category": "섬"
  },
  {
    "id": "578501",
    "title": "장도(진도)",
    "address": "전라남도 진도군 지산면 가학장도길 4",
    "phone": "",
    "latitude": "34.4563030508",
    "longitude": "126.0999631926",
    "image": "",
    "category": "섬"
  },
  {
    "id": "128005",
    "title": "장봉도",
    "address": "인천광역시 옹진군 북도면 장봉리",
    "phone": "",
    "latitude": "37.5337635589",
    "longitude": "126.3473045742",
    "image": "http://tong.visitkorea.or.kr/cms/resource/05/3350105_image2_1.jpg",
    "category": "섬"
  },
  {
    "id": "578415",
    "title": "장사도",
    "address": "경상남도 통영시 한산면 장사도길 95",
    "phone": "",
    "latitude": "34.7123439020",
    "longitude": "128.5599804060",
    "image": "",
    "category": "섬"
  },
  {
    "id": "127763",
    "title": "장산도",
    "address": "전라남도 신안군 장산면 도창리",
    "phone": "",
    "latitude": "34.6442967393",
    "longitude": "126.1575925788",
    "image": "http://tong.visitkorea.or.kr/cms/resource/97/3572097_image2_1.jpg",
    "category": "섬"
  },
  {
    "id": "126299",
    "title": "장자도",
    "address": "전북특별자치도 군산시 옥도면 장자도1길 26-2",
    "phone": "",
    "latitude": "35.8105741302",
    "longitude": "126.3977954789",
    "image": "http://tong.visitkorea.or.kr/cms/resource/30/3055430_image2_1.jpg",
    "category": "섬"
  },
  {
    "id": "2638561",
    "title": "저도(거제)",
    "address": "경상남도 거제시 장목면 유호리 산88-1",
    "phone": "",
    "latitude": "35.0193739044",
    "longitude": "128.7377290190",
    "image": "http://tong.visitkorea.or.kr/cms/resource/76/2638576_image2_1.jpeg",
    "category": "섬"
  },
  {
    "id": "128052",
    "title": "저도(딱섬)",
    "address": "경상남도 사천시 저도길 17-11",
    "phone": "",
    "latitude": "34.9435614116",
    "longitude": "128.0305844038",
    "image": "",
    "category": "섬"
  },
  {
    "id": "2650458",
    "title": "저도(창원)",
    "address": "경상남도 창원시 마산합포구 구산면",
    "phone": "",
    "latitude": "35.0657932994",
    "longitude": "128.5619875387",
    "image": "http://tong.visitkorea.or.kr/cms/resource/32/3377232_image2_1.JPG",
    "category": "섬"
  },
  {
    "id": "580086",
    "title": "접도",
    "address": "전라남도 진도군 의신면 송정리",
    "phone": "",
    "latitude": "34.3791342944",
    "longitude": "126.2954089003",
    "image": "http://tong.visitkorea.or.kr/cms/resource/45/3536045_image2_1.jpg",
    "category": "섬"
  },
  {
    "id": "125503",
    "title": "제부도",
    "address": "경기도 화성시 서신면 해안길 421-12",
    "phone": "",
    "latitude": "37.1686580243",
    "longitude": "126.6244837546",
    "image": "http://tong.visitkorea.or.kr/cms/resource/89/3330989_image2_1.jpg",
    "category": "섬"
  },
  {
    "id": "2718057",
    "title": "제월섬",
    "address": "전라남도 곡성군 입면 제월리 1115",
    "phone": "",
    "latitude": "35.3177523598",
    "longitude": "127.2180850828",
    "image": "http://tong.visitkorea.or.kr/cms/resource/87/3378087_image2_1.JPG",
    "category": "섬"
  },
  {
    "id": "2024437",
    "title": "조도",
    "address": "경상남도 남해군 미조면 미조리",
    "phone": "",
    "latitude": "34.6976087507",
    "longitude": "128.0508639887",
    "image": "http://tong.visitkorea.or.kr/cms/resource/23/3556523_image2_1.jpg",
    "category": "섬"
  },
  {
    "id": "553447",
    "title": "조도(조도6군도)",
    "address": "전라남도 진도군 조도면",
    "phone": "",
    "latitude": "34.4791859041",
    "longitude": "126.0569886704",
    "image": "",
    "category": "섬"
  },
  {
    "id": "2752409",
    "title": "조발도",
    "address": "전라남도 여수시 화정면 조발도길 8",
    "phone": "",
    "latitude": "34.6391094609",
    "longitude": "127.5542616176",
    "image": "http://tong.visitkorea.or.kr/cms/resource/03/3520803_image2_1.jpg",
    "category": "섬"
  },
  {
    "id": "126308",
    "title": "주도",
    "address": "전라남도 완도군 완도읍 군내리",
    "phone": "",
    "latitude": "34.3167987790",
    "longitude": "126.7563643539",
    "image": "",
    "category": "섬"
  },
  {
    "id": "129226",
    "title": "주지도",
    "address": "전라남도 진도군 조도면 가사주지도길",
    "phone": "",
    "latitude": "34.4870188215",
    "longitude": "126.0859414892",
    "image": "",
    "category": "섬"
  },
  {
    "id": "128069",
    "title": "죽도 (보령)",
    "address": "충청남도 보령시 남포면 남포방조제로 408-54",
    "phone": "",
    "latitude": "36.2767343077",
    "longitude": "126.5377903981",
    "image": "http://tong.visitkorea.or.kr/cms/resource/31/3048131_image2_1.jpg",
    "category": "섬"
  },
  {
    "id": "579421",
    "title": "죽도(고흥)",
    "address": "전라남도 고흥군 도화면",
    "phone": "",
    "latitude": "34.4458349551",
    "longitude": "127.2925309707",
    "image": "http://tong.visitkorea.or.kr/cms/resource/24/3581524_image2_1.jpg",
    "category": "섬"
  },
  {
    "id": "126105",
    "title": "죽도(울릉)",
    "address": "경상북도 울릉군 울릉읍 죽도길 59-9",
    "phone": "",
    "latitude": "37.5280939837",
    "longitude": "130.9365835781",
    "image": "http://tong.visitkorea.or.kr/cms/resource/31/169631_image2_1.jpg",
    "category": "섬"
  },
  {
    "id": "126721",
    "title": "죽도(홍성)",
    "address": "충청남도 홍성군 서부면 죽도길 8",
    "phone": "",
    "latitude": "36.5193186883",
    "longitude": "126.4411594216",
    "image": "",
    "category": "섬"
  },
  {
    "id": "575607",
    "title": "증도(신안)",
    "address": "전라남도 신안군 증도면 문준경길 188",
    "phone": "",
    "latitude": "35.0028699035",
    "longitude": "126.1397022827",
    "image": "http://tong.visitkorea.or.kr/cms/resource/74/3558674_image2_1.jpg",
    "category": "섬"
  },
  {
    "id": "127755",
    "title": "지도",
    "address": "전라남도 신안군 지도읍 읍내길 67-5",
    "phone": "",
    "latitude": "35.0612255247",
    "longitude": "126.2076059619",
    "image": "http://tong.visitkorea.or.kr/cms/resource/94/572994_image2_1.jpg",
    "category": "섬"
  },
  {
    "id": "128035",
    "title": "지심도",
    "address": "경상남도 거제시 일운면 지심도길 31-2",
    "phone": "",
    "latitude": "34.8179993905",
    "longitude": "128.7485334584",
    "image": "http://tong.visitkorea.or.kr/cms/resource/23/2616823_image2_1.jpg",
    "category": "섬"
  },
  {
    "id": "579472",
    "title": "지죽도",
    "address": "전라남도 고흥군 도화면 지죽리",
    "phone": "",
    "latitude": "34.4360363034",
    "longitude": "127.3075160132",
    "image": "http://tong.visitkorea.or.kr/cms/resource/22/3519022_image2_1.jpg",
    "category": "섬"
  },
  {
    "id": "126307",
    "title": "진도",
    "address": "전라남도 진도군 진도읍",
    "phone": "",
    "latitude": "34.4867939266",
    "longitude": "126.2635147305",
    "image": "",
    "category": "섬"
  },
  {
    "id": "579487",
    "title": "진지도",
    "address": "전라남도 고흥군 과역면 백일리",
    "phone": "",
    "latitude": "34.7129159757",
    "longitude": "127.4441582917",
    "image": "http://tong.visitkorea.or.kr/cms/resource/00/3581500_image2_1.jpg",
    "category": "섬"
  },
  {
    "id": "2764322",
    "title": "쪽박섬",
    "address": "경기도 안산시 단원구 대부남동",
    "phone": "",
    "latitude": "37.2143512900",
    "longitude": "126.5422122095",
    "image": "http://tong.visitkorea.or.kr/cms/resource/62/3560762_image2_1.jpg",
    "category": "섬"
  },
  {
    "id": "126444",
    "title": "차귀도",
    "address": "제주특별자치도 제주시 한경면 고락로 200-52",
    "phone": "",
    "latitude": "33.3011472996",
    "longitude": "126.2053163667",
    "image": "http://tong.visitkorea.or.kr/cms/resource/54/3555354_image2_1.jpg",
    "category": "섬"
  },
  {
    "id": "127287",
    "title": "창선도",
    "address": "경상남도 남해군 창선면 서대리",
    "phone": "",
    "latitude": "34.8702384517",
    "longitude": "127.9951199605",
    "image": "http://tong.visitkorea.or.kr/cms/resource/49/3554249_image2_1.jpg",
    "category": "섬"
  },
  {
    "id": "2496313",
    "title": "창원 우도",
    "address": "경상남도 창원시 진해구 우도로 5",
    "phone": "",
    "latitude": "35.0885242115",
    "longitude": "128.7222062903",
    "image": "http://tong.visitkorea.or.kr/cms/resource/35/3565835_image2_1.jpg",
    "category": "섬"
  },
  {
    "id": "579986",
    "title": "첨도",
    "address": "전라남도 고흥군 포두면 오취길 709",
    "phone": "",
    "latitude": "34.5742149171",
    "longitude": "127.4486974720",
    "image": "http://tong.visitkorea.or.kr/cms/resource/86/875286_image2_1.jpg",
    "category": "섬"
  },
  {
    "id": "126970",
    "title": "청산도",
    "address": "전라남도 완도군 청산면 도청3길 30-1",
    "phone": "",
    "latitude": "34.1813877802",
    "longitude": "126.8570726591",
    "image": "http://tong.visitkorea.or.kr/cms/resource/60/3494860_image2_1.jpg",
    "category": "섬"
  },
  {
    "id": "1528652",
    "title": "초도(여수)",
    "address": "전라남도 여수시 삼산면",
    "phone": "",
    "latitude": "34.2285833657",
    "longitude": "127.2428045102",
    "image": "http://tong.visitkorea.or.kr/cms/resource/82/3548982_image2_1.JPG",
    "category": "섬"
  },
  {
    "id": "2715655",
    "title": "초양도",
    "address": "경상남도 사천시 늑도동",
    "phone": "",
    "latitude": "34.9263385901",
    "longitude": "128.0446197347",
    "image": "http://tong.visitkorea.or.kr/cms/resource/02/3515602_image2_1.jpg",
    "category": "섬"
  },
  {
    "id": "2607009",
    "title": "추도(여수)",
    "address": "전라남도 여수시 화정면 추도길 1",
    "phone": "",
    "latitude": "34.5934564660",
    "longitude": "127.5677393620",
    "image": "http://tong.visitkorea.or.kr/cms/resource/95/3580995_image2_1.jpg",
    "category": "섬"
  },
  {
    "id": "127107",
    "title": "추봉도",
    "address": "경상남도 통영시 한산면",
    "phone": "",
    "latitude": "34.7617488022",
    "longitude": "128.5210935999",
    "image": "http://tong.visitkorea.or.kr/cms/resource/96/3556896_image2_1.jpg",
    "category": "섬"
  },
  {
    "id": "127863",
    "title": "추자도",
    "address": "제주특별자치도 제주시 추자면",
    "phone": "",
    "latitude": "33.9518128033",
    "longitude": "126.3076233112",
    "image": "http://tong.visitkorea.or.kr/cms/resource/00/3539200_image2_1.jpg",
    "category": "섬"
  },
  {
    "id": "579565",
    "title": "취도",
    "address": "전라남도 고흥군 포두면 오취리",
    "phone": "",
    "latitude": "34.5681483957",
    "longitude": "127.4173642522",
    "image": "http://tong.visitkorea.or.kr/cms/resource/59/3581459_image2_1.jpg",
    "category": "섬"
  },
  {
    "id": "2768193",
    "title": "측도",
    "address": "인천광역시 옹진군 영흥면 선재리 676-1",
    "phone": "",
    "latitude": "37.2319404532",
    "longitude": "126.5155947073",
    "image": "http://tong.visitkorea.or.kr/cms/resource/60/3524960_image2_1.jpg",
    "category": "섬"
  },
  {
    "id": "2755692",
    "title": "칠천도",
    "address": "경상남도 거제시 하청면 연구7길 20-1",
    "phone": "",
    "latitude": "34.9807821336",
    "longitude": "128.6468879633",
    "image": "",
    "category": "섬"
  },
  {
    "id": "127754",
    "title": "태도",
    "address": "전라남도 신안군 흑산면 상태도길 25",
    "phone": "",
    "latitude": "34.4623198115",
    "longitude": "125.2658006891",
    "image": "",
    "category": "섬"
  },
  {
    "id": "127108",
    "title": "통영 죽도",
    "address": "경상남도 통영시 한산면 죽도",
    "phone": "",
    "latitude": "34.7314356659",
    "longitude": "128.5292825722",
    "image": "http://tong.visitkorea.or.kr/cms/resource/62/3580062_image2_1.jpg",
    "category": "섬"
  },
  {
    "id": "127101",
    "title": "통영 추도",
    "address": "경상남도 통영시 산양읍 추도리",
    "phone": "",
    "latitude": "34.7560565760",
    "longitude": "128.2980548247",
    "image": "http://tong.visitkorea.or.kr/cms/resource/24/3580124_image2_1.jpg",
    "category": "섬"
  },
  {
    "id": "3112053",
    "title": "파로호꽃섬",
    "address": "강원특별자치도 양구군 양구읍 함춘로 102",
    "phone": "033-480-7384",
    "latitude": "38.1167755040",
    "longitude": "127.9884822758",
    "image": "",
    "category": "섬"
  },
  {
    "id": "127761",
    "title": "팔금도",
    "address": "전라남도 신안군 팔금면 삼층석탑길 161",
    "phone": "",
    "latitude": "34.7850917514",
    "longitude": "126.1424961317",
    "image": "http://tong.visitkorea.or.kr/cms/resource/42/3562042_image2_1.jpg",
    "category": "섬"
  },
  {
    "id": "2782214",
    "title": "풀등모래섬",
    "address": "인천광역시 옹진군 자월면 대이작로 158",
    "phone": "",
    "latitude": "37.1721984837",
    "longitude": "126.2587863803",
    "image": "http://tong.visitkorea.or.kr/cms/resource/23/3353123_image2_1.jpg",
    "category": "섬"
  },
  {
    "id": "126720",
    "title": "풍도",
    "address": "경기도 안산시 단원구 풍도길 28",
    "phone": "",
    "latitude": "37.1112106471",
    "longitude": "126.3929258117",
    "image": "",
    "category": "섬"
  },
  {
    "id": "1537931",
    "title": "하낙월도",
    "address": "전라남도 영광군 낙월면 하낙월리",
    "phone": "",
    "latitude": "35.1946868804",
    "longitude": "126.1271126578",
    "image": "",
    "category": "섬"
  },
  {
    "id": "127878",
    "title": "하섬",
    "address": "전북특별자치도 부안군 변산면",
    "phone": "",
    "latitude": "35.6638367652",
    "longitude": "126.4854441331",
    "image": "http://tong.visitkorea.or.kr/cms/resource/28/3523328_image2_1.jpg",
    "category": "섬"
  },
  {
    "id": "577831",
    "title": "하의도",
    "address": "전라남도 신안군 하의면 곰실길 20",
    "phone": "",
    "latitude": "34.6062268491",
    "longitude": "126.0363652956",
    "image": "http://tong.visitkorea.or.kr/cms/resource/79/3572079_image2_1.jpg",
    "category": "섬"
  },
  {
    "id": "126822",
    "title": "하조도",
    "address": "전라남도 진도군 조도면 창리길 47",
    "phone": "",
    "latitude": "34.2967006733",
    "longitude": "126.0477937196",
    "image": "http://tong.visitkorea.or.kr/cms/resource/18/2025518_image2_1.JPG",
    "category": "섬"
  },
  {
    "id": "577805",
    "title": "하태도",
    "address": "전라남도 신안군 흑산면 장굴길 49-1",
    "phone": "",
    "latitude": "34.3906756030",
    "longitude": "125.2986132798",
    "image": "",
    "category": "섬"
  },
  {
    "id": "579990",
    "title": "하화도(고흥)",
    "address": "전라남도 고흥군 도양읍 하화도길",
    "phone": "",
    "latitude": "34.4962852063",
    "longitude": "127.1475340837",
    "image": "http://tong.visitkorea.or.kr/cms/resource/12/3581512_image2_1.jpg",
    "category": "섬"
  },
  {
    "id": "2497099",
    "title": "하화도(여수)",
    "address": "전라남도 여수시 화정면 아래꽃섬1길",
    "phone": "",
    "latitude": "34.5932880043",
    "longitude": "127.6238927933",
    "image": "http://tong.visitkorea.or.kr/cms/resource/45/3345945_image2_1.jpg",
    "category": "섬"
  },
  {
    "id": "2713392",
    "title": "한반도섬",
    "address": "강원특별자치도 양구군 양구읍 한반도섬길 76",
    "phone": "",
    "latitude": "38.1306932194",
    "longitude": "127.9828295908",
    "image": "http://tong.visitkorea.or.kr/cms/resource/80/3534780_image2_1.jpg",
    "category": "섬"
  },
  {
    "id": "127105",
    "title": "한산도",
    "address": "경상남도 통영시 한산면 두억리",
    "phone": "",
    "latitude": "34.7783380030",
    "longitude": "128.4868239222",
    "image": "http://tong.visitkorea.or.kr/cms/resource/51/3513751_image2_1.jpg",
    "category": "섬"
  },
  {
    "id": "987810",
    "title": "해운대 동백섬",
    "address": "부산광역시 해운대구 동백로 67",
    "phone": "",
    "latitude": "35.1539914380",
    "longitude": "129.1521809693",
    "image": "http://tong.visitkorea.or.kr/cms/resource/47/3350847_image2_1.jpg",
    "category": "섬"
  },
  {
    "id": "2758833",
    "title": "행담도",
    "address": "충청남도 당진시 신평면 서해안고속도로 275",
    "phone": "",
    "latitude": "36.9434706254",
    "longitude": "126.8085926487",
    "image": "http://tong.visitkorea.or.kr/cms/resource/75/3567575_image2_1.jpg",
    "category": "섬"
  },
  {
    "id": "129229",
    "title": "혈도(활목섬)",
    "address": "전라남도 진도군 조도면 가사도길 42-359",
    "phone": "",
    "latitude": "34.5158656135",
    "longitude": "126.0879406377",
    "image": "http://tong.visitkorea.or.kr/cms/resource/71/190471_image2_1.jpg",
    "category": "섬"
  },
  {
    "id": "128793",
    "title": "형제섬",
    "address": "제주특별자치도 서귀포시 안덕면 사계리",
    "phone": "",
    "latitude": "33.2080147675",
    "longitude": "126.3092288523",
    "image": "http://tong.visitkorea.or.kr/cms/resource/89/3526989_image2_1.jpg",
    "category": "섬"
  },
  {
    "id": "577571",
    "title": "호도",
    "address": "충청남도 보령시 오천면 호도길 22",
    "phone": "",
    "latitude": "36.3018156762",
    "longitude": "126.2644698997",
    "image": "",
    "category": "섬"
  },
  {
    "id": "126300",
    "title": "홍도",
    "address": "전라남도 신안군 흑산면 홍도1길 9-8",
    "phone": "",
    "latitude": "34.6819855672",
    "longitude": "125.1920717233",
    "image": "http://tong.visitkorea.or.kr/cms/resource/20/1704120_image2_1.jpg",
    "category": "섬"
  },
  {
    "id": "2704724",
    "title": "화태도",
    "address": "전라남도 여수시 남면 화태리",
    "phone": "",
    "latitude": "34.5847352803",
    "longitude": "127.7328196078",
    "image": "http://tong.visitkorea.or.kr/cms/resource/25/3520825_image2_1.jpg",
    "category": "섬"
  },
  {
    "id": "2755596",
    "title": "황덕도",
    "address": "경상남도 거제시 하청면 황덕도길 165",
    "phone": "",
    "latitude": "35.0091702143",
    "longitude": "128.6243419469",
    "image": "http://tong.visitkorea.or.kr/cms/resource/45/3515445_image2_1.jpg",
    "category": "섬"
  },
  {
    "id": "2758231",
    "title": "황도",
    "address": "충청남도 태안군 안면읍 황도리",
    "phone": "",
    "latitude": "36.5966809713",
    "longitude": "126.3805517500",
    "image": "http://tong.visitkorea.or.kr/cms/resource/54/3339254_image2_1.jpg",
    "category": "섬"
  },
  {
    "id": "127319",
    "title": "효자도",
    "address": "충청남도 보령시 오천면 효자도리",
    "phone": "",
    "latitude": "36.3831455063",
    "longitude": "126.4445099059",
    "image": "",
    "category": "섬"
  },
  {
    "id": "126301",
    "title": "흑산도",
    "address": "전라남도 신안군 흑산면 진마을길 11",
    "phone": "",
    "latitude": "34.6829474500",
    "longitude": "125.4274063444",
    "image": "http://tong.visitkorea.or.kr/cms/resource/20/3572120_image2_1.jpg",
    "category": "섬"
  }
]