[
  {
    "id": "127268",
    "title": "가배량진성",
    "address": "경상남도 거제시 동부면 가배리",
    "phone": "",
    "latitude": "34.7820363414",
    "longitude": "128.5722247316",
    "image": "http://tong.visitkorea.or.kr/cms/resource/44/3521044_image2_1.jpg",
    "category": "성"
  },
  {
    "id": "1254680",
    "title": "갑곶돈대",
    "address": "인천광역시 강화군 강화읍 해안동로1366번길 18",
    "phone": "",
    "latitude": "37.7335377029",
    "longitude": "126.5171140395",
    "image": "http://tong.visitkorea.or.kr/cms/resource/71/3364171_image2_1.jpg",
    "category": "성"
  },
  {
    "id": "126897",
    "title": "강릉 대공산성",
    "address": "강원특별자치도 강릉시 성산면 보현길 396",
    "phone": "",
    "latitude": "37.7366262830",
    "longitude": "128.7693064482",
    "image": "",
    "category": "성"
  },
  {
    "id": "127185",
    "title": "강화 덕진진",
    "address": "인천광역시 강화군 불은면 덕진로 31-9",
    "phone": "",
    "latitude": "37.6492060173",
    "longitude": "126.5256656119",
    "image": "http://tong.visitkorea.or.kr/cms/resource/91/3307391_image2_1.jpg",
    "category": "성"
  },
  {
    "id": "1619817",
    "title": "강화 분오리돈대",
    "address": "인천광역시 강화군 화도면 동막리",
    "phone": "",
    "latitude": "37.5901534404",
    "longitude": "126.4618119851",
    "image": "http://tong.visitkorea.or.kr/cms/resource/58/3537458_image2_1.jpg",
    "category": "성"
  },
  {
    "id": "128814",
    "title": "강화 삼랑성",
    "address": "인천광역시 강화군 길상면 온수리",
    "phone": "",
    "latitude": "37.6333349172",
    "longitude": "126.4843559455",
    "image": "http://tong.visitkorea.or.kr/cms/resource/43/3532443_image2_1.jpg",
    "category": "성"
  },
  {
    "id": "128030",
    "title": "강화 초지진",
    "address": "인천광역시 강화군 길상면 해안동로 58",
    "phone": "",
    "latitude": "37.6326163996",
    "longitude": "126.5322543599",
    "image": "http://tong.visitkorea.or.kr/cms/resource/11/3307811_image2_1.jpg",
    "category": "성"
  },
  {
    "id": "125564",
    "title": "강화산성",
    "address": "인천광역시 강화군 강화읍 국화리 산3번지",
    "phone": "",
    "latitude": "37.7560400476",
    "longitude": "126.4838970101",
    "image": "http://tong.visitkorea.or.kr/cms/resource/87/3383787_image2_1.JPG",
    "category": "성"
  },
  {
    "id": "125567",
    "title": "강화전적지",
    "address": "인천광역시 강화군 강화읍 해안동로1366번길 18",
    "phone": "",
    "latitude": "37.7335599037",
    "longitude": "126.5160196946",
    "image": "http://tong.visitkorea.or.kr/cms/resource/05/3383805_image2_1.JPG",
    "category": "성"
  },
  {
    "id": "3344859",
    "title": "거제 지세포진성",
    "address": "경상남도 거제시 일운면 지세포리",
    "phone": "",
    "latitude": "34.8329582924",
    "longitude": "128.7187106519",
    "image": "http://tong.visitkorea.or.kr/cms/resource/66/3344666_image2_1.jpg",
    "category": "성"
  },
  {
    "id": "252566",
    "title": "견훤산성",
    "address": "경상북도 상주시 화북면 장암리",
    "phone": "",
    "latitude": "36.5756268834",
    "longitude": "127.8993602813",
    "image": "http://tong.visitkorea.or.kr/cms/resource/63/3031063_image2_1.jpg",
    "category": "성"
  },
  {
    "id": "2699663",
    "title": "경주 명활성",
    "address": "경상북도 경주시 보문동",
    "phone": "",
    "latitude": "35.8417439690",
    "longitude": "129.2623298822",
    "image": "http://tong.visitkorea.or.kr/cms/resource/48/3509448_image2_1.jpg",
    "category": "성"
  },
  {
    "id": "128117",
    "title": "경주 월성",
    "address": "경상북도 경주시 인왕동",
    "phone": "",
    "latitude": "35.8321721215",
    "longitude": "129.2250084253",
    "image": "http://tong.visitkorea.or.kr/cms/resource/33/3534833_image2_1.jpg",
    "category": "성"
  },
  {
    "id": "2756611",
    "title": "경주읍성",
    "address": "경상북도 경주시 동문로 31",
    "phone": "",
    "latitude": "35.8473202021",
    "longitude": "129.2139061887",
    "image": "http://tong.visitkorea.or.kr/cms/resource/23/3542523_image2_1.jpg",
    "category": "성"
  },
  {
    "id": "1620625",
    "title": "계룡돈대",
    "address": "인천광역시 강화군 내가면 황청리",
    "phone": "",
    "latitude": "37.7235276660",
    "longitude": "126.3538237336",
    "image": "http://tong.visitkorea.or.kr/cms/resource/63/3309563_image2_1.jpg",
    "category": "성"
  },
  {
    "id": "128079",
    "title": "고령 주산성",
    "address": "경상북도 고령군 대가야읍 지산리",
    "phone": "",
    "latitude": "35.7308433869",
    "longitude": "128.2543215725",
    "image": "http://tong.visitkorea.or.kr/cms/resource/03/1004703_image2_1.jpg",
    "category": "성"
  },
  {
    "id": "129451",
    "title": "고모산성",
    "address": "경상북도 문경시 마성면 신현리",
    "phone": "",
    "latitude": "36.6617378754",
    "longitude": "128.1276124617",
    "image": "http://tong.visitkorea.or.kr/cms/resource/13/3499313_image2_1.jpg",
    "category": "성"
  },
  {
    "id": "2782806",
    "title": "고성 소을비포진성",
    "address": "경상남도 고성군 하일면 동화리 398-4",
    "phone": "",
    "latitude": "34.9023771683",
    "longitude": "128.1894715907",
    "image": "http://tong.visitkorea.or.kr/cms/resource/41/3491641_image2_1.jpg",
    "category": "성"
  },
  {
    "id": "3072020",
    "title": "고성리산성",
    "address": "강원특별자치도 정선군 신동읍 고성리",
    "phone": "",
    "latitude": "37.2586252678",
    "longitude": "128.5920924092",
    "image": "http://tong.visitkorea.or.kr/cms/resource/54/3051954_image2_1.jpg",
    "category": "성"
  },
  {
    "id": "128766",
    "title": "고창 무장현 관아와 읍성",
    "address": "전북특별자치도 고창군 무장면 무장읍성길 45",
    "phone": "",
    "latitude": "35.4179798008",
    "longitude": "126.5575994348",
    "image": "http://tong.visitkorea.or.kr/cms/resource/95/3018295_image2_1.jpg",
    "category": "성"
  },
  {
    "id": "126398",
    "title": "고창읍성",
    "address": "전북특별자치도 고창군 고창읍 모양성로 1",
    "phone": "",
    "latitude": "35.4303280891",
    "longitude": "126.7044055224",
    "image": "http://tong.visitkorea.or.kr/cms/resource/43/2723743_image2_1.png",
    "category": "성"
  },
  {
    "id": "127265",
    "title": "고현성",
    "address": "경상남도 거제시 고현동",
    "phone": "",
    "latitude": "34.8795735426",
    "longitude": "128.6209762454",
    "image": "http://tong.visitkorea.or.kr/cms/resource/51/3521051_image2_1.jpg",
    "category": "성"
  },
  {
    "id": "250441",
    "title": "고흥발포만호성",
    "address": "전라남도 고흥군 도화면 발포성촌길 3",
    "phone": "",
    "latitude": "34.4839064423",
    "longitude": "127.3363956420",
    "image": "http://tong.visitkorea.or.kr/cms/resource/68/3519068_image2_1.jpg",
    "category": "성"
  },
  {
    "id": "125949",
    "title": "공주 공산성 [유네스코 세계유산]",
    "address": "충청남도 공주시 웅진로 280",
    "phone": "",
    "latitude": "36.4629981682",
    "longitude": "127.1268075582",
    "image": "http://tong.visitkorea.or.kr/cms/resource/75/2678675_image2_1.jpg",
    "category": "성"
  },
  {
    "id": "125988",
    "title": "관북리유적과 부소산성 [유네스코 세계유산]",
    "address": "충청남도 부여군 부여읍 부소로 15",
    "phone": "",
    "latitude": "36.2855314361",
    "longitude": "126.9133647824",
    "image": "http://tong.visitkorea.or.kr/cms/resource/70/1601170_image2_1.jpg",
    "category": "성"
  },
  {
    "id": "2818242",
    "title": "관호산성",
    "address": "경상북도 칠곡군 약목면 관호리",
    "phone": "",
    "latitude": "36.0169440703",
    "longitude": "128.3942235650",
    "image": "http://tong.visitkorea.or.kr/cms/resource/32/3535332_image2_1.jpg",
    "category": "성"
  },
  {
    "id": "127213",
    "title": "광성보",
    "address": "인천광역시 강화군 불은면 해안동로466번길 27",
    "phone": "",
    "latitude": "37.6641793544",
    "longitude": "126.5302453301",
    "image": "http://tong.visitkorea.or.kr/cms/resource/15/3306715_image2_1.jpg",
    "category": "성"
  },
  {
    "id": "2765265",
    "title": "교동읍성",
    "address": "인천광역시 강화군 교동면 읍내리 577",
    "phone": "",
    "latitude": "37.7694490592",
    "longitude": "126.2953056067",
    "image": "http://tong.visitkorea.or.kr/cms/resource/39/2780239_image2_1.jpg",
    "category": "성"
  },
  {
    "id": "1624185",
    "title": "구례 석주관성",
    "address": "전라남도 구례군 토지면 섬진강대로 4638-8",
    "phone": "",
    "latitude": "35.1973691857",
    "longitude": "127.5659574898",
    "image": "http://tong.visitkorea.or.kr/cms/resource/93/3529993_image2_1.jpg",
    "category": "성"
  },
  {
    "id": "2754984",
    "title": "구조라성",
    "address": "경상남도 거제시 일운면 구조라로8길 7-1",
    "phone": "",
    "latitude": "34.8022668487",
    "longitude": "128.6950940743",
    "image": "http://tong.visitkorea.or.kr/cms/resource/65/2755265_image2_1.jpg",
    "category": "성"
  },
  {
    "id": "126866",
    "title": "금산 백령성",
    "address": "충청남도 금산군 남이면 역평리",
    "phone": "",
    "latitude": "36.0639846466",
    "longitude": "127.3962969596",
    "image": "",
    "category": "성"
  },
  {
    "id": "1118806",
    "title": "금오산성",
    "address": "경상북도 구미시 남통동",
    "phone": "",
    "latitude": "36.1025188973",
    "longitude": "128.3089370629",
    "image": "http://tong.visitkorea.or.kr/cms/resource/87/3041887_image2_1.jpg",
    "category": "성"
  },
  {
    "id": "125927",
    "title": "금이성",
    "address": "세종특별자치시 전동면 송성리",
    "phone": "",
    "latitude": "36.6325356297",
    "longitude": "127.2039432522",
    "image": "",
    "category": "성"
  },
  {
    "id": "126196",
    "title": "금정산성",
    "address": "부산광역시 금정구 북문로 78-5 (금성동)",
    "phone": "",
    "latitude": "35.2553921199",
    "longitude": "129.0524424190",
    "image": "http://tong.visitkorea.or.kr/cms/resource/45/3494945_image2_1.jpg",
    "category": "성"
  },
  {
    "id": "127402",
    "title": "김포 덕포진",
    "address": "경기도 김포시 대곶면 덕포진로103번길 130",
    "phone": "",
    "latitude": "37.6498366936",
    "longitude": "126.5366756976",
    "image": "http://tong.visitkorea.or.kr/cms/resource/62/3506462_image2_1.jpg",
    "category": "성"
  },
  {
    "id": "127403",
    "title": "김포 수안산성",
    "address": "경기도 김포시 대곶면 율생리",
    "phone": "",
    "latitude": "37.6386055916",
    "longitude": "126.5889434511",
    "image": "http://tong.visitkorea.or.kr/cms/resource/32/3527732_image2_1.jpg",
    "category": "성"
  },
  {
    "id": "748486",
    "title": "김해 분산성",
    "address": "경상남도 김해시 가야로405번안길 210-162",
    "phone": "",
    "latitude": "35.2461457644",
    "longitude": "128.8925732743",
    "image": "http://tong.visitkorea.or.kr/cms/resource/26/3535926_image2_1.jpg",
    "category": "성"
  },
  {
    "id": "2789656",
    "title": "김해읍성",
    "address": "경상남도 김해시 분성로335번길 44",
    "phone": "",
    "latitude": "35.2377881730",
    "longitude": "128.8818966557",
    "image": "http://tong.visitkorea.or.kr/cms/resource/25/2795425_image2_1.jpg",
    "category": "성"
  },
  {
    "id": "127235",
    "title": "남미질부성",
    "address": "경상북도 포항시 북구 흥해읍",
    "phone": "",
    "latitude": "36.1065045890",
    "longitude": "129.3495673907",
    "image": "http://tong.visitkorea.or.kr/cms/resource/97/3411097_image2_1.jpg",
    "category": "성"
  },
  {
    "id": "1607157",
    "title": "남원 교룡산성",
    "address": "전북특별자치도 남원시 산성순환길 714",
    "phone": "",
    "latitude": "35.4280313046",
    "longitude": "127.3643193161",
    "image": "http://tong.visitkorea.or.kr/cms/resource/11/3517111_image2_1.jpg",
    "category": "성"
  },
  {
    "id": "1607188",
    "title": "남원읍성",
    "address": "전북특별자치도 남원시 동충동",
    "phone": "",
    "latitude": "35.4140497794",
    "longitude": "127.3773574139",
    "image": "http://tong.visitkorea.or.kr/cms/resource/13/3358513_image2_1.JPG",
    "category": "성"
  },
  {
    "id": "129636",
    "title": "남포읍성",
    "address": "충청남도 보령시 남포면 읍내리",
    "phone": "",
    "latitude": "36.3057460840",
    "longitude": "126.6087110441",
    "image": "http://tong.visitkorea.or.kr/cms/resource/05/3560505_image2_1.jpg",
    "category": "성"
  },
  {
    "id": "1624958",
    "title": "남한산성 수어장대",
    "address": "경기도 광주시 남한산성면 산성리",
    "phone": "",
    "latitude": "37.4798512105",
    "longitude": "127.1765165686",
    "image": "http://tong.visitkorea.or.kr/cms/resource/69/3524569_image2_1.jpg",
    "category": "성"
  },
  {
    "id": "1320181",
    "title": "남해 금산 봉수대",
    "address": "경상남도 남해군 상주면 보리암로 691",
    "phone": "",
    "latitude": "34.7137728082",
    "longitude": "128.0050703454",
    "image": "http://tong.visitkorea.or.kr/cms/resource/19/1293619_image2_1.jpg",
    "category": "성"
  },
  {
    "id": "129604",
    "title": "남해 임진성",
    "address": "경상남도 남해군 남면 상가리",
    "phone": "",
    "latitude": "34.7791630626",
    "longitude": "127.8660891379",
    "image": "http://tong.visitkorea.or.kr/cms/resource/49/3554449_image2_1.jpg",
    "category": "성"
  },
  {
    "id": "2798468",
    "title": "노산성",
    "address": "강원특별자치도 평창군 평창읍 하리",
    "phone": "",
    "latitude": "37.3744526703",
    "longitude": "128.3977230849",
    "image": "http://tong.visitkorea.or.kr/cms/resource/63/3570163_image2_1.jpg",
    "category": "성"
  },
  {
    "id": "1626999",
    "title": "논산 노성산성",
    "address": "충청남도 논산시 노성면 송당리",
    "phone": "",
    "latitude": "36.2954228643",
    "longitude": "127.1237151149",
    "image": "http://tong.visitkorea.or.kr/cms/resource/42/1600242_image2_1.jpg",
    "category": "성"
  },
  {
    "id": "1620780",
    "title": "논현포대",
    "address": "인천광역시 남동구 호구포로 203-31",
    "phone": "",
    "latitude": "37.4019157566",
    "longitude": "126.7069003852",
    "image": "http://tong.visitkorea.or.kr/cms/resource/95/3393695_image2_1.JPG",
    "category": "성"
  },
  {
    "id": "125978",
    "title": "단양 온달산성",
    "address": "충청북도 단양군 영춘면 하리",
    "phone": "",
    "latitude": "37.0576269042",
    "longitude": "128.4846718729",
    "image": "",
    "category": "성"
  },
  {
    "id": "125922",
    "title": "단양 적성",
    "address": "충청북도 단양군 단성면 하방리 산3-1",
    "phone": "",
    "latitude": "36.9451117651",
    "longitude": "128.3217091917",
    "image": "http://tong.visitkorea.or.kr/cms/resource/07/3064007_image2_1.JPG",
    "category": "성"
  },
  {
    "id": "126407",
    "title": "담양 금성산성",
    "address": "전라남도 담양군 용면 도림리",
    "phone": "",
    "latitude": "35.3778868757",
    "longitude": "127.0356358020",
    "image": "",
    "category": "성"
  },
  {
    "id": "125962",
    "title": "당진면천읍성",
    "address": "충청남도 당진시 면천면 성상리",
    "phone": "",
    "latitude": "36.8169494008",
    "longitude": "126.6661117433",
    "image": "http://tong.visitkorea.or.kr/cms/resource/86/3537586_image2_1.jpg",
    "category": "성"
  },
  {
    "id": "128646",
    "title": "당포성 (한탄강 유네스코 세계지질공원)",
    "address": "경기도 연천군 미산면 마동로38번길 56",
    "phone": "",
    "latitude": "38.0221346645",
    "longitude": "126.9880737626",
    "image": "http://tong.visitkorea.or.kr/cms/resource/41/3518741_image2_1.jpg",
    "category": "성"
  },
  {
    "id": "1116189",
    "title": "대구 팔거산성",
    "address": "대구광역시 북구 노곡동",
    "phone": "",
    "latitude": "35.9249438290",
    "longitude": "128.5689245921",
    "image": "",
    "category": "성"
  },
  {
    "id": "128667",
    "title": "대국산성",
    "address": "경상남도 남해군 고현면 남치리",
    "phone": "",
    "latitude": "34.9008554928",
    "longitude": "127.8953945593",
    "image": "",
    "category": "성"
  },
  {
    "id": "2569487",
    "title": "덕진산성",
    "address": "경기도 파주시 군내면 정자리 13",
    "phone": "",
    "latitude": "37.9144794390",
    "longitude": "126.7711550825",
    "image": "http://tong.visitkorea.or.kr/cms/resource/70/3353870_image2_1.jpg",
    "category": "성"
  },
  {
    "id": "127718",
    "title": "독용산성",
    "address": "경상북도 성주군 금수강산면 사더래길 144",
    "phone": "",
    "latitude": "35.9064435413",
    "longitude": "128.1345773495",
    "image": "http://tong.visitkorea.or.kr/cms/resource/82/3047782_image2_1.jpg",
    "category": "성"
  },
  {
    "id": "1595444",
    "title": "동고산성",
    "address": "전북특별자치도 전주시 완산구 대성동",
    "phone": "",
    "latitude": "35.8109428727",
    "longitude": "127.1723152653",
    "image": "http://tong.visitkorea.or.kr/cms/resource/45/3550445_image2_1.jpg",
    "category": "성"
  },
  {
    "id": "2613657",
    "title": "동북공심돈",
    "address": "경기도 수원시 팔달구 매향동",
    "phone": "",
    "latitude": "37.2894511080",
    "longitude": "127.0245163019",
    "image": "http://tong.visitkorea.or.kr/cms/resource/12/3456912_image2_1.JPG",
    "category": "성"
  },
  {
    "id": "1603677",
    "title": "동십자각",
    "address": "서울특별시 종로구 삼청로 1",
    "phone": "",
    "latitude": "37.5761337030",
    "longitude": "126.9794373301",
    "image": "",
    "category": "성"
  },
  {
    "id": "125792",
    "title": "두타산성",
    "address": "강원특별자치도 동해시 삼화로 538 (삼화동)",
    "phone": "",
    "latitude": "37.4634293524",
    "longitude": "129.0194506792",
    "image": "http://tong.visitkorea.or.kr/cms/resource/18/3336218_image2_1.jpg",
    "category": "성"
  },
  {
    "id": "1620590",
    "title": "망양돈대",
    "address": "인천광역시 강화군 내가면 외포리",
    "phone": "",
    "latitude": "37.7010028786",
    "longitude": "126.3745557909",
    "image": "http://tong.visitkorea.or.kr/cms/resource/18/1579318_image2_1.jpg",
    "category": "성"
  },
  {
    "id": "2765301",
    "title": "망월돈대 및 장성",
    "address": "인천광역시 강화군 하점면 망월리 2107번지",
    "phone": "",
    "latitude": "37.7416894626",
    "longitude": "126.3553786415",
    "image": "http://tong.visitkorea.or.kr/cms/resource/28/3390128_image2_1.JPG",
    "category": "성"
  },
  {
    "id": "128283",
    "title": "망이산성",
    "address": "충청북도 음성군 삼성면 양덕리",
    "phone": "",
    "latitude": "37.0518508283",
    "longitude": "127.4897169988",
    "image": "",
    "category": "성"
  },
  {
    "id": "2568489",
    "title": "명성산성(울음산성)",
    "address": "강원특별자치도 철원군 갈말읍 명성산",
    "phone": "",
    "latitude": "38.1341254278",
    "longitude": "127.3501539683",
    "image": "",
    "category": "성"
  },
  {
    "id": "250350",
    "title": "목멱산 봉수대 터",
    "address": "서울특별시 중구 예장동",
    "phone": "",
    "latitude": "37.5520533130",
    "longitude": "126.9875150542",
    "image": "http://tong.visitkorea.or.kr/cms/resource/15/3477015_image2_1.JPG",
    "category": "성"
  },
  {
    "id": "127525",
    "title": "몽촌토성",
    "address": "서울특별시 송파구 올림픽로 424",
    "phone": "",
    "latitude": "37.5209871362",
    "longitude": "127.1229758237",
    "image": "",
    "category": "성"
  },
  {
    "id": "126531",
    "title": "무악산 동봉수대 터",
    "address": "서울특별시 서대문구 봉원동",
    "phone": "",
    "latitude": "37.5769524746",
    "longitude": "126.9472152446",
    "image": "http://tong.visitkorea.or.kr/cms/resource/11/3494411_image2_1.jpg",
    "category": "성"
  },
  {
    "id": "126908",
    "title": "무주 적상산성",
    "address": "전북특별자치도 무주군 적상면 괴목리",
    "phone": "",
    "latitude": "35.9544772105",
    "longitude": "127.6838104366",
    "image": "http://tong.visitkorea.or.kr/cms/resource/81/3559981_image2_1.jpg",
    "category": "성"
  },
  {
    "id": "1620640",
    "title": "무태돈대",
    "address": "인천광역시 강화군 하점면 창후리",
    "phone": "",
    "latitude": "37.7716304069",
    "longitude": "126.3550667265",
    "image": "http://tong.visitkorea.or.kr/cms/resource/03/3523503_image2_1.jpg",
    "category": "성"
  },
  {
    "id": "2792873",
    "title": "밀양읍성",
    "address": "경상남도 밀양시 영남루1길 16-11",
    "phone": "",
    "latitude": "35.4918128719",
    "longitude": "128.7564395511",
    "image": "http://tong.visitkorea.or.kr/cms/resource/27/3370027_image2_1.JPG",
    "category": "성"
  },
  {
    "id": "2613658",
    "title": "방화수류정(동북각루)",
    "address": "경기도 수원시 팔달구 수원천로392번길 44-6 (매향동)",
    "phone": "",
    "latitude": "37.2875900981",
    "longitude": "127.0181141575",
    "image": "http://tong.visitkorea.or.kr/cms/resource/91/3350291_image2_1.jpg",
    "category": "성"
  },
  {
    "id": "128796",
    "title": "별방진",
    "address": "제주특별자치도 제주시 구좌읍 하도리 3354",
    "phone": "",
    "latitude": "33.5262082208",
    "longitude": "126.8843912035",
    "image": "http://tong.visitkorea.or.kr/cms/resource/06/3100106_image2_1.jpg",
    "category": "성"
  },
  {
    "id": "125923",
    "title": "보령 충청수영성",
    "address": "충청남도 보령시 오천면 소성리",
    "phone": "",
    "latitude": "36.4394709310",
    "longitude": "126.5228041568",
    "image": "",
    "category": "성"
  },
  {
    "id": "125989",
    "title": "보은 삼년산성",
    "address": "충청북도 보은군 보은읍 성주1길 104",
    "phone": "",
    "latitude": "36.4887756376",
    "longitude": "127.7421489728",
    "image": "",
    "category": "성"
  },
  {
    "id": "2613659",
    "title": "봉돈",
    "address": "경기도 수원시 팔달구 남수동",
    "phone": "",
    "latitude": "37.2815519640",
    "longitude": "127.0212140450",
    "image": "http://tong.visitkorea.or.kr/cms/resource/92/3539092_image2_1.jpg",
    "category": "성"
  },
  {
    "id": "1608662",
    "title": "부산진성",
    "address": "부산광역시 동구 자성로 99",
    "phone": "",
    "latitude": "35.1357667829",
    "longitude": "129.0604644448",
    "image": "http://tong.visitkorea.or.kr/cms/resource/32/3492332_image2_1.jpg",
    "category": "성"
  },
  {
    "id": "129470",
    "title": "부여 가림성",
    "address": "충청남도 부여군 임천면 군사리",
    "phone": "",
    "latitude": "36.1971440944",
    "longitude": "126.8998127777",
    "image": "http://tong.visitkorea.or.kr/cms/resource/53/3422853_image2_1.png",
    "category": "성"
  },
  {
    "id": "250259",
    "title": "부여 나성 [유네스코 세계유산]",
    "address": "충청남도 부여군 부여읍 동문로142번길 100-11",
    "phone": "",
    "latitude": "36.2583128119",
    "longitude": "126.9410769085",
    "image": "http://tong.visitkorea.or.kr/cms/resource/65/3038865_image2_1.JPG",
    "category": "성"
  },
  {
    "id": "250258",
    "title": "부여 청마산성",
    "address": "충청남도 부여군 부여읍 능산리",
    "phone": "",
    "latitude": "36.2795636363",
    "longitude": "126.9686127658",
    "image": "http://tong.visitkorea.or.kr/cms/resource/97/3540397_image2_1.JPG",
    "category": "성"
  },
  {
    "id": "125550",
    "title": "북한산성",
    "address": "경기도 고양시 덕양구 북한동",
    "phone": "",
    "latitude": "37.6461530122",
    "longitude": "126.9612147838",
    "image": "http://tong.visitkorea.or.kr/cms/resource/10/3510110_image2_1.jpg",
    "category": "성"
  },
  {
    "id": "126197",
    "title": "사천선진리성",
    "address": "경상남도 사천시 용현면 선진리",
    "phone": "",
    "latitude": "35.0437198028",
    "longitude": "128.0411086497",
    "image": "http://tong.visitkorea.or.kr/cms/resource/24/3564424_image2_1.jpg",
    "category": "성"
  },
  {
    "id": "1622455",
    "title": "사천읍성",
    "address": "경상남도 사천시 사천읍 수양공원길 51",
    "phone": "",
    "latitude": "35.0841856326",
    "longitude": "128.0936474337",
    "image": "http://tong.visitkorea.or.kr/cms/resource/21/3374821_image2_1.JPG",
    "category": "성"
  },
  {
    "id": "129002",
    "title": "상주 금흔리 이부곡 토성",
    "address": "경상북도 상주시 사벌국면 금흔리",
    "phone": "",
    "latitude": "36.4420451800",
    "longitude": "128.2160219089",
    "image": "http://tong.visitkorea.or.kr/cms/resource/15/3410715_image2_1.jpg",
    "category": "성"
  },
  {
    "id": "125990",
    "title": "서산 해미읍성",
    "address": "충청남도 서산시 해미면 남문2로 143",
    "phone": "",
    "latitude": "36.7136093089",
    "longitude": "126.5503805299",
    "image": "http://tong.visitkorea.or.kr/cms/resource/01/2671501_image2_1.jpg",
    "category": "성"
  },
  {
    "id": "128185",
    "title": "서생포왜성",
    "address": "울산광역시 울주군 서생면 서생리",
    "phone": "",
    "latitude": "35.3834691158",
    "longitude": "129.3342504359",
    "image": "http://tong.visitkorea.or.kr/cms/resource/92/3077992_image2_1.bmp",
    "category": "성"
  },
  {
    "id": "125571",
    "title": "서운산성",
    "address": "경기도 안성시 서운면 산평리",
    "phone": "",
    "latitude": "36.9287443380",
    "longitude": "127.2668266570",
    "image": "http://tong.visitkorea.or.kr/cms/resource/60/2736260_image2_1.jpg",
    "category": "성"
  },
  {
    "id": "126520",
    "title": "서울 풍납동 토성",
    "address": "서울특별시 송파구 풍납동",
    "phone": "",
    "latitude": "37.5394516183",
    "longitude": "127.1207171711",
    "image": "",
    "category": "성"
  },
  {
    "id": "125798",
    "title": "설악산 권금성",
    "address": "강원특별자치도 속초시 설악산로 1085-3 (설악동)",
    "phone": "",
    "latitude": "38.1641490018",
    "longitude": "128.4881825695",
    "image": "http://tong.visitkorea.or.kr/cms/resource/36/3564436_image2_1.jpg",
    "category": "성"
  },
  {
    "id": "125555",
    "title": "수원 화성 [유네스코 세계유산]",
    "address": "경기도 수원시 장안구 영화동",
    "phone": "",
    "latitude": "37.2873511297",
    "longitude": "127.0121147092",
    "image": "http://tong.visitkorea.or.kr/cms/resource/36/2613036_image2_1.jpg",
    "category": "성"
  },
  {
    "id": "1612200",
    "title": "순창 대모산성",
    "address": "전북특별자치도 순창군 순창읍 백산리",
    "phone": "",
    "latitude": "35.3727889540",
    "longitude": "127.1233587202",
    "image": "http://tong.visitkorea.or.kr/cms/resource/54/3573454_image2_1.jpg",
    "category": "성"
  },
  {
    "id": "126850",
    "title": "순천 검단산성",
    "address": "전라남도 순천시 해룡면 성산리",
    "phone": "",
    "latitude": "34.9126009501",
    "longitude": "127.5501134027",
    "image": "",
    "category": "성"
  },
  {
    "id": "126749",
    "title": "순천왜성",
    "address": "전라남도 순천시 해룡면 신성리",
    "phone": "",
    "latitude": "34.9071215463",
    "longitude": "127.5811774833",
    "image": "http://tong.visitkorea.or.kr/cms/resource/51/3557751_image2_1.jpg",
    "category": "성"
  },
  {
    "id": "3553902",
    "title": "신산환해장성",
    "address": "제주특별자치도 서귀포시 성산읍 환해장성로 201",
    "phone": "",
    "latitude": "33.3860820885",
    "longitude": "126.8876302587",
    "image": "http://tong.visitkorea.or.kr/cms/resource/70/3553870_image2_1.jpg",
    "category": "성"
  },
  {
    "id": "250352",
    "title": "아차산 봉수대 터",
    "address": "서울특별시 중랑구 묵동",
    "phone": "",
    "latitude": "37.6086540883",
    "longitude": "127.0874154552",
    "image": "http://tong.visitkorea.or.kr/cms/resource/41/3494741_image2_1.jpg",
    "category": "성"
  },
  {
    "id": "126518",
    "title": "아차산성",
    "address": "서울특별시 광진구 광장동",
    "phone": "",
    "latitude": "37.5544523327",
    "longitude": "127.1029155869",
    "image": "http://tong.visitkorea.or.kr/cms/resource/57/3514057_image2_1.jpg",
    "category": "성"
  },
  {
    "id": "126989",
    "title": "양주 대모산성",
    "address": "경기도 양주시 백석읍 방성리",
    "phone": "",
    "latitude": "37.7867542066",
    "longitude": "127.0110145579",
    "image": "http://tong.visitkorea.or.kr/cms/resource/01/3496401_image2_1.jpg",
    "category": "성"
  },
  {
    "id": "2754455",
    "title": "언양읍성",
    "address": "울산광역시 울주군 언양읍 성안2길 53-4",
    "phone": "",
    "latitude": "35.5693026053",
    "longitude": "129.1226553607",
    "image": "http://tong.visitkorea.or.kr/cms/resource/71/3377671_image2_1.jpg",
    "category": "성"
  },
  {
    "id": "127392",
    "title": "여주 파사성",
    "address": "경기도 여주시 대신면 천서리",
    "phone": "",
    "latitude": "37.4106520981",
    "longitude": "127.5480181724",
    "image": "http://tong.visitkorea.or.kr/cms/resource/37/3060337_image2_1.jpg",
    "category": "성"
  },
  {
    "id": "128647",
    "title": "연천 호로고루",
    "address": "경기도 연천군 장남면 원당리",
    "phone": "",
    "latitude": "37.9853894157",
    "longitude": "126.8597699232",
    "image": "http://tong.visitkorea.or.kr/cms/resource/56/3332556_image2_1.jpg",
    "category": "성"
  },
  {
    "id": "3352604",
    "title": "연천호로고루",
    "address": "경기도 연천군 장남면 장남로163번길 128",
    "phone": "",
    "latitude": "37.9855477705",
    "longitude": "126.8619947151",
    "image": "http://tong.visitkorea.or.kr/cms/resource/40/3408940_image2_1.jpg",
    "category": "성"
  },
  {
    "id": "129219",
    "title": "영광법성진성",
    "address": "전라남도 영광군 법성면 진내리",
    "phone": "",
    "latitude": "35.3648922351",
    "longitude": "126.4425998711",
    "image": "http://tong.visitkorea.or.kr/cms/resource/80/3535880_image2_1.jpg",
    "category": "성"
  },
  {
    "id": "1614023",
    "title": "영남제일관",
    "address": "대구광역시 수성구 팔현길 248",
    "phone": "",
    "latitude": "35.8754399732",
    "longitude": "128.6582347697",
    "image": "http://tong.visitkorea.or.kr/cms/resource/22/3531622_image2_1.jpg",
    "category": "성"
  },
  {
    "id": "252545",
    "title": "영덕 대소산 봉수대",
    "address": "경상북도 영덕군 축산면 도곡리",
    "phone": "",
    "latitude": "36.5181455741",
    "longitude": "129.4319313916",
    "image": "http://tong.visitkorea.or.kr/cms/resource/23/3507123_image2_1.jpg",
    "category": "성"
  },
  {
    "id": "3078024",
    "title": "영암읍성",
    "address": "전라남도 영암군 영암읍 서남리",
    "phone": "",
    "latitude": "34.7983382842",
    "longitude": "126.6997132659",
    "image": "http://tong.visitkorea.or.kr/cms/resource/05/3054305_image2_1.jpg",
    "category": "성"
  },
  {
    "id": "125784",
    "title": "영월 정양산성(왕검성)",
    "address": "강원특별자치도 영월군 영월읍 중앙로 628",
    "phone": "",
    "latitude": "37.1522052020",
    "longitude": "128.4995760842",
    "image": "http://tong.visitkorea.or.kr/cms/resource/41/3039541_image2_1.jpg",
    "category": "성"
  },
  {
    "id": "125965",
    "title": "예산 임존성",
    "address": "충청남도 예산군 광시면 마사리 산28",
    "phone": "",
    "latitude": "36.5925271354",
    "longitude": "126.7747718444",
    "image": "http://tong.visitkorea.or.kr/cms/resource/02/3560102_image2_1.jpg",
    "category": "성"
  },
  {
    "id": "126845",
    "title": "오산 독산성과 세마대지",
    "address": "경기도 오산시 지곶동",
    "phone": "",
    "latitude": "37.1828522383",
    "longitude": "127.0190142203",
    "image": "http://tong.visitkorea.or.kr/cms/resource/89/3350089_image2_1.jpg",
    "category": "성"
  },
  {
    "id": "2605602",
    "title": "외양포 포진지",
    "address": "부산광역시 강서구 대항동",
    "phone": "",
    "latitude": "35.0056381443",
    "longitude": "128.8251995524",
    "image": "http://tong.visitkorea.or.kr/cms/resource/03/3342803_image2_1.jpg",
    "category": "성"
  },
  {
    "id": "128821",
    "title": "용진진",
    "address": "인천광역시 강화군 선원면 연리",
    "phone": "",
    "latitude": "37.7093182482",
    "longitude": "126.5138816793",
    "image": "http://tong.visitkorea.or.kr/cms/resource/87/3389387_image2_1.JPG",
    "category": "성"
  },
  {
    "id": "1393752",
    "title": "우가산유포봉수대",
    "address": "울산광역시 북구 당사동",
    "phone": "",
    "latitude": "35.5899399751",
    "longitude": "129.4605308373",
    "image": "http://tong.visitkorea.or.kr/cms/resource/48/3522948_image2_1.jpg",
    "category": "성"
  },
  {
    "id": "126376",
    "title": "우금산성",
    "address": "전북특별자치도 부안군 상서면 감교리",
    "phone": "",
    "latitude": "35.6673725467",
    "longitude": "126.6544789688",
    "image": "",
    "category": "성"
  },
  {
    "id": "125930",
    "title": "우산성",
    "address": "충청남도 청양군 청양읍 백천리",
    "phone": "",
    "latitude": "36.4568460850",
    "longitude": "126.8084141021",
    "image": "http://tong.visitkorea.or.kr/cms/resource/56/3497356_image2_1.JPG",
    "category": "성"
  },
  {
    "id": "125981",
    "title": "운주산성",
    "address": "세종특별자치시 전동면 청송리",
    "phone": "",
    "latitude": "36.6831471563",
    "longitude": "127.2419162323",
    "image": "http://tong.visitkorea.or.kr/cms/resource/34/3505134_image2_1.jpg",
    "category": "성"
  },
  {
    "id": "128675",
    "title": "웅천안골왜성",
    "address": "경상남도 창원시 진해구 안골동",
    "phone": "",
    "latitude": "35.0913725706",
    "longitude": "128.8021325826",
    "image": "http://tong.visitkorea.or.kr/cms/resource/55/3050355_image2_1.JPG",
    "category": "성"
  },
  {
    "id": "127226",
    "title": "웅천왜성",
    "address": "경상남도 창원시 진해구 남문동",
    "phone": "",
    "latitude": "35.0962435100",
    "longitude": "128.7616831971",
    "image": "http://tong.visitkorea.or.kr/cms/resource/07/3050407_image2_1.JPG",
    "category": "성"
  },
  {
    "id": "252558",
    "title": "원주 영원산성",
    "address": "강원특별자치도 원주시 판부면 금대리",
    "phone": "",
    "latitude": "37.3105144045",
    "longitude": "128.0383712173",
    "image": "http://tong.visitkorea.or.kr/cms/resource/60/3045660_image2_1.jpg",
    "category": "성"
  },
  {
    "id": "127910",
    "title": "위봉산성",
    "address": "전북특별자치도 완주군 소양면 대흥리",
    "phone": "",
    "latitude": "35.9051224481",
    "longitude": "127.2528722878",
    "image": "http://tong.visitkorea.or.kr/cms/resource/20/3353520_image2_1.jpg",
    "category": "성"
  },
  {
    "id": "2722250",
    "title": "음성 수정산성",
    "address": "충청북도 음성군 음성읍 읍내리",
    "phone": "",
    "latitude": "36.9387483520",
    "longitude": "127.7064201259",
    "image": "http://tong.visitkorea.or.kr/cms/resource/82/3489082_image2_1.JPG",
    "category": "성"
  },
  {
    "id": "126953",
    "title": "익산 미륵산성",
    "address": "전북특별자치도 익산시 금마면 구룡길 57-125",
    "phone": "",
    "latitude": "36.0210554973",
    "longitude": "127.0381133802",
    "image": "",
    "category": "성"
  },
  {
    "id": "126945",
    "title": "익산 오금산성",
    "address": "전북특별자치도 익산시 금마면 서고도리",
    "phone": "",
    "latitude": "35.9924420801",
    "longitude": "127.0372808731",
    "image": "",
    "category": "성"
  },
  {
    "id": "1620578",
    "title": "장곶돈대",
    "address": "인천광역시 강화군 화도면 장화리",
    "phone": "",
    "latitude": "37.6350021287",
    "longitude": "126.3681026559",
    "image": "http://tong.visitkorea.or.kr/cms/resource/60/3522960_image2_1.jpg",
    "category": "성"
  },
  {
    "id": "127204",
    "title": "장성 입암산성",
    "address": "전라남도 장성군 북하면 신성리 산 20",
    "phone": "",
    "latitude": "35.4766471016",
    "longitude": "126.8251297397",
    "image": "",
    "category": "성"
  },
  {
    "id": "705154",
    "title": "장흥 회령진성",
    "address": "전라남도 장흥군 회진면 회진리",
    "phone": "",
    "latitude": "34.4846552425",
    "longitude": "126.9389332004",
    "image": "http://tong.visitkorea.or.kr/cms/resource/85/3351185_image2_1.jpg",
    "category": "성"
  },
  {
    "id": "126620",
    "title": "전주 남고산성",
    "address": "전북특별자치도 전주시 완산구 남고산성1길 53-88 (동서학동)",
    "phone": "",
    "latitude": "35.7993106255",
    "longitude": "127.1586612282",
    "image": "http://tong.visitkorea.or.kr/cms/resource/25/3064725_image2_1.jpg",
    "category": "성"
  },
  {
    "id": "126390",
    "title": "정읍 고사부리성",
    "address": "전북특별자치도 정읍시 고부면 고부리",
    "phone": "",
    "latitude": "35.6246710103",
    "longitude": "126.7690254087",
    "image": "http://tong.visitkorea.or.kr/cms/resource/52/3520552_image2_1.jpg",
    "category": "성"
  },
  {
    "id": "1621165",
    "title": "정의현성",
    "address": "제주특별자치도 서귀포시 표선면 성읍리",
    "phone": "",
    "latitude": "33.3852280274",
    "longitude": "126.8021126853",
    "image": "http://tong.visitkorea.or.kr/cms/resource/50/3551950_image2_1.jpg",
    "category": "성"
  },
  {
    "id": "125952",
    "title": "제천 덕주산성",
    "address": "충청북도 제천시 한수면 송계리",
    "phone": "",
    "latitude": "36.8608587478",
    "longitude": "128.0874687050",
    "image": "http://tong.visitkorea.or.kr/cms/resource/16/3348516_image2_1.JPG",
    "category": "성"
  },
  {
    "id": "1627356",
    "title": "제천 청풍 망월산성",
    "address": "충청북도 제천시 청풍면 청풍호로 2048",
    "phone": "",
    "latitude": "37.0046326700",
    "longitude": "128.1710348542",
    "image": "http://tong.visitkorea.or.kr/cms/resource/27/3349827_image2_1.JPG",
    "category": "성"
  },
  {
    "id": "1393725",
    "title": "주전봉수대",
    "address": "울산광역시 동구 동해안로 230",
    "phone": "",
    "latitude": "35.5442532013",
    "longitude": "129.4477415807",
    "image": "http://tong.visitkorea.or.kr/cms/resource/84/3581984_image2_1.jpg",
    "category": "성"
  },
  {
    "id": "128287",
    "title": "죽주산성",
    "address": "경기도 안성시 죽산면 죽양대로 111-71",
    "phone": "",
    "latitude": "37.0895231758",
    "longitude": "127.4298268955",
    "image": "http://tong.visitkorea.or.kr/cms/resource/81/3558781_image2_1.jpg",
    "category": "성"
  },
  {
    "id": "126420",
    "title": "진도 남도진성",
    "address": "전라남도 진도군 임회면 남도길 8-8",
    "phone": "",
    "latitude": "34.3639033421",
    "longitude": "126.1646429842",
    "image": "http://tong.visitkorea.or.kr/cms/resource/48/3558148_image2_1.jpg",
    "category": "성"
  },
  {
    "id": "126424",
    "title": "진도 용장성",
    "address": "전라남도 진도군 군내면 용장산성길 92",
    "phone": "",
    "latitude": "34.5160973992",
    "longitude": "126.3380074769",
    "image": "http://tong.visitkorea.or.kr/cms/resource/53/3563653_image2_1.jpg",
    "category": "성"
  },
  {
    "id": "1624489",
    "title": "진도읍성",
    "address": "전라남도 진도군 진도읍 군강공원길 18",
    "phone": "",
    "latitude": "34.4864884560",
    "longitude": "126.2666533506",
    "image": "http://tong.visitkorea.or.kr/cms/resource/81/3557981_image2_1.jpg",
    "category": "성"
  },
  {
    "id": "126833",
    "title": "진주성",
    "address": "경상남도 진주시 남강로 626",
    "phone": "",
    "latitude": "35.1897457534",
    "longitude": "128.0802763856",
    "image": "http://tong.visitkorea.or.kr/cms/resource/91/3348491_image2_1.jpg",
    "category": "성"
  },
  {
    "id": "126565",
    "title": "창원 진례산성",
    "address": "경상남도 창원시 성산구 토월동",
    "phone": "",
    "latitude": "35.2281363192",
    "longitude": "128.7214692508",
    "image": "http://tong.visitkorea.or.kr/cms/resource/25/3476325_image2_1.jpg",
    "category": "성"
  },
  {
    "id": "125556",
    "title": "처인성",
    "address": "경기도 용인시 처인구 남사읍 처인성로 673",
    "phone": "",
    "latitude": "37.1484728013",
    "longitude": "127.1700626095",
    "image": "http://tong.visitkorea.or.kr/cms/resource/44/3068544_image2_1.jpg",
    "category": "성"
  },
  {
    "id": "1621437",
    "title": "청도읍성",
    "address": "경상북도 청도군 화양읍 동상리",
    "phone": "",
    "latitude": "35.6508523603",
    "longitude": "128.7066145338",
    "image": "http://tong.visitkorea.or.kr/cms/resource/38/3429438_image2_1.JPG",
    "category": "성"
  },
  {
    "id": "125964",
    "title": "청주 상당산성",
    "address": "충청북도 청주시 상당구 성내로 70",
    "phone": "",
    "latitude": "36.6619465629",
    "longitude": "127.5384568526",
    "image": "http://tong.visitkorea.or.kr/cms/resource/36/3353836_image2_1.jpg",
    "category": "성"
  },
  {
    "id": "127278",
    "title": "청주 정북동 토성",
    "address": "충청북도 청주시 청원구 정북동",
    "phone": "",
    "latitude": "36.6895391291",
    "longitude": "127.4556524083",
    "image": "http://tong.visitkorea.or.kr/cms/resource/40/2599140_image2_1.jpg",
    "category": "성"
  },
  {
    "id": "2793017",
    "title": "추화산성",
    "address": "경상남도 밀양시 교동",
    "phone": "",
    "latitude": "35.5038423190",
    "longitude": "128.7698269369",
    "image": "http://tong.visitkorea.or.kr/cms/resource/03/3499803_image2_1.jpg",
    "category": "성"
  },
  {
    "id": "128787",
    "title": "춘천봉의산성",
    "address": "강원특별자치도 춘천시 소양정길42번길 24 (소양로1가)",
    "phone": "",
    "latitude": "37.8921412746",
    "longitude": "127.7315485378",
    "image": "http://tong.visitkorea.or.kr/cms/resource/42/3381642_image2_1.JPG",
    "category": "성"
  },
  {
    "id": "1689639",
    "title": "충주 견학리 토성",
    "address": "충청북도 충주시 신니면 견학리",
    "phone": "",
    "latitude": "36.9840246277",
    "longitude": "127.7573809257",
    "image": "http://tong.visitkorea.or.kr/cms/resource/70/3063670_image2_1.JPG",
    "category": "성"
  },
  {
    "id": "125967",
    "title": "충주 남산성",
    "address": "충청북도 충주시 직동",
    "phone": "",
    "latitude": "36.9547820120",
    "longitude": "127.9761732157",
    "image": "",
    "category": "성"
  },
  {
    "id": "1686727",
    "title": "충주 대림산성",
    "address": "충청북도 충주시 살미면 향산리",
    "phone": "",
    "latitude": "36.9361472651",
    "longitude": "127.9339358728",
    "image": "http://tong.visitkorea.or.kr/cms/resource/75/3505075_image2_1.jpg",
    "category": "성"
  },
  {
    "id": "1688071",
    "title": "충주 장미산성",
    "address": "충청북도 충주시 중앙탑면 장천리",
    "phone": "",
    "latitude": "37.0465498290",
    "longitude": "127.8578951022",
    "image": "http://tong.visitkorea.or.kr/cms/resource/03/3561203_image2_1.JPG",
    "category": "성"
  },
  {
    "id": "126202",
    "title": "칠곡 가산산성",
    "address": "경상북도 칠곡군 가산면 가산리",
    "phone": "",
    "latitude": "36.0335429147",
    "longitude": "128.5844257430",
    "image": "http://tong.visitkorea.or.kr/cms/resource/82/3538682_image2_1.jpg",
    "category": "성"
  },
  {
    "id": "128909",
    "title": "태안 안흥진성",
    "address": "충청남도 태안군 근흥면 정죽리",
    "phone": "",
    "latitude": "36.6826478007",
    "longitude": "126.1563086740",
    "image": "http://tong.visitkorea.or.kr/cms/resource/78/3493978_image2_1.jpg",
    "category": "성"
  },
  {
    "id": "126988",
    "title": "파주 오두산성",
    "address": "경기도 파주시 탄현면 필승로 369",
    "phone": "",
    "latitude": "37.7730831489",
    "longitude": "126.6771204922",
    "image": "http://tong.visitkorea.or.kr/cms/resource/12/188812_image2_1.jpg",
    "category": "성"
  },
  {
    "id": "798265",
    "title": "포천 반월성",
    "address": "경기도 포천시 청군로3290번길 19",
    "phone": "",
    "latitude": "37.8937676966",
    "longitude": "127.2169009870",
    "image": "http://tong.visitkorea.or.kr/cms/resource/62/3529262_image2_1.jpg",
    "category": "성"
  },
  {
    "id": "529248",
    "title": "하남 이성산성",
    "address": "경기도 하남시 춘궁동",
    "phone": "",
    "latitude": "37.5252072139",
    "longitude": "127.1851617137",
    "image": "http://tong.visitkorea.or.kr/cms/resource/29/3566829_image2_1.jpg",
    "category": "성"
  },
  {
    "id": "126221",
    "title": "하동 고소성",
    "address": "경상남도 하동군 악양면 평사리",
    "phone": "",
    "latitude": "35.1544093298",
    "longitude": "127.6790514284",
    "image": "",
    "category": "성"
  },
  {
    "id": "2786876",
    "title": "하동읍성",
    "address": "경상남도 하동군 고전면 고하리 산120",
    "phone": "",
    "latitude": "35.0265791401",
    "longitude": "127.8308914053",
    "image": "http://tong.visitkorea.or.kr/cms/resource/46/2790846_image2_1.jpg",
    "category": "성"
  },
  {
    "id": "127902",
    "title": "합미성(장수)",
    "address": "전북특별자치도 장수군 장수읍 석천리",
    "phone": "",
    "latitude": "35.6045853774",
    "longitude": "127.4699137045",
    "image": "",
    "category": "성"
  },
  {
    "id": "125562",
    "title": "행주산성",
    "address": "경기도 고양시 덕양구 행주로15번길 89",
    "phone": "",
    "latitude": "37.5961203093",
    "longitude": "126.8264701618",
    "image": "http://tong.visitkorea.or.kr/cms/resource/32/3037232_image2_1.jpg",
    "category": "성"
  },
  {
    "id": "125959",
    "title": "홍성 홍주읍성",
    "address": "충청남도 홍성군 홍성읍 아문길 20-1",
    "phone": "",
    "latitude": "36.5997465556",
    "longitude": "126.6611596710",
    "image": "http://tong.visitkorea.or.kr/cms/resource/93/3062993_image2_1.jpg",
    "category": "성"
  },
  {
    "id": "126836",
    "title": "화도진지",
    "address": "인천광역시 동구 화도진로 114",
    "phone": "",
    "latitude": "37.4824827966",
    "longitude": "126.6288885948",
    "image": "http://tong.visitkorea.or.kr/cms/resource/54/3352254_image2_1.jpg",
    "category": "성"
  },
  {
    "id": "705590",
    "title": "화산산성",
    "address": "대구광역시 군위군 삼국유사면 화북리",
    "phone": "",
    "latitude": "36.0983475582",
    "longitude": "128.7813593127",
    "image": "http://tong.visitkorea.or.kr/cms/resource/80/3537580_image2_1.jpg",
    "category": "성"
  },
  {
    "id": "126986",
    "title": "화성 당성",
    "address": "경기도 화성시 서신면 상안리",
    "phone": "",
    "latitude": "37.1959814146",
    "longitude": "126.7131166185",
    "image": "http://tong.visitkorea.or.kr/cms/resource/35/3393235_image2_1.JPG",
    "category": "성"
  },
  {
    "id": "1620526",
    "title": "후애돈대",
    "address": "인천광역시 강화군 길상면 선두리",
    "phone": "",
    "latitude": "37.6011609627",
    "longitude": "126.4886536687",
    "image": "http://tong.visitkorea.or.kr/cms/resource/16/3380016_image2_1.jpg",
    "category": "성"
  },
  {
    "id": "1627205",
    "title": "흑성산성",
    "address": "충청남도 천안시 동남구 목천읍 교촌리",
    "phone": "",
    "latitude": "36.7969084905",
    "longitude": "127.2091271691",
    "image": "http://tong.visitkorea.or.kr/cms/resource/63/3356963_image2_1.JPG",
    "category": "성"
  }
]