[
  {
    "id": "2633896",
    "title": "가산수피아",
    "address": "경상북도 칠곡군 가산면 학하들안2길 105",
    "phone": "",
    "latitude": "36.0861545517",
    "longitude": "128.4850691574",
    "image": "http://tong.visitkorea.or.kr/cms/resource/48/3561648_image2_1.JPG",
    "category": "수목원"
  },
  {
    "id": "129212",
    "title": "가야산 야생화식물원",
    "address": "경상북도 성주군 수륜면 가야산식물원길 49",
    "phone": "",
    "latitude": "35.8031276100",
    "longitude": "128.1418573045",
    "image": "http://tong.visitkorea.or.kr/cms/resource/46/3519846_image2_1.jpg",
    "category": "수목원"
  },
  {
    "id": "3013529",
    "title": "가야정원",
    "address": "전라남도 순천시 해룡면 농주리",
    "phone": "",
    "latitude": "34.8619089390",
    "longitude": "127.5222504674",
    "image": "",
    "category": "수목원"
  },
  {
    "id": "3512952",
    "title": "가평베고니아새정원",
    "address": "경기도 가평군 설악면 미사리로270번길 30",
    "phone": "",
    "latitude": "37.6847254326",
    "longitude": "127.5241540660",
    "image": "http://tong.visitkorea.or.kr/cms/resource/73/3512773_image2_1.jpg",
    "category": "수목원"
  },
  {
    "id": "3018842",
    "title": "갈멜정원",
    "address": "전라남도 보성군 웅치면 일림로 530-26",
    "phone": "",
    "latitude": "34.7020883495",
    "longitude": "127.0538844612",
    "image": "http://tong.visitkorea.or.kr/cms/resource/19/3018819_image2_1.jpg",
    "category": "수목원"
  },
  {
    "id": "2414769",
    "title": "강릉 솔향수목원",
    "address": "강원특별자치도 강릉시 구정면 수목원길 156",
    "phone": "",
    "latitude": "37.6979158879",
    "longitude": "128.8617409792",
    "image": "http://tong.visitkorea.or.kr/cms/resource/70/3493370_image2_1.jpg",
    "category": "수목원"
  },
  {
    "id": "2648073",
    "title": "거제식물원",
    "address": "경상남도 거제시 거제면 거제남서로 3595",
    "phone": "",
    "latitude": "34.8568253143",
    "longitude": "128.5781500188",
    "image": "http://tong.visitkorea.or.kr/cms/resource/17/3521017_image2_1.jpg",
    "category": "수목원"
  },
  {
    "id": "127725",
    "title": "거제자연예술랜드",
    "address": "경상남도 거제시 동부면 동부로 209",
    "phone": "",
    "latitude": "34.8156946239",
    "longitude": "128.6240137852",
    "image": "http://tong.visitkorea.or.kr/cms/resource/70/3521070_image2_1.jpg",
    "category": "수목원"
  },
  {
    "id": "3032505",
    "title": "경북천년숲정원",
    "address": "경상북도 경주시 통일로 366-4 가든센터",
    "phone": "",
    "latitude": "35.8119525052",
    "longitude": "129.2421547209",
    "image": "http://tong.visitkorea.or.kr/cms/resource/35/3422535_image2_1.png",
    "category": "수목원"
  },
  {
    "id": "127816",
    "title": "경상남도수목원",
    "address": "경상남도 진주시 이반성면 수목원로 386",
    "phone": "",
    "latitude": "35.1627970884",
    "longitude": "128.2967442443",
    "image": "http://tong.visitkorea.or.kr/cms/resource/56/3538856_image2_1.jpg",
    "category": "수목원"
  },
  {
    "id": "704151",
    "title": "경상북도 산림환경연구원",
    "address": "경상북도 경주시 통일로 367 (배반동)",
    "phone": "",
    "latitude": "35.8121774663",
    "longitude": "129.2414186674",
    "image": "http://tong.visitkorea.or.kr/cms/resource/69/3510669_image2_1.jpg",
    "category": "수목원"
  },
  {
    "id": "127432",
    "title": "경상북도수목원",
    "address": "경상북도 포항시 북구 죽장면 수목원로 647",
    "phone": "",
    "latitude": "36.2152572184",
    "longitude": "129.2596888030",
    "image": "http://tong.visitkorea.or.kr/cms/resource/96/3042796_image2_1.jpg",
    "category": "수목원"
  },
  {
    "id": "2773857",
    "title": "경포플라워가든",
    "address": "강원특별자치도 강릉시 초당동 459-28",
    "phone": "",
    "latitude": "37.7979885609",
    "longitude": "128.9086892141",
    "image": "http://tong.visitkorea.or.kr/cms/resource/01/3490801_image2_1.jpg",
    "category": "수목원"
  },
  {
    "id": "2478983",
    "title": "고산골 메타쉐콰이어길",
    "address": "대구광역시 남구 용두2길 43",
    "phone": "",
    "latitude": "35.8300524321",
    "longitude": "128.6034408589",
    "image": "http://tong.visitkorea.or.kr/cms/resource/36/3338336_image2_1.jpg",
    "category": "수목원"
  },
  {
    "id": "127852",
    "title": "고운식물원",
    "address": "충청남도 청양군 청양읍 식물원길 398-23",
    "phone": "",
    "latitude": "36.4363087461",
    "longitude": "126.7618577237",
    "image": "http://tong.visitkorea.or.kr/cms/resource/38/3568338_image2_1.jpg",
    "category": "수목원"
  },
  {
    "id": "2774110",
    "title": "고원화목원",
    "address": "전북특별자치도 진안군 백운면 덕현리 678-3",
    "phone": "",
    "latitude": "35.6832081835",
    "longitude": "127.3777448095",
    "image": "http://tong.visitkorea.or.kr/cms/resource/01/2774201_image2_1.jpg",
    "category": "수목원"
  },
  {
    "id": "2782765",
    "title": "곰내연밭",
    "address": "부산광역시 기장군 철마면 웅천리 254-4",
    "phone": "",
    "latitude": "35.2954092493",
    "longitude": "129.1695450043",
    "image": "http://tong.visitkorea.or.kr/cms/resource/58/2794158_image2_1.jpg",
    "category": "수목원"
  },
  {
    "id": "2615455",
    "title": "과천야생화자연학습장",
    "address": "경기도 과천시 갈현동",
    "phone": "",
    "latitude": "37.4208515836",
    "longitude": "126.9709147100",
    "image": "http://tong.visitkorea.or.kr/cms/resource/51/3537351_image2_1.jpg",
    "category": "수목원"
  },
  {
    "id": "128981",
    "title": "관방제림",
    "address": "전라남도 담양군 담양읍 죽녹원로 98",
    "phone": "",
    "latitude": "35.3235005111",
    "longitude": "126.9856777193",
    "image": "http://tong.visitkorea.or.kr/cms/resource/57/3533957_image2_1.jpg",
    "category": "수목원"
  },
  {
    "id": "3001143",
    "title": "구례수목원",
    "address": "전라남도 구례군 산동면 탑동1길 125",
    "phone": "",
    "latitude": "35.3035190904",
    "longitude": "127.4502982755",
    "image": "",
    "category": "수목원"
  },
  {
    "id": "3547593",
    "title": "국립DMZ자생식물원",
    "address": "강원특별자치도 양구군 해안면 펀치볼로 916-70",
    "phone": "",
    "latitude": "38.2534647092",
    "longitude": "128.1128389843",
    "image": "http://tong.visitkorea.or.kr/cms/resource/72/3547572_image2_1.jpg",
    "category": "수목원"
  },
  {
    "id": "2508220",
    "title": "국립백두대간수목원",
    "address": "경상북도 봉화군 춘양면 춘양로 1501",
    "phone": "",
    "latitude": "37.0081335894",
    "longitude": "128.8299535859",
    "image": "http://tong.visitkorea.or.kr/cms/resource/34/3073134_image2_1.jpg",
    "category": "수목원"
  },
  {
    "id": "2675068",
    "title": "국립세종수목원",
    "address": "세종특별자치시 수목원로 136 (세종동)",
    "phone": "",
    "latitude": "36.4986579981",
    "longitude": "127.2857090051",
    "image": "http://tong.visitkorea.or.kr/cms/resource/85/3505085_image2_1.jpg",
    "category": "수목원"
  },
  {
    "id": "127497",
    "title": "국립수목원(광릉숲)",
    "address": "경기도 포천시 소흘읍 광릉수목원로 509",
    "phone": "",
    "latitude": "37.7595768998",
    "longitude": "127.1690120221",
    "image": "http://tong.visitkorea.or.kr/cms/resource/63/3493563_image2_1.jpg",
    "category": "수목원"
  },
  {
    "id": "1604580",
    "title": "국립중앙박물관 전통염료식물원",
    "address": "서울특별시 용산구 서빙고로 137 (용산동6가)",
    "phone": "",
    "latitude": "37.5211706397",
    "longitude": "126.9791278024",
    "image": "http://tong.visitkorea.or.kr/cms/resource/52/3505552_image2_1.jpg",
    "category": "수목원"
  },
  {
    "id": "127901",
    "title": "국립한국자생식물원",
    "address": "강원특별자치도 평창군 대관령면 비안길 150-3",
    "phone": "",
    "latitude": "37.7069461800",
    "longitude": "128.6149990499",
    "image": "http://tong.visitkorea.or.kr/cms/resource/48/3537348_image2_1.jpg",
    "category": "수목원"
  },
  {
    "id": "2723320",
    "title": "그레이스 정원",
    "address": "경상남도 고성군 상리면 삼상로 1312-71",
    "phone": "",
    "latitude": "34.9747381410",
    "longitude": "128.1690325958",
    "image": "http://tong.visitkorea.or.kr/cms/resource/70/3568970_image2_1.jpg",
    "category": "수목원"
  },
  {
    "id": "128958",
    "title": "그림같은 수목원(그림이 있는 정원)",
    "address": "충청남도 홍성군 광천읍 충서로400번길 102-36",
    "phone": "",
    "latitude": "36.5196330035",
    "longitude": "126.6297590739",
    "image": "http://tong.visitkorea.or.kr/cms/resource/41/2737241_image2_1.jpg",
    "category": "수목원"
  },
  {
    "id": "2769683",
    "title": "그림같은수목원",
    "address": "충청남도 홍성군 광천읍 충서로400번길 102-36",
    "phone": "",
    "latitude": "36.5198135343",
    "longitude": "126.6295285338",
    "image": "http://tong.visitkorea.or.kr/cms/resource/61/2770761_image2_1.jpg",
    "category": "수목원"
  },
  {
    "id": "2790930",
    "title": "금강로하스 대청공원 (암석식물원)",
    "address": "대전광역시 대덕구 미호동",
    "phone": "",
    "latitude": "36.4714477773",
    "longitude": "127.4726180019",
    "image": "http://tong.visitkorea.or.kr/cms/resource/06/3336206_image2_1.jpg",
    "category": "수목원"
  },
  {
    "id": "128830",
    "title": "금강식물원",
    "address": "부산광역시 금정구 장전동 산 43-1",
    "phone": "",
    "latitude": "35.2264763727",
    "longitude": "129.0770632920",
    "image": "http://tong.visitkorea.or.kr/cms/resource/04/3070504_image2_1.JPG",
    "category": "수목원"
  },
  {
    "id": "127860",
    "title": "금능석물원",
    "address": "제주특별자치도 제주시 한림읍 한림로 176",
    "phone": "",
    "latitude": "33.3854910837",
    "longitude": "126.2267487402",
    "image": "http://tong.visitkorea.or.kr/cms/resource/73/3053373_image2_1.jpg",
    "category": "수목원"
  },
  {
    "id": "2001706",
    "title": "기청산식물원",
    "address": "경상북도 포항시 북구 청하면 청하로175번길 50",
    "phone": "",
    "latitude": "36.1955996967",
    "longitude": "129.3309081081",
    "image": "http://tong.visitkorea.or.kr/cms/resource/41/3411041_image2_1.jpg",
    "category": "수목원"
  },
  {
    "id": "2770963",
    "title": "나남수목원",
    "address": "경기도 포천시 신북면 청신로1196번길 56",
    "phone": "",
    "latitude": "37.9481851456",
    "longitude": "127.1508026709",
    "image": "",
    "category": "수목원"
  },
  {
    "id": "2765253",
    "title": "나주은행나무수목원",
    "address": "전라남도 나주시 남평읍 동촌로 236-42",
    "phone": "",
    "latitude": "35.0518681087",
    "longitude": "126.8689809723",
    "image": "http://tong.visitkorea.or.kr/cms/resource/50/3570850_image2_1.jpg",
    "category": "수목원"
  },
  {
    "id": "1603482",
    "title": "남산 야외식물원",
    "address": "서울특별시 용산구 이태원동",
    "phone": "",
    "latitude": "37.5426517608",
    "longitude": "126.9949146460",
    "image": "http://tong.visitkorea.or.kr/cms/resource/09/3506309_image2_1.jpg",
    "category": "수목원"
  },
  {
    "id": "2638439",
    "title": "남원 아담원",
    "address": "전북특별자치도 남원시 이백면 목가길 193",
    "phone": "",
    "latitude": "35.4406123944",
    "longitude": "127.4768423766",
    "image": "http://tong.visitkorea.or.kr/cms/resource/68/3497368_image2_1.JPG",
    "category": "수목원"
  },
  {
    "id": "2414865",
    "title": "내장산수목원",
    "address": "전북특별자치도 정읍시 내장호반로 194-28",
    "phone": "",
    "latitude": "35.5099112372",
    "longitude": "126.8981779623",
    "image": "http://tong.visitkorea.or.kr/cms/resource/35/3365735_image2_1.JPG",
    "category": "수목원"
  },
  {
    "id": "2774274",
    "title": "노원 불빛정원",
    "address": "서울특별시 노원구 화랑로 608 (공릉동)",
    "phone": "",
    "latitude": "37.6245051267",
    "longitude": "127.0931061506",
    "image": "http://tong.visitkorea.or.kr/cms/resource/98/3566898_image2_1.jpg",
    "category": "수목원"
  },
  {
    "id": "3032110",
    "title": "놀이정원풀빛",
    "address": "경기도 용인시 기흥구 하갈로136번길 6 (하갈동)",
    "phone": "",
    "latitude": "37.2585199309",
    "longitude": "127.1001214201",
    "image": "http://tong.visitkorea.or.kr/cms/resource/88/3032088_image2_1.jpg",
    "category": "수목원"
  },
  {
    "id": "3018956",
    "title": "다화림식물원&치유정원",
    "address": "전라남도 담양군 대전면 추성1로 419-150",
    "phone": "",
    "latitude": "35.2962437681",
    "longitude": "126.8978167446",
    "image": "http://tong.visitkorea.or.kr/cms/resource/47/3581247_image2_1.jpg",
    "category": "수목원"
  },
  {
    "id": "2755480",
    "title": "달빛소리 수목원",
    "address": "전북특별자치도 익산시 춘포면 천서길 149",
    "phone": "",
    "latitude": "35.9398452252",
    "longitude": "127.0330409637",
    "image": "http://tong.visitkorea.or.kr/cms/resource/66/3576166_image2_1.jpg",
    "category": "수목원"
  },
  {
    "id": "2753886",
    "title": "대가야수목원",
    "address": "경상북도 고령군 대가야읍 성산로 46",
    "phone": "",
    "latitude": "35.7285636871",
    "longitude": "128.2872603976",
    "image": "http://tong.visitkorea.or.kr/cms/resource/15/3516915_image2_1.jpg",
    "category": "수목원"
  },
  {
    "id": "1088282",
    "title": "대구 도동 측백나무 숲",
    "address": "대구광역시 동구 도평로",
    "phone": "",
    "latitude": "35.9182241168",
    "longitude": "128.6635775484",
    "image": "http://tong.visitkorea.or.kr/cms/resource/82/3521282_image2_1.jpg",
    "category": "수목원"
  },
  {
    "id": "3416231",
    "title": "대구 세천늪테마정원",
    "address": "대구광역시 달성군 다사읍 세천리",
    "phone": "",
    "latitude": "35.8779445286",
    "longitude": "128.4685236408",
    "image": "http://tong.visitkorea.or.kr/cms/resource/47/3572047_image2_1.jpg",
    "category": "수목원"
  },
  {
    "id": "128120",
    "title": "대구수목원",
    "address": "대구광역시 달서구 화암로 342 (대곡동)",
    "phone": "",
    "latitude": "35.8026901159",
    "longitude": "128.5206544628",
    "image": "http://tong.visitkorea.or.kr/cms/resource/91/2675691_image2_1.jpg",
    "category": "수목원"
  },
  {
    "id": "2758443",
    "title": "대산플라워랜드",
    "address": "경상남도 창원시 의창구 대산면 모산리",
    "phone": "",
    "latitude": "35.3563385018",
    "longitude": "128.7169689369",
    "image": "http://tong.visitkorea.or.kr/cms/resource/39/3569239_image2_1.jpg",
    "category": "수목원"
  },
  {
    "id": "125415",
    "title": "대아수목원",
    "address": "전북특별자치도 완주군 동상면 대아리",
    "phone": "",
    "latitude": "35.9753875222",
    "longitude": "127.3016188659",
    "image": "http://tong.visitkorea.or.kr/cms/resource/27/3564527_image2_1.jpg",
    "category": "수목원"
  },
  {
    "id": "2783380",
    "title": "대연수목전시원",
    "address": "부산광역시 남구 신선로447번길 24 (대연동)",
    "phone": "",
    "latitude": "35.1251964498",
    "longitude": "129.0986919647",
    "image": "http://tong.visitkorea.or.kr/cms/resource/56/2795656_image2_1.jpg",
    "category": "수목원"
  },
  {
    "id": "2742300",
    "title": "대한수목원",
    "address": "대구광역시 동구 파계로 446-42",
    "phone": "",
    "latitude": "35.9738311385",
    "longitude": "128.6329120276",
    "image": "",
    "category": "수목원"
  },
  {
    "id": "3079601",
    "title": "더스테이힐링파크",
    "address": "경기도 가평군 설악면 한서로268번길 157",
    "phone": "",
    "latitude": "37.6613503648",
    "longitude": "127.5239158795",
    "image": "http://tong.visitkorea.or.kr/cms/resource/81/3079581_image2_1.JPG",
    "category": "수목원"
  },
  {
    "id": "2514731",
    "title": "덕평공룡수목원",
    "address": "경기도 이천시 마장면 작촌로 282",
    "phone": "",
    "latitude": "37.2336187677",
    "longitude": "127.3384366430",
    "image": "http://tong.visitkorea.or.kr/cms/resource/80/3304780_image2_1.jpg",
    "category": "수목원"
  },
  {
    "id": "3025685",
    "title": "도담정원",
    "address": "충청북도 단양군 단양읍 도담리",
    "phone": "",
    "latitude": "36.9980506782",
    "longitude": "128.3510244717",
    "image": "http://tong.visitkorea.or.kr/cms/resource/18/3562018_image2_1.JPG",
    "category": "수목원"
  },
  {
    "id": "3545719",
    "title": "돌낭예술원",
    "address": "제주특별자치도 서귀포시 남원읍 서성로 544-35",
    "phone": "",
    "latitude": "33.3197995548",
    "longitude": "126.6546158430",
    "image": "http://tong.visitkorea.or.kr/cms/resource/25/3545625_image2_1.jpg",
    "category": "수목원"
  },
  {
    "id": "2806043",
    "title": "동백포레스트",
    "address": "제주특별자치도 서귀포시 남원읍 생기악로 53-38",
    "phone": "",
    "latitude": "33.3003486310",
    "longitude": "126.6362150996",
    "image": "",
    "category": "수목원"
  },
  {
    "id": "3018923",
    "title": "동악산 하늘정원",
    "address": "전라남도 곡성군 곡성읍 월봉리",
    "phone": "",
    "latitude": "35.2634678422",
    "longitude": "127.2771673634",
    "image": "",
    "category": "수목원"
  },
  {
    "id": "2657952",
    "title": "동화마을수목원",
    "address": "강원특별자치도 원주시 문막읍 동화골길 170",
    "phone": "",
    "latitude": "37.3152299043",
    "longitude": "127.8553431434",
    "image": "http://tong.visitkorea.or.kr/cms/resource/75/3479175_image2_1.jpg",
    "category": "수목원"
  },
  {
    "id": "3075146",
    "title": "레인보우식물원",
    "address": "충청북도 영동군 영동읍 영동힐링로 241-42",
    "phone": "",
    "latitude": "36.1624165456",
    "longitude": "127.7898425931",
    "image": "http://tong.visitkorea.or.kr/cms/resource/25/3075125_image2_1.jpg",
    "category": "수목원"
  },
  {
    "id": "2778965",
    "title": "로미지안 가든",
    "address": "강원특별자치도 정선군 북평면 어래길 20",
    "phone": "",
    "latitude": "37.4412412448",
    "longitude": "128.6397770982",
    "image": "http://tong.visitkorea.or.kr/cms/resource/53/3352853_image2_1.jpg",
    "category": "수목원"
  },
  {
    "id": "129423",
    "title": "만화방초",
    "address": "경상남도 고성군 거류면 은황길 82-91",
    "phone": "",
    "latitude": "34.9607046716",
    "longitude": "128.3849946601",
    "image": "http://tong.visitkorea.or.kr/cms/resource/74/3045174_image2_1.JPG",
    "category": "수목원"
  },
  {
    "id": "3486675",
    "title": "메덩골정원",
    "address": "경기도 양평군 양동면 메덩골길 1",
    "phone": "",
    "latitude": "37.4941068741",
    "longitude": "127.7288799325",
    "image": "http://tong.visitkorea.or.kr/cms/resource/68/3486668_image2_1.jpg",
    "category": "수목원"
  },
  {
    "id": "3051657",
    "title": "명상정원",
    "address": "대전광역시 동구 추동",
    "phone": "",
    "latitude": "36.3795474248",
    "longitude": "127.4860165374",
    "image": "http://tong.visitkorea.or.kr/cms/resource/89/3051589_image2_1.JPG",
    "category": "수목원"
  },
  {
    "id": "129203",
    "title": "목계솔밭(충주)",
    "address": "충청북도 충주시 중앙탑면 장천리",
    "phone": "",
    "latitude": "37.0740498600",
    "longitude": "127.8807200387",
    "image": "http://tong.visitkorea.or.kr/cms/resource/54/3560854_image2_1.JPG",
    "category": "수목원"
  },
  {
    "id": "2774013",
    "title": "무궁화수목원",
    "address": "강원특별자치도 홍천군 북방면 영서로 2937-12",
    "phone": "",
    "latitude": "37.7212963930",
    "longitude": "127.8350191968",
    "image": "http://tong.visitkorea.or.kr/cms/resource/39/3450139_image2_1.jpg",
    "category": "수목원"
  },
  {
    "id": "2781609",
    "title": "무릉도원수목원",
    "address": "경기도 부천시 춘의동",
    "phone": "",
    "latitude": "37.5033531695",
    "longitude": "126.8182151887",
    "image": "http://tong.visitkorea.or.kr/cms/resource/06/2782006_image2_1.jpg",
    "category": "수목원"
  },
  {
    "id": "2633910",
    "title": "물맑음수목원",
    "address": "경기도 남양주시 수동면 지둔로307번길 47-4",
    "phone": "",
    "latitude": "37.7058187921",
    "longitude": "127.2956131424",
    "image": "http://tong.visitkorea.or.kr/cms/resource/36/3507936_image2_1.jpg",
    "category": "수목원"
  },
  {
    "id": "2675000",
    "title": "물무산 행복숲",
    "address": "전라남도 영광군 영광읍 물무로 219",
    "phone": "",
    "latitude": "35.2703736263",
    "longitude": "126.5167706243",
    "image": "http://tong.visitkorea.or.kr/cms/resource/86/2825886_image2_1.jpg",
    "category": "수목원"
  },
  {
    "id": "3487756",
    "title": "물빛소리정원",
    "address": "경상남도 통영시 도산면 도산일주로 1278-57",
    "phone": "",
    "latitude": "34.8802571745",
    "longitude": "128.3318125264",
    "image": "http://tong.visitkorea.or.kr/cms/resource/50/3487750_image2_1.jpg",
    "category": "수목원"
  },
  {
    "id": "2602619",
    "title": "물의 정원",
    "address": "경기도 남양주시 조안면 북한강로 398",
    "phone": "",
    "latitude": "37.5575613373",
    "longitude": "127.3132463631",
    "image": "http://tong.visitkorea.or.kr/cms/resource/12/2675412_image2_1.jpg",
    "category": "수목원"
  },
  {
    "id": "128986",
    "title": "물향기수목원",
    "address": "경기도 오산시 청학로 211 (수청동)",
    "phone": "",
    "latitude": "37.1674242378",
    "longitude": "127.0622135136",
    "image": "http://tong.visitkorea.or.kr/cms/resource/61/3057861_image2_1.JPG",
    "category": "수목원"
  },
  {
    "id": "127817",
    "title": "미동산수목원",
    "address": "충청북도 청주시 상당구 미원면 수목원길 51",
    "phone": "",
    "latitude": "36.6274834238",
    "longitude": "127.6688766755",
    "image": "http://tong.visitkorea.or.kr/cms/resource/06/3461406_image2_1.jpg",
    "category": "수목원"
  },
  {
    "id": "2633912",
    "title": "바다향기수목원",
    "address": "경기도 안산시 단원구 대부황금로 399",
    "phone": "",
    "latitude": "37.2250713187",
    "longitude": "126.6465274274",
    "image": "http://tong.visitkorea.or.kr/cms/resource/78/3500078_image2_1.jpg",
    "category": "수목원"
  },
  {
    "id": "2606226",
    "title": "바람새마을 소풍정원",
    "address": "경기도 평택시 고덕면 새악길 43-42",
    "phone": "",
    "latitude": "37.0117359155",
    "longitude": "127.0196994562",
    "image": "",
    "category": "수목원"
  },
  {
    "id": "2847171",
    "title": "배알도 섬 정원",
    "address": "전라남도 광양시 태인동",
    "phone": "",
    "latitude": "34.9637377342",
    "longitude": "127.7598187028",
    "image": "http://tong.visitkorea.or.kr/cms/resource/76/3520276_image2_1.jpg",
    "category": "수목원"
  },
  {
    "id": "730441",
    "title": "베어트리파크",
    "address": "세종특별자치시 전동면 신송로 217",
    "phone": "",
    "latitude": "36.6728227784",
    "longitude": "127.2101554814",
    "image": "http://tong.visitkorea.or.kr/cms/resource/08/3499108_image2_1.jpg",
    "category": "수목원"
  },
  {
    "id": "128626",
    "title": "벽초지수목원",
    "address": "경기도 파주시 광탄면 부흥로 242",
    "phone": "",
    "latitude": "37.8005084799",
    "longitude": "126.8745266442",
    "image": "http://tong.visitkorea.or.kr/cms/resource/14/3527114_image2_1.jpg",
    "category": "수목원"
  },
  {
    "id": "2829019",
    "title": "보령 무궁화수목원",
    "address": "충청남도 보령시 성주면 성주산로 318-57",
    "phone": "041-931-6092",
    "latitude": "36.3343683198",
    "longitude": "126.6388575838",
    "image": "http://tong.visitkorea.or.kr/cms/resource/50/3568050_image2_1.jpg",
    "category": "수목원"
  },
  {
    "id": "250456",
    "title": "봉학골산림욕장",
    "address": "충청북도 음성군 음성읍 용광로230번길 138",
    "phone": "043-871-5921",
    "latitude": "36.9720192434",
    "longitude": "127.6911150050",
    "image": "http://tong.visitkorea.or.kr/cms/resource/86/3350486_image2_1.JPG",
    "category": "수목원"
  },
  {
    "id": "129702",
    "title": "봉화 금강소나무림",
    "address": "경상북도 봉화군 소천면 청옥로 1261-32",
    "phone": "",
    "latitude": "37.0198267792",
    "longitude": "128.9792899185",
    "image": "http://tong.visitkorea.or.kr/cms/resource/05/3042605_image2_1.jpg",
    "category": "수목원"
  },
  {
    "id": "407030",
    "title": "부천식물원",
    "address": "경기도 부천시 원미구 길주로 660 (춘의동)",
    "phone": "",
    "latitude": "37.5056250825",
    "longitude": "126.8156736899",
    "image": "http://tong.visitkorea.or.kr/cms/resource/69/3020269_image2_1.jpg",
    "category": "수목원"
  },
  {
    "id": "126472",
    "title": "비자림",
    "address": "제주특별자치도 제주시 구좌읍 비자숲길 55",
    "phone": "",
    "latitude": "33.4862530625",
    "longitude": "126.8074904603",
    "image": "http://tong.visitkorea.or.kr/cms/resource/22/3350622_image2_1.jpg",
    "category": "수목원"
  },
  {
    "id": "3029628",
    "title": "빛누리정원",
    "address": "경상북도 경주시 용담로 107 (황성동)",
    "phone": "",
    "latitude": "35.8644098626",
    "longitude": "129.2098143938",
    "image": "http://tong.visitkorea.or.kr/cms/resource/04/3509104_image2_1.jpg",
    "category": "수목원"
  },
  {
    "id": "2742135",
    "title": "뿌리깊은나무숲",
    "address": "경기도 의왕시 학의동 474-1",
    "phone": "",
    "latitude": "37.3844648924",
    "longitude": "127.0131257831",
    "image": "",
    "category": "수목원"
  },
  {
    "id": "1312443",
    "title": "산들소리",
    "address": "경기도 남양주시 불암산로59번길 48-31 (별내동)",
    "phone": "",
    "latitude": "37.6512105067",
    "longitude": "127.1015407308",
    "image": "http://tong.visitkorea.or.kr/cms/resource/43/3537243_image2_1.jpg",
    "category": "수목원"
  },
  {
    "id": "2850704",
    "title": "산소카페 청송정원",
    "address": "경상북도 청송군 파천면 청송로 5865",
    "phone": "",
    "latitude": "36.4842166583",
    "longitude": "129.0266154306",
    "image": "http://tong.visitkorea.or.kr/cms/resource/68/3450568_image2_1.JPG",
    "category": "수목원"
  },
  {
    "id": "3336621",
    "title": "산이정원",
    "address": "전라남도 해남군 산이면 구성리",
    "phone": "",
    "latitude": "34.7096793786",
    "longitude": "126.3967115799",
    "image": "http://tong.visitkorea.or.kr/cms/resource/78/3486178_image2_1.jpg",
    "category": "수목원"
  },
  {
    "id": "2736675",
    "title": "삼선산수목원",
    "address": "충청남도 당진시 고대면 삼선산수목원길 79",
    "phone": "",
    "latitude": "36.9098928712",
    "longitude": "126.5879774237",
    "image": "http://tong.visitkorea.or.kr/cms/resource/85/2736885_image2_1.jpg",
    "category": "수목원"
  },
  {
    "id": "2776835",
    "title": "삼척미로정원",
    "address": "강원특별자치도 삼척시 미로면 동안로 540",
    "phone": "",
    "latitude": "37.4441270181",
    "longitude": "129.0707077890",
    "image": "http://tong.visitkorea.or.kr/cms/resource/43/2776843_image2_1.JPG",
    "category": "수목원"
  },
  {
    "id": "2738734",
    "title": "상효원수목원",
    "address": "제주특별자치도 서귀포시 산록남로 2847-37",
    "phone": "",
    "latitude": "33.3072442933",
    "longitude": "126.5860192949",
    "image": "http://tong.visitkorea.or.kr/cms/resource/13/3533613_image2_1.jpg",
    "category": "수목원"
  },
  {
    "id": "125445",
    "title": "생각하는 정원",
    "address": "제주특별자치도 제주시 한경면 녹차분재로 675",
    "phone": "",
    "latitude": "33.3254009536",
    "longitude": "126.2551753838",
    "image": "http://tong.visitkorea.or.kr/cms/resource/20/3027020_image2_1.jpg",
    "category": "수목원"
  },
  {
    "id": "2836814",
    "title": "서귀포칠십리시공원",
    "address": "제주특별자치도 서귀포시 현청로 41-19 (서홍동)",
    "phone": "",
    "latitude": "33.2668788062",
    "longitude": "126.5546645878",
    "image": "http://tong.visitkorea.or.kr/cms/resource/12/2836812_image2_1.jpg",
    "category": "수목원"
  },
  {
    "id": "129207",
    "title": "서벽금강소나무숲",
    "address": "경상북도 봉화군 춘양면 서벽리",
    "phone": "",
    "latitude": "36.9933404720",
    "longitude": "128.8106224173",
    "image": "http://tong.visitkorea.or.kr/cms/resource/30/3028930_image2_1.JPG",
    "category": "수목원"
  },
  {
    "id": "2589349",
    "title": "서울식물원",
    "address": "서울특별시 강서구 마곡동로 161 (마곡동)",
    "phone": "",
    "latitude": "37.5692236076",
    "longitude": "126.8360144928",
    "image": "http://tong.visitkorea.or.kr/cms/resource/60/2658460_image2_1.jpg",
    "category": "수목원"
  },
  {
    "id": "749216",
    "title": "서울창포원",
    "address": "서울특별시 도봉구 마들로 916 (도봉동)",
    "phone": "",
    "latitude": "37.6895745075",
    "longitude": "127.0471890359",
    "image": "http://tong.visitkorea.or.kr/cms/resource/87/3569087_image2_1.jpg",
    "category": "수목원"
  },
  {
    "id": "1055310",
    "title": "서천식물예술원",
    "address": "충청남도 서천군 기산면 화출길42번길 17",
    "phone": "",
    "latitude": "36.0774194200",
    "longitude": "126.7692859379",
    "image": "http://tong.visitkorea.or.kr/cms/resource/73/3043873_image2_1.jpg",
    "category": "수목원"
  },
  {
    "id": "2674763",
    "title": "서후리숲",
    "address": "경기도 양평군 서종면 거북바위1길 200",
    "phone": "",
    "latitude": "37.5663707812",
    "longitude": "127.4301771507",
    "image": "http://tong.visitkorea.or.kr/cms/resource/95/3352495_image2_1.jpg",
    "category": "수목원"
  },
  {
    "id": "2490928",
    "title": "석모도 수목원",
    "address": "인천광역시 강화군 삼산면 삼산북로449번길 161",
    "phone": "",
    "latitude": "37.6910781940",
    "longitude": "126.3264049255",
    "image": "http://tong.visitkorea.or.kr/cms/resource/45/3351945_image2_1.jpg",
    "category": "수목원"
  },
  {
    "id": "129276",
    "title": "석부작박물관 (숨도, 귤림성)",
    "address": "제주특별자치도 서귀포시 일주동로 8941",
    "phone": "",
    "latitude": "33.2503192271",
    "longitude": "126.5360193536",
    "image": "http://tong.visitkorea.or.kr/cms/resource/97/2676397_image2_1.JPG",
    "category": "수목원"
  },
  {
    "id": "523999",
    "title": "선인장다육식물연구소(구 선인장연구소)",
    "address": "경기도 고양시 일산서구 송산로 464-52",
    "phone": "",
    "latitude": "37.6855470939",
    "longitude": "126.7313513319",
    "image": "http://tong.visitkorea.or.kr/cms/resource/29/3392129_image2_1.JPG",
    "category": "수목원"
  },
  {
    "id": "2513888",
    "title": "설악산 자생식물원",
    "address": "강원특별자치도 속초시 바람꽃마을길 164",
    "phone": "",
    "latitude": "38.1970097802",
    "longitude": "128.5250448649",
    "image": "http://tong.visitkorea.or.kr/cms/resource/47/3345747_image2_1.jpg",
    "category": "수목원"
  },
  {
    "id": "2593258",
    "title": "섬이정원",
    "address": "경상남도 남해군 남면 남면로 1534-110",
    "phone": "",
    "latitude": "34.7523270827",
    "longitude": "127.8605847505",
    "image": "http://tong.visitkorea.or.kr/cms/resource/51/3304451_image2_1.jpg",
    "category": "수목원"
  },
  {
    "id": "523741",
    "title": "성남시 식물원",
    "address": "경기도 성남시 중원구 은행로 72 (은행동)",
    "phone": "",
    "latitude": "37.4530402749",
    "longitude": "127.1678347862",
    "image": "http://tong.visitkorea.or.kr/cms/resource/37/3053337_image2_1.jpg",
    "category": "수목원"
  },
  {
    "id": "128111",
    "title": "세계꽃식물원",
    "address": "충청남도 아산시 도고면 아산만로 37-37",
    "phone": "",
    "latitude": "36.7502826733",
    "longitude": "126.8589155690",
    "image": "http://tong.visitkorea.or.kr/cms/resource/03/3567403_image2_1.jpg",
    "category": "수목원"
  },
  {
    "id": "407051",
    "title": "세미원",
    "address": "경기도 양평군 양서면 양수로 93",
    "phone": "",
    "latitude": "37.5407412665",
    "longitude": "127.3241902960",
    "image": "http://tong.visitkorea.or.kr/cms/resource/90/3447890_image2_1.jpg",
    "category": "수목원"
  },
  {
    "id": "2613134",
    "title": "소담수목원",
    "address": "경상남도 고성군 동해면 외산로 592",
    "phone": "",
    "latitude": "35.0637112216",
    "longitude": "128.4645516535",
    "image": "http://tong.visitkorea.or.kr/cms/resource/09/3538509_image2_1.jpg",
    "category": "수목원"
  },
  {
    "id": "2007741",
    "title": "소울원",
    "address": "경기도 파주시 탄현면 검산로 424-12",
    "phone": "",
    "latitude": "37.8059164575",
    "longitude": "126.7347420638",
    "image": "http://tong.visitkorea.or.kr/cms/resource/78/3382778_image2_1.JPG",
    "category": "수목원"
  },
  {
    "id": "1919548",
    "title": "순천만국가정원",
    "address": "전라남도 순천시 국가정원1호길 47 (오천동)",
    "phone": "",
    "latitude": "34.9286399458",
    "longitude": "127.4997174181",
    "image": "http://tong.visitkorea.or.kr/cms/resource/80/3479280_image2_1.jpg",
    "category": "수목원"
  },
  {
    "id": "3014719",
    "title": "숲정원 윤제림",
    "address": "전라남도 보성군 겸백면 주월산길 222",
    "phone": "",
    "latitude": "34.8247827113",
    "longitude": "127.2066457748",
    "image": "http://tong.visitkorea.or.kr/cms/resource/04/3553904_image2_1.jpg",
    "category": "수목원"
  },
  {
    "id": "3046071",
    "title": "쉼이있는정원",
    "address": "충청남도 서산시 인지면 모월2길 111-5",
    "phone": "",
    "latitude": "36.7260640669",
    "longitude": "126.4261942072",
    "image": "http://tong.visitkorea.or.kr/cms/resource/70/3046070_image2_1.jpg",
    "category": "수목원"
  },
  {
    "id": "128167",
    "title": "신구대학교식물원",
    "address": "경기도 성남시 수정구 적푸리로 9 (상적동)",
    "phone": "",
    "latitude": "37.4337187337",
    "longitude": "127.0811654331",
    "image": "http://tong.visitkorea.or.kr/cms/resource/37/3020837_image2_1.jpg",
    "category": "수목원"
  },
  {
    "id": "1910438",
    "title": "신라식물원",
    "address": "경상북도 예천군 감천면 충효로 1752",
    "phone": "054-652-4857",
    "latitude": "36.7483329465",
    "longitude": "128.5446311043",
    "image": "",
    "category": "수목원"
  },
  {
    "id": "2783713",
    "title": "아가페정원",
    "address": "전북특별자치도 익산시 황등면 율촌길 9",
    "phone": "063-856-4671",
    "latitude": "36.0199236519",
    "longitude": "126.9562068358",
    "image": "http://tong.visitkorea.or.kr/cms/resource/85/3412985_image2_1.jpg",
    "category": "수목원"
  },
  {
    "id": "2498883",
    "title": "아름다운정원 화수목",
    "address": "충청남도 천안시 동남구 목천읍 교천지산길 175",
    "phone": "",
    "latitude": "36.7832348021",
    "longitude": "127.1944010936",
    "image": "http://tong.visitkorea.or.kr/cms/resource/04/3568304_image2_1.jpg",
    "category": "수목원"
  },
  {
    "id": "3423740",
    "title": "아열대식물원",
    "address": "경상남도 의령군 의령읍 백산로 160-1",
    "phone": "",
    "latitude": "35.3241091981",
    "longitude": "128.2797358787",
    "image": "http://tong.visitkorea.or.kr/cms/resource/09/3538709_image2_1.jpg",
    "category": "수목원"
  },
  {
    "id": "126668",
    "title": "아침고요수목원",
    "address": "경기도 가평군 상면 수목원로 432",
    "phone": "",
    "latitude": "37.7440126130",
    "longitude": "127.3525568480",
    "image": "http://tong.visitkorea.or.kr/cms/resource/63/2941963_image2_1.jpg",
    "category": "수목원"
  },
  {
    "id": "2606922",
    "title": "안면도수목원",
    "address": "충청남도 태안군 안면읍 안면대로 3195-6",
    "phone": "",
    "latitude": "36.4971226191",
    "longitude": "126.3591674021",
    "image": "http://tong.visitkorea.or.kr/cms/resource/35/3493435_image2_1.jpg",
    "category": "수목원"
  },
  {
    "id": "127196",
    "title": "안산식물원",
    "address": "경기도 안산시 상록구 성호로 113 (이동)",
    "phone": "",
    "latitude": "37.3140786764",
    "longitude": "126.8610499084",
    "image": "http://tong.visitkorea.or.kr/cms/resource/98/3072598_image2_1.jpg",
    "category": "수목원"
  },
  {
    "id": "3425101",
    "title": "안중근공원",
    "address": "경기도 부천시 원미구 송내대로 236 (중동)",
    "phone": "032-625-4844",
    "latitude": "37.5044936523",
    "longitude": "126.7590511072",
    "image": "",
    "category": "수목원"
  },
  {
    "id": "561105",
    "title": "양구수목원",
    "address": "강원특별자치도 양구군 동면 숨골로310번길 131",
    "phone": "",
    "latitude": "38.1902435638",
    "longitude": "128.0739750220",
    "image": "http://tong.visitkorea.or.kr/cms/resource/15/3351215_image2_1.jpg",
    "category": "수목원"
  },
  {
    "id": "126464",
    "title": "여미지식물원",
    "address": "제주특별자치도 서귀포시 중문관광로 93",
    "phone": "",
    "latitude": "33.2526059401",
    "longitude": "126.4142854128",
    "image": "http://tong.visitkorea.or.kr/cms/resource/81/3551581_image2_1.jpg",
    "category": "수목원"
  },
  {
    "id": "2998800",
    "title": "영흥수목원",
    "address": "경기도 수원시 영통구 영통로 435 (영통동)",
    "phone": "",
    "latitude": "37.2596332074",
    "longitude": "127.0731043946",
    "image": "http://tong.visitkorea.or.kr/cms/resource/66/3430266_image2_1.jpeg",
    "category": "수목원"
  },
  {
    "id": "2667204",
    "title": "옥동 힐링가든",
    "address": "경상남도 거제시 둔덕면 청마로 665-13",
    "phone": "",
    "latitude": "34.8704843251",
    "longitude": "128.5462413242",
    "image": "",
    "category": "수목원"
  },
  {
    "id": "2674007",
    "title": "온실리움",
    "address": "울산광역시 울주군 상북면 도동신리로 138",
    "phone": "",
    "latitude": "35.5976434793",
    "longitude": "129.1023646745",
    "image": "http://tong.visitkorea.or.kr/cms/resource/88/3581588_image2_1.jpg",
    "category": "수목원"
  },
  {
    "id": "127498",
    "title": "완도수목원",
    "address": "전라남도 완도군 군외면 대문리",
    "phone": "",
    "latitude": "34.3592203113",
    "longitude": "126.6648963605",
    "image": "http://tong.visitkorea.or.kr/cms/resource/23/3553923_image2_1.jpg",
    "category": "수목원"
  },
  {
    "id": "3361574",
    "title": "완주 화산꽃동산",
    "address": "전북특별자치도 완주군 화산면 춘산리",
    "phone": "",
    "latitude": "36.0541435705",
    "longitude": "127.2079167955",
    "image": "http://tong.visitkorea.or.kr/cms/resource/46/3361546_image2_1.JPG",
    "category": "수목원"
  },
  {
    "id": "3026006",
    "title": "왕궁 포레스트",
    "address": "전북특별자치도 익산시 왕궁면 호반로 71",
    "phone": "",
    "latitude": "35.9949428690",
    "longitude": "127.0991308436",
    "image": "http://tong.visitkorea.or.kr/cms/resource/91/3025991_image2_1.JPG",
    "category": "수목원"
  },
  {
    "id": "2747802",
    "title": "용도수목원",
    "address": "경기도 시흥시 밭뒤길 32 (매화동)",
    "phone": "",
    "latitude": "37.4193574973",
    "longitude": "126.8254279922",
    "image": "http://tong.visitkorea.or.kr/cms/resource/61/3578561_image2_1.jpg",
    "category": "수목원"
  },
  {
    "id": "3321355",
    "title": "용인자작나무숲",
    "address": "경기도 용인시 처인구 백암면 황새울로 231",
    "phone": "",
    "latitude": "37.1113137101",
    "longitude": "127.3526304759",
    "image": "http://tong.visitkorea.or.kr/cms/resource/00/3321100_image2_1.jpg",
    "category": "수목원"
  },
  {
    "id": "2761690",
    "title": "우림정원",
    "address": "충청북도 충주시 엄정면 삼실길 42",
    "phone": "",
    "latitude": "37.0791496960",
    "longitude": "127.9037011589",
    "image": "http://tong.visitkorea.or.kr/cms/resource/21/3573321_image2_1.jpg",
    "category": "수목원"
  },
  {
    "id": "1395991",
    "title": "울산테마식물수목원",
    "address": "울산광역시 동구 쇠평길 33-1",
    "phone": "",
    "latitude": "35.5535517673",
    "longitude": "129.4271792207",
    "image": "http://tong.visitkorea.or.kr/cms/resource/49/3084249_image2_1.jpg",
    "category": "수목원"
  },
  {
    "id": "946308",
    "title": "원예예술촌",
    "address": "경상남도 남해군 삼동면 예술길 39",
    "phone": "",
    "latitude": "34.8036327456",
    "longitude": "128.0362819744",
    "image": "http://tong.visitkorea.or.kr/cms/resource/76/3399476_image2_1.jpg",
    "category": "수목원"
  },
  {
    "id": "2736822",
    "title": "유구색동수국정원",
    "address": "충청남도 공주시 유구읍 유구리",
    "phone": "",
    "latitude": "36.5555484091",
    "longitude": "126.9544149970",
    "image": "http://tong.visitkorea.or.kr/cms/resource/60/3534860_image2_1.jpg",
    "category": "수목원"
  },
  {
    "id": "2863813",
    "title": "유니스의정원 보타닉하우스",
    "address": "경기도 안산시 상록구 반월천북길 139 (팔곡일동)",
    "phone": "",
    "latitude": "37.3115572444",
    "longitude": "126.8890863193",
    "image": "http://tong.visitkorea.or.kr/cms/resource/44/3513944_image2_1.jpg",
    "category": "수목원"
  },
  {
    "id": "2673974",
    "title": "율곡수목원",
    "address": "경기도 파주시 파평면 장승배기로 392",
    "phone": "",
    "latitude": "37.8983655812",
    "longitude": "126.8228758014",
    "image": "http://tong.visitkorea.or.kr/cms/resource/48/3547148_image2_1.jpg",
    "category": "수목원"
  },
  {
    "id": "523284",
    "title": "율봄식물원",
    "address": "경기도 광주시 퇴촌면 태허정로 267-54",
    "phone": "",
    "latitude": "37.4715427801",
    "longitude": "127.2714192930",
    "image": "http://tong.visitkorea.or.kr/cms/resource/95/3507395_image2_1.jpg",
    "category": "수목원"
  },
  {
    "id": "433027",
    "title": "이안숲속",
    "address": "충청남도 공주시 반포면 수목원길 25",
    "phone": "",
    "latitude": "36.4227012896",
    "longitude": "127.1994826837",
    "image": "http://tong.visitkorea.or.kr/cms/resource/07/3057407_image2_1.jpg",
    "category": "수목원"
  },
  {
    "id": "2789674",
    "title": "일영허브랜드(숲길정원)",
    "address": "경기도 양주시 장흥면 일영로 346-26",
    "phone": "",
    "latitude": "37.6755322540",
    "longitude": "126.9237507018",
    "image": "http://tong.visitkorea.or.kr/cms/resource/18/3559518_image2_1.jpg",
    "category": "수목원"
  },
  {
    "id": "3076051",
    "title": "일월수목원",
    "address": "경기도 수원시 장안구 일월로 61 (천천동)",
    "phone": "",
    "latitude": "37.2881504113",
    "longitude": "126.9770345375",
    "image": "http://tong.visitkorea.or.kr/cms/resource/21/3386921_image2_1.JPG",
    "category": "수목원"
  },
  {
    "id": "2841245",
    "title": "임진강 댑싸리정원",
    "address": "경기도 연천군 중면 삼곶리",
    "phone": "",
    "latitude": "38.1313446498",
    "longitude": "127.0171734736",
    "image": "http://tong.visitkorea.or.kr/cms/resource/95/3092295_image2_1.jpg",
    "category": "수목원"
  },
  {
    "id": "631568",
    "title": "장흥자생수목원",
    "address": "경기도 양주시 장흥면 권율로309번길 167-35",
    "phone": "",
    "latitude": "37.7445163720",
    "longitude": "126.9506573919",
    "image": "http://tong.visitkorea.or.kr/cms/resource/54/1592054_image2_1.jpg",
    "category": "수목원"
  },
  {
    "id": "3378033",
    "title": "정남진 수목원",
    "address": "전라남도 장흥군 대덕읍 천관산문학길 30",
    "phone": "",
    "latitude": "34.5044719410",
    "longitude": "126.9072410549",
    "image": "http://tong.visitkorea.or.kr/cms/resource/28/3378028_image2_1.jpg",
    "category": "수목원"
  },
  {
    "id": "3428425",
    "title": "정읍 허브원",
    "address": "전북특별자치도 정읍시 구량1길 188-29 (구룡동)",
    "phone": "",
    "latitude": "35.5647716341",
    "longitude": "126.8955406850",
    "image": "http://tong.visitkorea.or.kr/cms/resource/87/3428387_image2_1.jpg",
    "category": "수목원"
  },
  {
    "id": "1607565",
    "title": "제이드가든",
    "address": "강원특별자치도 춘천시 남산면 햇골길 80",
    "phone": "",
    "latitude": "37.8325530155",
    "longitude": "127.5417314729",
    "image": "http://tong.visitkorea.or.kr/cms/resource/49/3346149_image2_1.jpg",
    "category": "수목원"
  },
  {
    "id": "2806115",
    "title": "제주동백수목원",
    "address": "제주특별자치도 서귀포시 남원읍 태위로 288",
    "phone": "",
    "latitude": "33.2759158847",
    "longitude": "126.6781731282",
    "image": "http://tong.visitkorea.or.kr/cms/resource/38/3582838_image2_1.JPG",
    "category": "수목원"
  },
  {
    "id": "3371999",
    "title": "제주동화마을",
    "address": "제주특별자치도 제주시 구좌읍 비자림로 1191",
    "phone": "",
    "latitude": "33.4354630186",
    "longitude": "126.7320509446",
    "image": "http://tong.visitkorea.or.kr/cms/resource/37/3372037_image2_1.JPG",
    "category": "수목원"
  },
  {
    "id": "2479639",
    "title": "제주불빛정원",
    "address": "제주특별자치도 제주시 애월읍 평화로 2346",
    "phone": "",
    "latitude": "33.4226259562",
    "longitude": "126.4089792859",
    "image": "http://tong.visitkorea.or.kr/cms/resource/79/3555479_image2_1.jpg",
    "category": "수목원"
  },
  {
    "id": "128834",
    "title": "죽녹원",
    "address": "전라남도 담양군 담양읍 죽녹원로 119",
    "phone": "",
    "latitude": "35.3278000230",
    "longitude": "126.9855748414",
    "image": "http://tong.visitkorea.or.kr/cms/resource/63/3304263_image2_1.jpg",
    "category": "수목원"
  },
  {
    "id": "1350823",
    "title": "죽화경",
    "address": "전라남도 담양군 봉산면 유산길 73-16",
    "phone": "",
    "latitude": "35.2524248430",
    "longitude": "126.9637620117",
    "image": "http://tong.visitkorea.or.kr/cms/resource/16/3571516_image2_1.jpg",
    "category": "수목원"
  },
  {
    "id": "3079629",
    "title": "진달래동산",
    "address": "경기도 부천시 원미구 춘의동",
    "phone": "",
    "latitude": "37.4999532459",
    "longitude": "126.8003141379",
    "image": "http://tong.visitkorea.or.kr/cms/resource/28/3079628_image2_1.jpg",
    "category": "수목원"
  },
  {
    "id": "2606220",
    "title": "진해보타닉뮤지엄",
    "address": "경상남도 창원시 진해구 진해대로1137번길 89",
    "phone": "",
    "latitude": "35.1304999747",
    "longitude": "128.7173500274",
    "image": "http://tong.visitkorea.or.kr/cms/resource/77/3565377_image2_1.jpg",
    "category": "수목원"
  },
  {
    "id": "1605036",
    "title": "창경궁 대온실",
    "address": "서울특별시 종로구 창경궁로 185 (와룡동)",
    "phone": "",
    "latitude": "37.5789336838",
    "longitude": "126.9964634775",
    "image": "http://tong.visitkorea.or.kr/cms/resource/64/3481964_image2_1.jpg",
    "category": "수목원"
  },
  {
    "id": "129190",
    "title": "창수전시림",
    "address": "경상북도 영덕군 창수면 창수4길",
    "phone": "",
    "latitude": "36.6201832385",
    "longitude": "129.2507832612",
    "image": "http://tong.visitkorea.or.kr/cms/resource/19/2689619_image2_1.jpg",
    "category": "수목원"
  },
  {
    "id": "2782739",
    "title": "창원수목원",
    "address": "경상남도 창원시 성산구 삼동동",
    "phone": "",
    "latitude": "35.2283406318",
    "longitude": "128.6545250917",
    "image": "http://tong.visitkorea.or.kr/cms/resource/08/3569208_image2_1.jpg",
    "category": "수목원"
  },
  {
    "id": "2738669",
    "title": "천개의향나무숲",
    "address": "전라남도 구례군 광의면 천변길 12",
    "phone": "",
    "latitude": "35.2267668147",
    "longitude": "127.4603243706",
    "image": "http://tong.visitkorea.or.kr/cms/resource/58/3552858_image2_1.jpg",
    "category": "수목원"
  },
  {
    "id": "127820",
    "title": "천리포수목원",
    "address": "충청남도 태안군 소원면 천리포1길 187",
    "phone": "",
    "latitude": "36.7984621051",
    "longitude": "126.1501561964",
    "image": "http://tong.visitkorea.or.kr/cms/resource/72/3493772_image2_1.jpg",
    "category": "수목원"
  },
  {
    "id": "129601",
    "title": "청산수목원",
    "address": "충청남도 태안군 남면 연꽃길 70",
    "phone": "",
    "latitude": "36.6886633873",
    "longitude": "126.2968818977",
    "image": "http://tong.visitkorea.or.kr/cms/resource/14/3331014_image2_1.jpg",
    "category": "수목원"
  },
  {
    "id": "3112362",
    "title": "청학동다소랑정원",
    "address": "경상남도 하동군 청암면 삼신봉로 96",
    "phone": "010-4844-5583",
    "latitude": "35.2397229131",
    "longitude": "127.7345609975",
    "image": "http://tong.visitkorea.or.kr/cms/resource/59/3112359_image2_1.jpg",
    "category": "수목원"
  },
  {
    "id": "741109",
    "title": "카멜리아힐",
    "address": "제주특별자치도 서귀포시 안덕면 병악로 166",
    "phone": "",
    "latitude": "33.2898983201",
    "longitude": "126.3682663519",
    "image": "http://tong.visitkorea.or.kr/cms/resource/03/3330103_image2_1.jpg",
    "category": "수목원"
  },
  {
    "id": "2792635",
    "title": "켄싱턴 프렌치 가든",
    "address": "강원특별자치도 평창군 진부면 진고개로 231",
    "phone": "",
    "latitude": "37.6898700479",
    "longitude": "128.5978427847",
    "image": "http://tong.visitkorea.or.kr/cms/resource/18/3440118_image2_1.jpg",
    "category": "수목원"
  },
  {
    "id": "2718736",
    "title": "코리아플라워파크",
    "address": "충청남도 태안군 안면읍 꽃지해안로 400",
    "phone": "",
    "latitude": "36.5011801050",
    "longitude": "126.3368026480",
    "image": "http://tong.visitkorea.or.kr/cms/resource/71/3421271_image2_1.jpg",
    "category": "수목원"
  },
  {
    "id": "617327",
    "title": "태백 구와우마을(고원자생식물원)",
    "address": "강원특별자치도 태백시 구와우길 38-20 (황지동)",
    "phone": "",
    "latitude": "37.2069721705",
    "longitude": "128.9897278062",
    "image": "http://tong.visitkorea.or.kr/cms/resource/33/3492733_image2_1.jpg",
    "category": "수목원"
  },
  {
    "id": "778219",
    "title": "태평염생식물원",
    "address": "전라남도 신안군 증도면 증동리",
    "phone": "",
    "latitude": "34.9980487594",
    "longitude": "126.1724494938",
    "image": "http://tong.visitkorea.or.kr/cms/resource/82/3449282_image2_1.jpg",
    "category": "수목원"
  },
  {
    "id": "128202",
    "title": "태화강 국가정원",
    "address": "울산광역시 중구 샛강남길 5 (태화동)",
    "phone": "",
    "latitude": "35.5487747405",
    "longitude": "129.2911995498",
    "image": "http://tong.visitkorea.or.kr/cms/resource/43/3422843_image2_1.png",
    "category": "수목원"
  },
  {
    "id": "2753082",
    "title": "파더스가든",
    "address": "제주특별자치도 서귀포시 안덕면 병악로 44-33",
    "phone": "",
    "latitude": "33.2801410085",
    "longitude": "126.3647390979",
    "image": "http://tong.visitkorea.or.kr/cms/resource/61/3368161_image2_1.jpg",
    "category": "수목원"
  },
  {
    "id": "2545307",
    "title": "퍼스트가든",
    "address": "경기도 파주시 탑삭골길 260",
    "phone": "",
    "latitude": "37.7326399636",
    "longitude": "126.7949386312",
    "image": "http://tong.visitkorea.or.kr/cms/resource/28/3422928_image2_1.png",
    "category": "수목원"
  },
  {
    "id": "2675098",
    "title": "푸른수목원",
    "address": "서울특별시 구로구 연동로 240",
    "phone": "",
    "latitude": "37.4830806290",
    "longitude": "126.8240846662",
    "image": "http://tong.visitkorea.or.kr/cms/resource/46/3545146_image2_1.jpg",
    "category": "수목원"
  },
  {
    "id": "662268",
    "title": "피나클랜드 수목원",
    "address": "충청남도 아산시 영인면 월선길 20-42",
    "phone": "",
    "latitude": "36.8725197718",
    "longitude": "126.9263450490",
    "image": "http://tong.visitkorea.or.kr/cms/resource/42/3556342_image2_1.jpg",
    "category": "수목원"
  },
  {
    "id": "2751657",
    "title": "하남 나무고아원",
    "address": "경기도 하남시 미사동",
    "phone": "",
    "latitude": "37.5821424678",
    "longitude": "127.1961535317",
    "image": "http://tong.visitkorea.or.kr/cms/resource/92/3336792_image2_1.jpg",
    "category": "수목원"
  },
  {
    "id": "2022638",
    "title": "하늘물빛정원",
    "address": "충청남도 금산군 추부면 검한1길 156",
    "phone": "",
    "latitude": "36.2229624903",
    "longitude": "127.4830904982",
    "image": "http://tong.visitkorea.or.kr/cms/resource/40/3560540_image2_1.jpg",
    "category": "수목원"
  },
  {
    "id": "2032072",
    "title": "하늘빛수목원",
    "address": "전라남도 장흥군 용산면 장흥대로 2746",
    "phone": "",
    "latitude": "34.6353572119",
    "longitude": "126.9037770622",
    "image": "http://tong.visitkorea.or.kr/cms/resource/23/3351123_image2_1.jpg",
    "category": "수목원"
  },
  {
    "id": "2781591",
    "title": "하늘정원",
    "address": "인천광역시 중구 운서동",
    "phone": "",
    "latitude": "37.4442512024",
    "longitude": "126.4749120409",
    "image": "http://tong.visitkorea.or.kr/cms/resource/48/3516548_image2_1.jpg",
    "category": "수목원"
  },
  {
    "id": "2514792",
    "title": "하늬라벤더팜",
    "address": "강원특별자치도 고성군 간성읍 꽃대마을길 175",
    "phone": "",
    "latitude": "38.3486205333",
    "longitude": "128.4150501452",
    "image": "http://tong.visitkorea.or.kr/cms/resource/40/3492140_image2_1.jpg",
    "category": "수목원"
  },
  {
    "id": "127045",
    "title": "한국도로공사 전주수목원",
    "address": "전북특별자치도 전주시 덕진구 번영로 462-45",
    "phone": "",
    "latitude": "35.8711228582",
    "longitude": "127.0537992436",
    "image": "http://tong.visitkorea.or.kr/cms/resource/54/3550354_image2_1.jpg",
    "category": "수목원"
  },
  {
    "id": "127514",
    "title": "한라수목원",
    "address": "제주특별자치도 제주시 수목원길 72",
    "phone": "",
    "latitude": "33.4697692812",
    "longitude": "126.4921487719",
    "image": "http://tong.visitkorea.or.kr/cms/resource/91/3541991_image2_1.jpg",
    "category": "수목원"
  },
  {
    "id": "741658",
    "title": "한밭수목원",
    "address": "대전광역시 서구 둔산대로 169",
    "phone": "042-270-8452~5",
    "latitude": "36.3686302309",
    "longitude": "127.3862701991",
    "image": "http://tong.visitkorea.or.kr/cms/resource/76/3350776_image2_1.jpg",
    "category": "수목원"
  },
  {
    "id": "127823",
    "title": "한택식물원",
    "address": "경기도 용인시 처인구 백암면 한택로 2",
    "phone": "",
    "latitude": "37.0940611782",
    "longitude": "127.4097674681",
    "image": "",
    "category": "수목원"
  },
  {
    "id": "2754745",
    "title": "함안 연꽃테마파크",
    "address": "경상남도 함안군 가야읍 왕궁1길 38-20",
    "phone": "",
    "latitude": "35.2805661724",
    "longitude": "128.3949658344",
    "image": "http://tong.visitkorea.or.kr/cms/resource/15/2755215_image2_1.JPG",
    "category": "수목원"
  },
  {
    "id": "3060352",
    "title": "합천 정원테마파크",
    "address": "경상남도 합천군 용주면 합천호수로 777",
    "phone": "",
    "latitude": "35.5533657580",
    "longitude": "128.0738450568",
    "image": "http://tong.visitkorea.or.kr/cms/resource/45/3051945_image2_1.JPG",
    "category": "수목원"
  },
  {
    "id": "3034236",
    "title": "해바라기올래정원",
    "address": "충청남도 태안군 남면 당암리",
    "phone": "",
    "latitude": "36.6201827390",
    "longitude": "126.3172679640",
    "image": "http://tong.visitkorea.or.kr/cms/resource/31/3034231_image2_1.jpg",
    "category": "수목원"
  },
  {
    "id": "2782782",
    "title": "해운대수목원",
    "address": "부산광역시 해운대구광역시 석대동 26",
    "phone": "",
    "latitude": "35.2304408466",
    "longitude": "129.1326250124",
    "image": "http://tong.visitkorea.or.kr/cms/resource/91/3353991_image2_1.jpg",
    "category": "수목원"
  },
  {
    "id": "3317905",
    "title": "현애원",
    "address": "제주특별자치도 서귀포시 성산읍 산성효자로114번길 131-1",
    "phone": "",
    "latitude": "33.4561052475",
    "longitude": "126.9084129597",
    "image": "http://tong.visitkorea.or.kr/cms/resource/32/3514132_image2_1.jpg",
    "category": "수목원"
  },
  {
    "id": "126500",
    "title": "홍릉시험림(홍릉숲)",
    "address": "서울특별시 동대문구 회기로 57 (청량리동)",
    "phone": "",
    "latitude": "37.5917302493",
    "longitude": "127.0426644595",
    "image": "http://tong.visitkorea.or.kr/cms/resource/15/3500915_image2_1.jpg",
    "category": "수목원"
  },
  {
    "id": "3300140",
    "title": "홍성솔바람테마파크",
    "address": "충청남도 홍성군 장곡면 무한로749번길 54",
    "phone": "",
    "latitude": "36.4809225834",
    "longitude": "126.7338729461",
    "image": "http://tong.visitkorea.or.kr/cms/resource/32/3300132_image2_1.jpg",
    "category": "수목원"
  },
  {
    "id": "2806196",
    "title": "홍천 무궁화 테마파크",
    "address": "강원특별자치도 홍천군 북방면 홍천로 (196-43)",
    "phone": "",
    "latitude": "37.6881203157",
    "longitude": "127.8686643478",
    "image": "",
    "category": "수목원"
  },
  {
    "id": "1899635",
    "title": "홍천 은행나무숲",
    "address": "강원특별자치도 홍천군 내면 광원리 686-4",
    "phone": "",
    "latitude": "37.8321872306",
    "longitude": "128.4707332608",
    "image": "http://tong.visitkorea.or.kr/cms/resource/70/3494170_image2_1.jpg",
    "category": "수목원"
  },
  {
    "id": "3487766",
    "title": "화가의 정원산책",
    "address": "전라남도 순천시 별량면 장학길 34",
    "phone": "",
    "latitude": "34.8868936754",
    "longitude": "127.4439317066",
    "image": "http://tong.visitkorea.or.kr/cms/resource/62/3487762_image2_1.jpg",
    "category": "수목원"
  },
  {
    "id": "3011747",
    "title": "화개정원",
    "address": "인천광역시 강화군 교동면 교동동로471번길 6-62",
    "phone": "",
    "latitude": "37.7835167745",
    "longitude": "126.2903945559",
    "image": "http://tong.visitkorea.or.kr/cms/resource/76/3000776_image2_1.jpg",
    "category": "수목원"
  },
  {
    "id": "2436233",
    "title": "화담숲",
    "address": "경기도 광주시 도척면 도척윗로 278-1",
    "phone": "",
    "latitude": "37.3408276984",
    "longitude": "127.2894435995",
    "image": "http://tong.visitkorea.or.kr/cms/resource/90/3494890_image2_1.jpg",
    "category": "수목원"
  },
  {
    "id": "2756696",
    "title": "화명수목원",
    "address": "부산광역시 북구 산성로 299",
    "phone": "",
    "latitude": "35.2510535364",
    "longitude": "129.0426767218",
    "image": "http://tong.visitkorea.or.kr/cms/resource/41/3497041_image2_1.jpg",
    "category": "수목원"
  },
  {
    "id": "2514563",
    "title": "화성 우리꽃식물원",
    "address": "경기도 화성시 팔탄면 3.1만세로 777-17",
    "phone": "",
    "latitude": "37.1148687968",
    "longitude": "126.8828756669",
    "image": "http://tong.visitkorea.or.kr/cms/resource/40/1996940_image2_1.jpg",
    "category": "수목원"
  },
  {
    "id": "2665727",
    "title": "황학산수목원",
    "address": "경기도 여주시 황학산수목원길 73 (매룡동)",
    "phone": "031-887-2741",
    "latitude": "37.2786331083",
    "longitude": "127.6489850565",
    "image": "http://tong.visitkorea.or.kr/cms/resource/21/2665621_image2_1.jpg",
    "category": "수목원"
  },
  {
    "id": "3107920",
    "title": "휴심정",
    "address": "광주광역시 광산구 임방울대로 611-25 (도천동)",
    "phone": "",
    "latitude": "35.2128797425",
    "longitude": "126.8250252842",
    "image": "http://tong.visitkorea.or.kr/cms/resource/05/3107905_image2_1.jpg",
    "category": "수목원"
  },
  {
    "id": "2720433",
    "title": "4est 수목원",
    "address": "전라남도 해남군 현산면 봉동길 232-118",
    "phone": "",
    "latitude": "34.4532475345",
    "longitude": "126.5955113195",
    "image": "http://tong.visitkorea.or.kr/cms/resource/49/3095549_image2_1.jpg",
    "category": "수목원"
  }
]