[
  {
    "id": "126042",
    "title": "내연산 보경사 시립공원",
    "address": "경상북도 포항시 북구 송라면 중산리",
    "phone": "",
    "latitude": "36.2598948785",
    "longitude": "129.3149437504",
    "image": "http://tong.visitkorea.or.kr/cms/resource/26/3573026_image2_1.jpg",
    "category": "시립공원",
    "original_category": "군립공원"
  },
  {
    "id": "129536",
    "title": "봉명산시립공원",
    "address": "경상남도 사천시 곤명면 용산리",
    "phone": "",
    "latitude": "35.0871348776",
    "longitude": "127.9124021299",
    "image": "http://tong.visitkorea.or.kr/cms/resource/01/2689601_image2_1.jpg",
    "category": "시립공원",
    "original_category": "군립공원"
  },
  {
    "id": "125453",
    "title": "천마산 시립공원",
    "address": "경기도 남양주시 화도읍 묵현로 105-37",
    "phone": "",
    "latitude": "37.6663593984",
    "longitude": "127.2905425205",
    "image": "http://tong.visitkorea.or.kr/cms/resource/30/3500330_image2_1.jpg",
    "category": "시립공원",
    "original_category": "군립공원"
  },
  {
    "id": "3413142",
    "title": "광주시립수목원",
    "address": "광주광역시 남구 도동길 142 (양과동)",
    "phone": "",
    "latitude": "35.0905917436",
    "longitude": "126.8823899340",
    "image": "http://tong.visitkorea.or.kr/cms/resource/79/3413579_image2_1.jpg",
    "category": "시립공원",
    "original_category": "수목원"
  },
  {
    "id": "126909",
    "title": "서울 구 벨기에영사관 (현 서울시립 남서울미술관)",
    "address": "서울특별시 관악구 남부순환로 2076",
    "phone": "",
    "latitude": "37.4761175459",
    "longitude": "126.9795345921",
    "image": "",
    "category": "시립공원",
    "original_category": "유적지사적지"
  }
]