[
  {
    "id": "126898",
    "title": "강릉 통일공원",
    "address": "강원특별자치도 강릉시 율곡로 1715-38 통일안보전시관",
    "phone": "",
    "latitude": "37.7204603916",
    "longitude": "128.9984085388",
    "image": "http://tong.visitkorea.or.kr/cms/resource/50/3516850_image2_1.jpg",
    "category": "안보관광지"
  },
  {
    "id": "3547638",
    "title": "강릉통일공원안보전시관",
    "address": "강원특별자치도 강릉시 강동면 율곡로 1715-38",
    "phone": "",
    "latitude": "37.7204603916",
    "longitude": "128.9984085388",
    "image": "",
    "category": "안보관광지"
  },
  {
    "id": "127938",
    "title": "거제도 포로수용소 유적공원",
    "address": "경상남도 거제시 계룡로 61",
    "phone": "",
    "latitude": "34.8764184192",
    "longitude": "128.6253953896",
    "image": "http://tong.visitkorea.or.kr/cms/resource/79/3521079_image2_1.jpg",
    "category": "안보관광지"
  },
  {
    "id": "126003",
    "title": "국립대전현충원 보훈둘레길",
    "address": "대전광역시 유성구 현충원로 251",
    "phone": "",
    "latitude": "36.3622460736",
    "longitude": "127.2985587765",
    "image": "http://tong.visitkorea.or.kr/cms/resource/63/3512563_image2_1.jpg",
    "category": "안보관광지"
  },
  {
    "id": "252604",
    "title": "국립영천호국원",
    "address": "경상북도 영천시 고경면 호국로 1720",
    "phone": "",
    "latitude": "35.9792394284",
    "longitude": "129.1092032812",
    "image": "http://tong.visitkorea.or.kr/cms/resource/26/3572526_image2_1.jpg",
    "category": "안보관광지"
  },
  {
    "id": "1586632",
    "title": "국립임실호국원",
    "address": "전북특별자치도 임실군 강진면 호국로 420",
    "phone": "",
    "latitude": "35.5507893785",
    "longitude": "127.1895732782",
    "image": "http://tong.visitkorea.or.kr/cms/resource/81/3361281_image2_1.JPG",
    "category": "안보관광지"
  },
  {
    "id": "2568468",
    "title": "군탄공원과 전역비",
    "address": "강원특별자치도 철원군 갈말읍 호국로 4914-27",
    "phone": "",
    "latitude": "38.1584024851",
    "longitude": "127.3142787595",
    "image": "http://tong.visitkorea.or.kr/cms/resource/06/2567106_image2_1.jpg",
    "category": "안보관광지"
  },
  {
    "id": "529493",
    "title": "김일성 별장",
    "address": "강원특별자치도 고성군 거진읍 화진포길 280",
    "phone": "",
    "latitude": "38.4725399459",
    "longitude": "128.4431686945",
    "image": "http://tong.visitkorea.or.kr/cms/resource/43/2921743_image2_1.jpg",
    "category": "안보관광지"
  },
  {
    "id": "2569497",
    "title": "김화군민 망향탑",
    "address": "강원특별자치도 철원군 근남면 사곡리",
    "phone": "",
    "latitude": "38.2530580143",
    "longitude": "127.4604181049",
    "image": "http://tong.visitkorea.or.kr/cms/resource/44/3558044_image2_1.jpg",
    "category": "안보관광지"
  },
  {
    "id": "2733433",
    "title": "노근리평화공원",
    "address": "충청북도 영동군 황간면 목화실길 7",
    "phone": "",
    "latitude": "36.2135456865",
    "longitude": "127.8805775641",
    "image": "http://tong.visitkorea.or.kr/cms/resource/51/3572851_image2_1.jpg",
    "category": "안보관광지"
  },
  {
    "id": "2569361",
    "title": "대성산지구 전적비",
    "address": "강원특별자치도 화천군 상서면 다목리 산1-1",
    "phone": "",
    "latitude": "38.1775155575",
    "longitude": "127.5405935748",
    "image": "http://tong.visitkorea.or.kr/cms/resource/09/3538909_image2_1.jpg",
    "category": "안보관광지"
  },
  {
    "id": "2569507",
    "title": "도라산 평화공원",
    "address": "경기도 파주시 장단면 제3땅굴로 310",
    "phone": "",
    "latitude": "37.9089594521",
    "longitude": "126.7048279898",
    "image": "http://tong.visitkorea.or.kr/cms/resource/27/2567427_image2_1.jpg",
    "category": "안보관광지"
  },
  {
    "id": "127519",
    "title": "도라산역",
    "address": "경기도 파주시 희망로 307 도라산역",
    "phone": "",
    "latitude": "37.8989079340",
    "longitude": "126.7096417227",
    "image": "",
    "category": "안보관광지"
  },
  {
    "id": "2569489",
    "title": "두루미평화마을",
    "address": "강원특별자치도 철원군 철원읍 묘장로 301",
    "phone": "",
    "latitude": "38.2648151444",
    "longitude": "127.1691555961",
    "image": "http://tong.visitkorea.or.kr/cms/resource/63/2567163_image2_1.jpg",
    "category": "안보관광지"
  },
  {
    "id": "2569384",
    "title": "두타연 평화누리길",
    "address": "강원특별자치도 양구군 방산면",
    "phone": "",
    "latitude": "38.2269042350",
    "longitude": "127.9835710384",
    "image": "",
    "category": "안보관광지"
  },
  {
    "id": "2569493",
    "title": "미수복지구 망배단",
    "address": "강원특별자치도 철원군 철원읍 외촌리 331",
    "phone": "",
    "latitude": "38.2808583177",
    "longitude": "127.2021993078",
    "image": "http://tong.visitkorea.or.kr/cms/resource/99/2567199_image2_1.jpg",
    "category": "안보관광지"
  },
  {
    "id": "731587",
    "title": "백마고지 위령비와 기념관",
    "address": "강원특별자치도 철원군 철원읍 대마1길 72",
    "phone": "",
    "latitude": "38.2700172415",
    "longitude": "127.1652863536",
    "image": "http://tong.visitkorea.or.kr/cms/resource/00/3337800_image2_1.jpg",
    "category": "안보관광지"
  },
  {
    "id": "2569481",
    "title": "비룡전망대(구 승전OP)",
    "address": "경기도 연천군 장남면 고랑포리",
    "phone": "",
    "latitude": "37.9873720902",
    "longitude": "126.8360387102",
    "image": "http://tong.visitkorea.or.kr/cms/resource/89/1813289_image2_1.JPG",
    "category": "안보관광지"
  },
  {
    "id": "250367",
    "title": "상승전망대(제1땅굴)",
    "address": "경기도 연천군 백학면 백령리",
    "phone": "",
    "latitude": "38.0668415252",
    "longitude": "126.8884538310",
    "image": "",
    "category": "안보관광지"
  },
  {
    "id": "3449598",
    "title": "석파정",
    "address": "서울특별시 종로구 창의문로11길 4-1 (부암동)",
    "phone": "",
    "latitude": "37.5948701151",
    "longitude": "126.9627744300",
    "image": "http://tong.visitkorea.or.kr/cms/resource/32/3449432_image2_1.JPG",
    "category": "안보관광지"
  },
  {
    "id": "3450146",
    "title": "안국사",
    "address": "서울특별시 관악구 낙성대로 77 (봉천동)",
    "phone": "",
    "latitude": "37.4716399155",
    "longitude": "126.9587338341",
    "image": "http://tong.visitkorea.or.kr/cms/resource/35/3450135_image2_1.jpg",
    "category": "안보관광지"
  },
  {
    "id": "3448238",
    "title": "알펜시아리조트대관령스키역사관",
    "address": "강원특별자치도 평창군 대관령면 스포츠파크길 135",
    "phone": "",
    "latitude": "37.6628220290",
    "longitude": "128.6824665357",
    "image": "http://tong.visitkorea.or.kr/cms/resource/53/3453253_image2_1.jpg",
    "category": "안보관광지"
  },
  {
    "id": "1137812",
    "title": "연천 유엔(UN)군 화장장시설",
    "address": "경기도 연천군 미산면 마전리",
    "phone": "",
    "latitude": "38.0228569299",
    "longitude": "126.9951147629",
    "image": "http://tong.visitkorea.or.kr/cms/resource/51/3467451_image2_1.JPG",
    "category": "안보관광지"
  },
  {
    "id": "2733063",
    "title": "오산 죽미령 평화공원",
    "address": "경기도 오산시 경기대로 742",
    "phone": "",
    "latitude": "37.1846608982",
    "longitude": "127.0490281165",
    "image": "http://tong.visitkorea.or.kr/cms/resource/64/2733064_image2_1.jpg",
    "category": "안보관광지"
  },
  {
    "id": "800214",
    "title": "월남 파병용사 만남의 장 (구, 베트남 참전용사 만남의 장)",
    "address": "강원특별자치도 화천군 간동면 죽엽산길 81-68",
    "phone": "",
    "latitude": "38.0551881157",
    "longitude": "127.8349453554",
    "image": "http://tong.visitkorea.or.kr/cms/resource/60/3385860_image2_1.JPG",
    "category": "안보관광지"
  },
  {
    "id": "264483",
    "title": "월정리역",
    "address": "강원특별자치도 철원군 철원읍 두루미로 1882",
    "phone": "",
    "latitude": "38.3092138272",
    "longitude": "127.2291459907",
    "image": "http://tong.visitkorea.or.kr/cms/resource/22/3344322_image2_1.JPG",
    "category": "안보관광지"
  },
  {
    "id": "125554",
    "title": "유엔군 초전기념비",
    "address": "경기도 오산시 경기대로 742 (외삼미동)",
    "phone": "",
    "latitude": "37.1846608982",
    "longitude": "127.0490281165",
    "image": "http://tong.visitkorea.or.kr/cms/resource/05/3523805_image2_1.jpg",
    "category": "안보관광지"
  },
  {
    "id": "529498",
    "title": "이기붕별장",
    "address": "강원특별자치도 고성군 거진읍 화진포길 280",
    "phone": "",
    "latitude": "38.4725343883",
    "longitude": "128.4430325955",
    "image": "",
    "category": "안보관광지"
  },
  {
    "id": "129591",
    "title": "이승만별장(고성)",
    "address": "강원특별자치도 고성군 이승만별장길 33 이승만별장",
    "phone": "",
    "latitude": "38.4708816727",
    "longitude": "128.4363027064",
    "image": "http://tong.visitkorea.or.kr/cms/resource/02/3388602_image2_1.jpg",
    "category": "안보관광지"
  },
  {
    "id": "3043967",
    "title": "이종석별장",
    "address": "서울특별시 성북구 성북로 131 (성북동)",
    "phone": "",
    "latitude": "37.5944901822",
    "longitude": "126.9950103900",
    "image": "http://tong.visitkorea.or.kr/cms/resource/54/3043954_image2_1.jpg",
    "category": "안보관광지"
  },
  {
    "id": "2539403",
    "title": "임진강 독개다리",
    "address": "경기도 파주시 문산읍 마정리 1400-5",
    "phone": "",
    "latitude": "37.8905288430",
    "longitude": "126.7368089147",
    "image": "http://tong.visitkorea.or.kr/cms/resource/09/3540609_image2_1.jpg",
    "category": "안보관광지"
  },
  {
    "id": "264481",
    "title": "제2땅굴(철원)",
    "address": "강원특별자치도 철원군 동송읍 양지리",
    "phone": "",
    "latitude": "38.2660559792",
    "longitude": "127.2827173522",
    "image": "http://tong.visitkorea.or.kr/cms/resource/92/3344292_image2_1.JPG",
    "category": "안보관광지"
  },
  {
    "id": "127000",
    "title": "제3땅굴",
    "address": "경기도 파주시 군내면 제3땅굴로 210-358",
    "phone": "",
    "latitude": "19.6944274800",
    "longitude": "117.9925662504",
    "image": "",
    "category": "안보관광지"
  },
  {
    "id": "125812",
    "title": "철원관광정보센터",
    "address": "강원특별자치도 철원군 동송읍 태봉로 1825",
    "phone": "",
    "latitude": "38.1872292046",
    "longitude": "127.2889996684",
    "image": "http://tong.visitkorea.or.kr/cms/resource/99/3577599_image2_1.jpg",
    "category": "안보관광지"
  },
  {
    "id": "2375571",
    "title": "캠프 그리브스",
    "address": "경기도 파주시 군내면 적십자로 137",
    "phone": "",
    "latitude": "37.8984861542",
    "longitude": "126.7316452726",
    "image": "",
    "category": "안보관광지"
  },
  {
    "id": "127001",
    "title": "통일공원(파주)",
    "address": "경기도 파주시 파주읍 통일로 1586-24",
    "phone": "",
    "latitude": "37.8490957376",
    "longitude": "126.7897691299",
    "image": "http://tong.visitkorea.or.kr/cms/resource/66/3383766_image2_1.JPG",
    "category": "안보관광지"
  },
  {
    "id": "2514802",
    "title": "통일안보공원",
    "address": "강원특별자치도 고성군 현내면 금강산로 481",
    "phone": "",
    "latitude": "38.5144234240",
    "longitude": "128.4166336872",
    "image": "http://tong.visitkorea.or.kr/cms/resource/45/3378445_image2_1.JPG",
    "category": "안보관광지"
  },
  {
    "id": "2569508",
    "title": "통일촌마을",
    "address": "경기도 파주시 군내면 통일촌길 220",
    "phone": "",
    "latitude": "37.9063713366",
    "longitude": "126.7311617586",
    "image": "",
    "category": "안보관광지"
  },
  {
    "id": "127548",
    "title": "파주 임진각(평화누리공원)",
    "address": "경기도 파주시 문산읍 임진각로 177",
    "phone": "",
    "latitude": "37.8895929015",
    "longitude": "126.7402002968",
    "image": "http://tong.visitkorea.or.kr/cms/resource/31/3497231_image2_1.jpg",
    "category": "안보관광지"
  },
  {
    "id": "2569459",
    "title": "펀치볼지구전투전적비",
    "address": "강원특별자치도 양구군 동면 팔랑리",
    "phone": "",
    "latitude": "38.2160011446",
    "longitude": "128.0463239786",
    "image": "http://tong.visitkorea.or.kr/cms/resource/32/3533832_image2_1.jpg",
    "category": "안보관광지"
  },
  {
    "id": "922013",
    "title": "필리핀군 참전기념비",
    "address": "경기도 고양시 덕양구 관산동",
    "phone": "",
    "latitude": "37.6884548383",
    "longitude": "126.8729133116",
    "image": "http://tong.visitkorea.or.kr/cms/resource/60/3513560_image2_1.jpg",
    "category": "안보관광지"
  },
  {
    "id": "2570364",
    "title": "한국DMZ평화생명동산",
    "address": "강원특별자치도 인제군 서화면 금강로 1630",
    "phone": "",
    "latitude": "38.2405874812",
    "longitude": "128.2082167941",
    "image": "http://tong.visitkorea.or.kr/cms/resource/15/3502615_image2_1.jpg",
    "category": "안보관광지"
  },
  {
    "id": "2569472",
    "title": "한반도통일미래센터",
    "address": "경기도 연천군 전곡읍 남계로 408",
    "phone": "",
    "latitude": "38.0016346439",
    "longitude": "127.0080891882",
    "image": "http://tong.visitkorea.or.kr/cms/resource/32/2566732_image2_1.jpg",
    "category": "안보관광지"
  },
  {
    "id": "127408",
    "title": "1.21 무장공비 침투로",
    "address": "경기도 연천군 장남면 반정리 294",
    "phone": "",
    "latitude": "37.9702017321",
    "longitude": "126.8281565928",
    "image": "",
    "category": "안보관광지"
  },
  {
    "id": "2568711",
    "title": "643고지전투전적비",
    "address": "강원특별자치도 화천군 화천읍 대이리",
    "phone": "",
    "latitude": "38.1095553517",
    "longitude": "127.7590200916",
    "image": "http://tong.visitkorea.or.kr/cms/resource/85/2566285_image2_1.jpg",
    "category": "안보관광지"
  },
  {
    "id": "2569488",
    "title": "DMZ 두루미 평화타운(구 철새마을)",
    "address": "강원특별자치도 철원군 동송읍 양지2길 15-19",
    "phone": "",
    "latitude": "38.2659004414",
    "longitude": "127.2827145794",
    "image": "http://tong.visitkorea.or.kr/cms/resource/11/3333811_image2_1.JPG",
    "category": "안보관광지"
  },
  {
    "id": "2831210",
    "title": "DMZ 생생누리",
    "address": "경기도 파주시 문산읍 임진각로 148-57",
    "phone": "",
    "latitude": "37.8905844440",
    "longitude": "126.7397336451",
    "image": "http://tong.visitkorea.or.kr/cms/resource/18/2874218_image2_1.jpg",
    "category": "안보관광지"
  },
  {
    "id": "2569463",
    "title": "DMZ펀치볼둘레길",
    "address": "강원특별자치도 양구군 해안면 해안서화로 23",
    "phone": "",
    "latitude": "38.2906137518",
    "longitude": "128.1442044239",
    "image": "http://tong.visitkorea.or.kr/cms/resource/06/3332706_image2_1.jpg",
    "category": "안보관광지"
  }
]