[
  {
    "id": "126905",
    "title": "가리산자연휴양림",
    "address": "강원특별자치도 홍천군 두촌면 가리산길 426",
    "phone": "",
    "latitude": "37.8656156746",
    "longitude": "127.9795073354",
    "image": "",
    "category": "자연휴양림"
  },
  {
    "id": "128205",
    "title": "간월산 자연휴양림",
    "address": "울산광역시 울주군 상북면 등억알프스로 607-15",
    "phone": "",
    "latitude": "35.5671043874",
    "longitude": "129.0560529115",
    "image": "http://tong.visitkorea.or.kr/cms/resource/99/609199_image2_1.jpg",
    "category": "자연휴양림"
  },
  {
    "id": "2613159",
    "title": "갈모봉 산림욕장",
    "address": "경상남도 고성군 고성읍 갈모봉숲길 42",
    "phone": "",
    "latitude": "34.9718346636",
    "longitude": "128.2676407226",
    "image": "http://tong.visitkorea.or.kr/cms/resource/47/3353847_image2_1.jpg",
    "category": "자연휴양림"
  },
  {
    "id": "2774103",
    "title": "강씨봉 자연휴양림",
    "address": "경기도 가평군 북면 논남기길 520",
    "phone": "",
    "latitude": "37.9700067673",
    "longitude": "127.4083868175",
    "image": "http://tong.visitkorea.or.kr/cms/resource/28/2774128_image2_1.jpg",
    "category": "자연휴양림"
  },
  {
    "id": "3403616",
    "title": "갯골자연휴양림",
    "address": "강원특별자치도 인제군 인제읍 인제로103번길 501",
    "phone": "",
    "latitude": "38.0807906830",
    "longitude": "128.1281817583",
    "image": "http://tong.visitkorea.or.kr/cms/resource/07/3395807_image2_1.JPG",
    "category": "자연휴양림"
  },
  {
    "id": "126582",
    "title": "거제자연휴양림",
    "address": "경상남도 거제시 동부면 거제중앙로 325",
    "phone": "",
    "latitude": "34.7841760229",
    "longitude": "128.6296446835",
    "image": "http://tong.visitkorea.or.kr/cms/resource/75/3499875_image2_1.jpg",
    "category": "자연휴양림"
  },
  {
    "id": "126678",
    "title": "계명산 자연휴양림",
    "address": "충청북도 충주시 충주호수로 1170 (종민동)",
    "phone": "",
    "latitude": "36.9785629705",
    "longitude": "127.9956680059",
    "image": "http://tong.visitkorea.or.kr/cms/resource/40/3505240_image2_1.jpg",
    "category": "자연휴양림"
  },
  {
    "id": "1114802",
    "title": "계양산 산림욕장",
    "address": "인천광역시 계양구 임학동",
    "phone": "",
    "latitude": "37.5497517735",
    "longitude": "126.7305135554",
    "image": "http://tong.visitkorea.or.kr/cms/resource/32/3043432_image2_1.jpg",
    "category": "자연휴양림"
  },
  {
    "id": "3018261",
    "title": "고대산자연휴양림",
    "address": "경기도 연천군 신서면 고대산길 84-79",
    "phone": "",
    "latitude": "38.2113155104",
    "longitude": "127.1506644287",
    "image": "http://tong.visitkorea.or.kr/cms/resource/03/3002903_image2_1.jpg",
    "category": "자연휴양림"
  },
  {
    "id": "127533",
    "title": "고산자연휴양림",
    "address": "전북특별자치도 완주군 고산면 고산휴양림로 246",
    "phone": "",
    "latitude": "35.9629766259",
    "longitude": "127.2331252962",
    "image": "http://tong.visitkorea.or.kr/cms/resource/67/3061367_image2_1.jpg",
    "category": "자연휴양림"
  },
  {
    "id": "1089831",
    "title": "광치자연휴양림",
    "address": "강원특별자치도 양구군 국토정중앙면 광치령로1794번길 265",
    "phone": "",
    "latitude": "38.1413047697",
    "longitude": "128.0711128881",
    "image": "http://tong.visitkorea.or.kr/cms/resource/08/3514808_image2_1.jpg",
    "category": "자연휴양림"
  },
  {
    "id": "2733419",
    "title": "구름산 산림욕장(구름산 도시자연공원)",
    "address": "경기도 광명시 오리로619번길 34 (하안동)",
    "phone": "",
    "latitude": "37.4545987722",
    "longitude": "126.8772250678",
    "image": "",
    "category": "자연휴양림"
  },
  {
    "id": "128051",
    "title": "구수곡자연휴양림",
    "address": "경상북도 울진군 십이령로 2721 구수곡자연휴양림",
    "phone": "",
    "latitude": "37.0636166931",
    "longitude": "129.2914246904",
    "image": "http://tong.visitkorea.or.kr/cms/resource/18/183218_image2_1.jpg",
    "category": "자연휴양림"
  },
  {
    "id": "2759620",
    "title": "구재봉자연휴양림",
    "address": "경상남도 하동군 적량면 중서길 60-81",
    "phone": "",
    "latitude": "35.1289966606",
    "longitude": "127.7441130348",
    "image": "http://tong.visitkorea.or.kr/cms/resource/22/3549722_image2_1.jpg",
    "category": "자연휴양림"
  },
  {
    "id": "125413",
    "title": "국립 가리왕산자연휴양림",
    "address": "강원특별자치도 정선군 정선읍 가리왕산로 707",
    "phone": "",
    "latitude": "37.4268471267",
    "longitude": "128.5700393556",
    "image": "http://tong.visitkorea.or.kr/cms/resource/19/3497919_image2_1.jpg",
    "category": "자연휴양림"
  },
  {
    "id": "407254",
    "title": "국립 낙안민속자연휴양림",
    "address": "전라남도 순천시 낙안면 민속마을길 1600",
    "phone": "",
    "latitude": "34.9177636987",
    "longitude": "127.3560025388",
    "image": "",
    "category": "자연휴양림"
  },
  {
    "id": "2606230",
    "title": "국립 달음산자연휴양림",
    "address": "부산광역시 기장군 일광면 화용길 299-106",
    "phone": "",
    "latitude": "35.3027559437",
    "longitude": "129.1854434167",
    "image": "http://tong.visitkorea.or.kr/cms/resource/21/2611721_image2_1.jpg",
    "category": "자연휴양림"
  },
  {
    "id": "741053",
    "title": "국립 대야산자연휴양림",
    "address": "경상북도 문경시 가은읍 용추길 31-35",
    "phone": "",
    "latitude": "36.6709060030",
    "longitude": "127.9619770044",
    "image": "http://tong.visitkorea.or.kr/cms/resource/95/3049795_image2_1.JPG",
    "category": "자연휴양림"
  },
  {
    "id": "125416",
    "title": "국립 덕유산자연휴양림",
    "address": "전북특별자치도 무주군 무풍면 구천동로 530-62",
    "phone": "",
    "latitude": "35.9081431480",
    "longitude": "127.8148028419",
    "image": "http://tong.visitkorea.or.kr/cms/resource/42/3064442_image2_1.JPG",
    "category": "자연휴양림"
  },
  {
    "id": "127805",
    "title": "국립 미천골자연휴양림",
    "address": "강원특별자치도 양양군 서면 미천골길 115",
    "phone": "",
    "latitude": "37.9489994722",
    "longitude": "128.5120426092",
    "image": "http://tong.visitkorea.or.kr/cms/resource/31/3493231_image2_1.jpg",
    "category": "자연휴양림"
  },
  {
    "id": "127168",
    "title": "국립 방장산자연휴양림",
    "address": "전라남도 장성군 북이면 방장로 353",
    "phone": "",
    "latitude": "35.4440884340",
    "longitude": "126.7514232211",
    "image": "http://tong.visitkorea.or.kr/cms/resource/98/3575398_image2_1.jpg",
    "category": "자연휴양림"
  },
  {
    "id": "126677",
    "title": "국립 방태산자연휴양림",
    "address": "강원특별자치도 인제군 방태산길 241 방태산자연휴양림",
    "phone": "",
    "latitude": "37.9297382126",
    "longitude": "128.3879794410",
    "image": "http://tong.visitkorea.or.kr/cms/resource/35/3426835_image2_1.jpg",
    "category": "자연휴양림"
  },
  {
    "id": "688257",
    "title": "국립 백운산자연휴양림(원주)",
    "address": "강원특별자치도 원주시 판부면 백운산길 81",
    "phone": "",
    "latitude": "37.2772136803",
    "longitude": "127.9421225302",
    "image": "http://tong.visitkorea.or.kr/cms/resource/87/3045487_image2_1.jpg",
    "category": "자연휴양림"
  },
  {
    "id": "128174",
    "title": "국립 복주산자연휴양림",
    "address": "강원특별자치도 철원군 근남면 하오재로 818",
    "phone": "",
    "latitude": "38.1437543593",
    "longitude": "127.4732201929",
    "image": "http://tong.visitkorea.or.kr/cms/resource/67/3040767_image2_1.jpg",
    "category": "자연휴양림"
  },
  {
    "id": "127171",
    "title": "국립 산음자연휴양림",
    "address": "경기도 양평군 단월면 고북길 347",
    "phone": "",
    "latitude": "37.5961338783",
    "longitude": "127.5751825647",
    "image": "",
    "category": "자연휴양림"
  },
  {
    "id": "125420",
    "title": "국립 삼봉자연휴양림",
    "address": "강원특별자치도 홍천군 내면 삼봉휴양길 276",
    "phone": "033-435-8536",
    "latitude": "37.8521347278",
    "longitude": "128.4608696552",
    "image": "http://tong.visitkorea.or.kr/cms/resource/53/3494153_image2_1.jpg",
    "category": "자연휴양림"
  },
  {
    "id": "129644",
    "title": "국립 오서산자연휴양림",
    "address": "충청남도 보령시 청라면 오서산길 531",
    "phone": "",
    "latitude": "36.4534191329",
    "longitude": "126.6729069396",
    "image": "http://tong.visitkorea.or.kr/cms/resource/34/531634_image2_1.jpg",
    "category": "자연휴양림"
  },
  {
    "id": "125412",
    "title": "국립 용대자연휴양림",
    "address": "강원특별자치도 인제군 북면 연화동길 7",
    "phone": "033-462-5031",
    "latitude": "38.2316443099",
    "longitude": "128.3646639310",
    "image": "http://tong.visitkorea.or.kr/cms/resource/53/3042453_image2_1.jpg",
    "category": "자연휴양림"
  },
  {
    "id": "3385644",
    "title": "국립 용지봉 자연휴양림",
    "address": "경상남도 김해시 대청계곡길 170-36 (대청동)",
    "phone": "",
    "latitude": "35.1855532031",
    "longitude": "128.7759573163",
    "image": "http://tong.visitkorea.or.kr/cms/resource/53/3383353_image2_1.JPG",
    "category": "자연휴양림"
  },
  {
    "id": "407210",
    "title": "국립 용현자연휴양림",
    "address": "충청남도 서산시 운산면 마애삼존불길 339",
    "phone": "",
    "latitude": "36.7519281053",
    "longitude": "126.6076521078",
    "image": "http://tong.visitkorea.or.kr/cms/resource/58/3055058_image2_1.jpg",
    "category": "자연휴양림"
  },
  {
    "id": "407225",
    "title": "국립 용화산자연휴양림",
    "address": "강원특별자치도 춘천시 사북면 사여골길 294",
    "phone": "",
    "latitude": "38.0062332216",
    "longitude": "127.7141439487",
    "image": "http://tong.visitkorea.or.kr/cms/resource/90/3351390_image2_1.jpg",
    "category": "자연휴양림"
  },
  {
    "id": "407234",
    "title": "국립 운악산자연휴양림",
    "address": "경기도 포천시 화현면 화동로184번길 39",
    "phone": "",
    "latitude": "37.8831650163",
    "longitude": "127.3065181095",
    "image": "http://tong.visitkorea.or.kr/cms/resource/93/3024393_image2_1.jpg",
    "category": "자연휴양림"
  },
  {
    "id": "127169",
    "title": "국립 운장산자연휴양림",
    "address": "전북특별자치도 진안군 정천면 휴양림길 77",
    "phone": "063-432-1193",
    "latitude": "35.8963458988",
    "longitude": "127.4244517017",
    "image": "http://tong.visitkorea.or.kr/cms/resource/78/3561378_image2_1.jpg",
    "category": "자연휴양림"
  },
  {
    "id": "125409",
    "title": "국립 유명산자연휴양림",
    "address": "경기도 가평군 설악면 유명산길 79-53",
    "phone": "",
    "latitude": "37.5932493406",
    "longitude": "127.4914680287",
    "image": "http://tong.visitkorea.or.kr/cms/resource/75/3077275_image2_1.jpg",
    "category": "자연휴양림"
  },
  {
    "id": "407395",
    "title": "국립 지리산자연휴양림",
    "address": "경상남도 함양군 마천면 음정길 152",
    "phone": "",
    "latitude": "35.3481257454",
    "longitude": "127.6428745788",
    "image": "http://tong.visitkorea.or.kr/cms/resource/65/3049765_image2_1.JPG",
    "category": "자연휴양림"
  },
  {
    "id": "125419",
    "title": "국립 천관산자연휴양림",
    "address": "전라남도 장흥군 관산읍 칠관로 842-1150",
    "phone": "",
    "latitude": "34.5451339297",
    "longitude": "126.8998851572",
    "image": "http://tong.visitkorea.or.kr/cms/resource/42/2704942_image2_1.jpg",
    "category": "자연휴양림"
  },
  {
    "id": "125266",
    "title": "국립 청태산자연휴양림",
    "address": "강원특별자치도 횡성군 둔내면 청태산로 610",
    "phone": "",
    "latitude": "37.5225141217",
    "longitude": "128.2919115390",
    "image": "http://tong.visitkorea.or.kr/cms/resource/21/2657021_image2_1.jpg",
    "category": "자연휴양림"
  },
  {
    "id": "125430",
    "title": "국립 통고산자연휴양림",
    "address": "경상북도 울진군 금강송면 불영계곡로 880",
    "phone": "",
    "latitude": "36.9337129630",
    "longitude": "129.1917680299",
    "image": "http://tong.visitkorea.or.kr/cms/resource/45/3505845_image2_1.jpg",
    "category": "자연휴양림"
  },
  {
    "id": "407236",
    "title": "국립 황정산자연휴양림",
    "address": "충청북도 단양군 대강면 황정산로 239-11",
    "phone": "",
    "latitude": "36.8412603023",
    "longitude": "128.3489930942",
    "image": "http://tong.visitkorea.or.kr/cms/resource/93/3067493_image2_1.jpg",
    "category": "자연휴양림"
  },
  {
    "id": "126965",
    "title": "국립 희리산해송자연휴양림",
    "address": "충청남도 서천군 종천면 희리산길 206",
    "phone": "",
    "latitude": "36.1173547912",
    "longitude": "126.6683911578",
    "image": "http://tong.visitkorea.or.kr/cms/resource/36/3567036_image2_1.jpg",
    "category": "자연휴양림"
  },
  {
    "id": "126745",
    "title": "국립검마산자연휴양림",
    "address": "경상북도 영양군 수비면 검마산길 191",
    "phone": "",
    "latitude": "36.7456435593",
    "longitude": "129.2315701232",
    "image": "http://tong.visitkorea.or.kr/cms/resource/93/3526493_image2_1.jpg",
    "category": "자연휴양림"
  },
  {
    "id": "687616",
    "title": "국립검봉산자연휴양림",
    "address": "강원특별자치도 삼척시 원덕읍 임원안길 525-145",
    "phone": "",
    "latitude": "37.2399605700",
    "longitude": "129.3021544703",
    "image": "",
    "category": "자연휴양림"
  },
  {
    "id": "3337020",
    "title": "국립김천숲속야영장",
    "address": "경상북도 김천시 대덕면 조룡길 865",
    "phone": "",
    "latitude": "35.9499270286",
    "longitude": "127.9550170585",
    "image": "http://tong.visitkorea.or.kr/cms/resource/36/3337036_image2_1.jpg",
    "category": "자연휴양림"
  },
  {
    "id": "2995966",
    "title": "국립나주숲체원",
    "address": "전라남도 나주시 금성산길 116 (경현동)",
    "phone": "061-338-8416",
    "latitude": "35.0474936168",
    "longitude": "126.7042095309",
    "image": "http://tong.visitkorea.or.kr/cms/resource/38/3106038_image2_1.jpg",
    "category": "자연휴양림"
  },
  {
    "id": "126959",
    "title": "국립남해편백자연휴양림",
    "address": "경상남도 남해군 삼동면 금암로 658",
    "phone": "",
    "latitude": "34.7521437800",
    "longitude": "128.0201541540",
    "image": "http://tong.visitkorea.or.kr/cms/resource/38/3501238_image2_1.jpg",
    "category": "자연휴양림"
  },
  {
    "id": "125417",
    "title": "국립대관령자연휴양림",
    "address": "강원특별자치도 강릉시 성산면 삼포암길 133",
    "phone": "",
    "latitude": "37.7149097631",
    "longitude": "128.7905413133",
    "image": "http://tong.visitkorea.or.kr/cms/resource/12/3016112_image2_1.jpg",
    "category": "자연휴양림"
  },
  {
    "id": "2662681",
    "title": "국립대전숲체원",
    "address": "대전광역시 유성구 숲체원로 124 (성북동)",
    "phone": "",
    "latitude": "36.3235448131",
    "longitude": "127.2910049426",
    "image": "",
    "category": "자연휴양림"
  },
  {
    "id": "407252",
    "title": "국립두타산자연휴양림",
    "address": "강원특별자치도 평창군 진부면 아차골길 132",
    "phone": "",
    "latitude": "37.5597985551",
    "longitude": "128.5759014877",
    "image": "http://tong.visitkorea.or.kr/cms/resource/99/3555099_image2_1.jpg",
    "category": "자연휴양림"
  },
  {
    "id": "3078309",
    "title": "국립무의도자연휴양림",
    "address": "인천광역시 중구 하나개로 74 (무의동)",
    "phone": "",
    "latitude": "37.3885676990",
    "longitude": "126.4126914722",
    "image": "http://tong.visitkorea.or.kr/cms/resource/63/3053063_image2_1.jpg",
    "category": "자연휴양림"
  },
  {
    "id": "2447115",
    "title": "국립산림치유원",
    "address": "경상북도 영주시 봉현면 테라피로 209",
    "phone": "",
    "latitude": "36.8578218299",
    "longitude": "128.4726010160",
    "image": "http://tong.visitkorea.or.kr/cms/resource/48/3105948_image2_1.jpg",
    "category": "자연휴양림"
  },
  {
    "id": "2769697",
    "title": "국립속리산말티재자연휴양림",
    "address": "충청북도 보은군 장안면 속리산로 256",
    "phone": "",
    "latitude": "36.4902039777",
    "longitude": "127.7822703483",
    "image": "http://tong.visitkorea.or.kr/cms/resource/80/3577080_image2_1.jpg",
    "category": "자연휴양림"
  },
  {
    "id": "2737403",
    "title": "국립신시도자연휴양림",
    "address": "전북특별자치도 군산시 옥도면 신시도길 271",
    "phone": "",
    "latitude": "35.8282590494",
    "longitude": "126.4468684182",
    "image": "http://tong.visitkorea.or.kr/cms/resource/35/3532735_image2_1.jpg",
    "category": "자연휴양림"
  },
  {
    "id": "2712562",
    "title": "국립아세안자연휴양림",
    "address": "경기도 양주시 백석읍 기산로 472",
    "phone": "",
    "latitude": "37.7738766886",
    "longitude": "126.9421934380",
    "image": "http://tong.visitkorea.or.kr/cms/resource/53/3409253_image2_1.jpg",
    "category": "자연휴양림"
  },
  {
    "id": "2987390",
    "title": "국립예산치유의숲",
    "address": "충청남도 예산군 치유숲길 203-31",
    "phone": "041-330-0902",
    "latitude": "36.7032769852",
    "longitude": "126.8595751138",
    "image": "http://tong.visitkorea.or.kr/cms/resource/88/2987388_image2_1.jpg",
    "category": "자연휴양림"
  },
  {
    "id": "2553976",
    "title": "국립장성숲체원",
    "address": "전라남도 장성군 북이면 방장로 353",
    "phone": "",
    "latitude": "35.4440884340",
    "longitude": "126.7514232211",
    "image": "http://tong.visitkorea.or.kr/cms/resource/79/2553979_image2_1.JPG",
    "category": "자연휴양림"
  },
  {
    "id": "2754972",
    "title": "국립진도자연휴양림",
    "address": "전라남도 진도군 임회면 동령개길 1-92",
    "phone": "",
    "latitude": "34.3575710683",
    "longitude": "126.1864467690",
    "image": "http://tong.visitkorea.or.kr/cms/resource/39/2755339_image2_1.jpg",
    "category": "자연휴양림"
  },
  {
    "id": "3505997",
    "title": "국립진안고원산림치유원(국립지덕권산림치유원)",
    "address": "전북특별자치도 진안군 백운면 백운동로 473",
    "phone": "",
    "latitude": "35.6799068650",
    "longitude": "127.4397616192",
    "image": "http://tong.visitkorea.or.kr/cms/resource/74/3505974_image2_1.jpg",
    "category": "자연휴양림"
  },
  {
    "id": "3033035",
    "title": "국립청도숲체원",
    "address": "경상북도 청도군 운문로 755 국립청도숲체원",
    "phone": "",
    "latitude": "35.6512110229",
    "longitude": "129.0261781745",
    "image": "http://tong.visitkorea.or.kr/cms/resource/87/3032987_image2_1.jpg",
    "category": "자연휴양림"
  },
  {
    "id": "125410",
    "title": "국립청옥산자연휴양림",
    "address": "경상북도 봉화군 석포면 청옥로 1552-163",
    "phone": "",
    "latitude": "37.0387638157",
    "longitude": "128.9958489862",
    "image": "http://tong.visitkorea.or.kr/cms/resource/97/3500497_image2_1.jpg",
    "category": "자연휴양림"
  },
  {
    "id": "2710587",
    "title": "국립춘천숲체원",
    "address": "강원특별자치도 춘천시 신북읍 장본2길 331",
    "phone": "033-912-9000",
    "latitude": "37.9785986109",
    "longitude": "127.7707618348",
    "image": "http://tong.visitkorea.or.kr/cms/resource/86/3439986_image2_1.jpg",
    "category": "자연휴양림"
  },
  {
    "id": "2554029",
    "title": "국립칠곡숲체원",
    "address": "경상북도 칠곡군 석적읍 유학로 532",
    "phone": "054-977-8773",
    "latitude": "36.0645232859",
    "longitude": "128.4640105132",
    "image": "http://tong.visitkorea.or.kr/cms/resource/80/3503980_image2_1.jpg",
    "category": "자연휴양림"
  },
  {
    "id": "127712",
    "title": "국립칠보산자연휴양림",
    "address": "경상북도 영덕군 병곡면 칠보산길 587",
    "phone": "",
    "latitude": "36.6232379398",
    "longitude": "129.3684616507",
    "image": "",
    "category": "자연휴양림"
  },
  {
    "id": "337517",
    "title": "국립횡성숲체원",
    "address": "강원특별자치도 횡성군 둔내면 청태산로 777",
    "phone": "",
    "latitude": "37.5372734279",
    "longitude": "128.2867115673",
    "image": "http://tong.visitkorea.or.kr/cms/resource/31/2553931_image2_1.jpg",
    "category": "자연휴양림"
  },
  {
    "id": "125464",
    "title": "국망봉자연휴양림",
    "address": "경기도 포천시 이동면 늠바위길 207-28",
    "phone": "",
    "latitude": "38.0289746665",
    "longitude": "127.3962889641",
    "image": "http://tong.visitkorea.or.kr/cms/resource/09/3580909_image2_1.jpg",
    "category": "자연휴양림"
  },
  {
    "id": "3085172",
    "title": "국제광림비전랜드",
    "address": "경기도 남양주시 화도읍 모꼬지로17번길 105",
    "phone": "",
    "latitude": "37.6801952457",
    "longitude": "127.3642159692",
    "image": "http://tong.visitkorea.or.kr/cms/resource/50/3085150_image2_1.JPG",
    "category": "자연휴양림"
  },
  {
    "id": "127477",
    "title": "군위 장곡자연휴양림",
    "address": "대구광역시 군위군 고로면 장곡휴양림길 195",
    "phone": "054-380-6317",
    "latitude": "36.1298034567",
    "longitude": "128.8419725161",
    "image": "http://tong.visitkorea.or.kr/cms/resource/63/3029763_image2_1.jpg",
    "category": "자연휴양림"
  },
  {
    "id": "2638527",
    "title": "금강송 에코리움",
    "address": "경상북도 울진군 금강송면 십이령로 552",
    "phone": "02-3677-6677",
    "latitude": "36.9747058781",
    "longitude": "129.2115733698",
    "image": "http://tong.visitkorea.or.kr/cms/resource/65/2639065_image2_1.jpg",
    "category": "자연휴양림"
  },
  {
    "id": "407373",
    "title": "금봉자연휴양림",
    "address": "경상북도 의성군 옥산면 휴양림길 114",
    "phone": "",
    "latitude": "36.3315255999",
    "longitude": "128.8746305223",
    "image": "http://tong.visitkorea.or.kr/cms/resource/60/1979160_image2_1.jpg",
    "category": "자연휴양림"
  },
  {
    "id": "125411",
    "title": "금원산자연휴양림",
    "address": "경상남도 거창군 위천면 금원산길 471-27",
    "phone": "",
    "latitude": "35.7262217846",
    "longitude": "127.7957260893",
    "image": "http://tong.visitkorea.or.kr/cms/resource/76/2720276_image2_1.JPG",
    "category": "자연휴양림"
  },
  {
    "id": "3407176",
    "title": "기찬 자연휴양림",
    "address": "전라남도 영암군 미암면 곤미현로 1190-76",
    "phone": "",
    "latitude": "34.6934984059",
    "longitude": "126.5989191387",
    "image": "http://tong.visitkorea.or.kr/cms/resource/77/3405177_image2_1.JPG",
    "category": "자연휴양림"
  },
  {
    "id": "126939",
    "title": "남원자연휴양림",
    "address": "전북특별자치도 남원시 보산로 228 남원자연휴양림",
    "phone": "",
    "latitude": "35.4570177788",
    "longitude": "127.4140697206",
    "image": "http://tong.visitkorea.or.kr/cms/resource/99/3516999_image2_1.jpg",
    "category": "자연휴양림"
  },
  {
    "id": "128099",
    "title": "낭천산림욕장",
    "address": "강원특별자치도 화천군 화천읍 중리 221",
    "phone": "",
    "latitude": "38.1095711534",
    "longitude": "127.7129937383",
    "image": "http://tong.visitkorea.or.kr/cms/resource/91/3385991_image2_1.JPG",
    "category": "자연휴양림"
  },
  {
    "id": "1928677",
    "title": "느티골산림욕장",
    "address": "충청남도 금산군 남이면 느티골길 228-17",
    "phone": "",
    "latitude": "36.0642341293",
    "longitude": "127.3685438707",
    "image": "http://tong.visitkorea.or.kr/cms/resource/34/3338634_image2_1.jpg",
    "category": "자연휴양림"
  },
  {
    "id": "126963",
    "title": "대둔산자연휴양림",
    "address": "충청남도 금산군 진산면 대둔산로 6",
    "phone": "",
    "latitude": "36.1223131984",
    "longitude": "127.3448472076",
    "image": "http://tong.visitkorea.or.kr/cms/resource/57/3045157_image2_1.JPG",
    "category": "자연휴양림"
  },
  {
    "id": "2790512",
    "title": "대봉산자연휴양림",
    "address": "경상남도 함양군 병곡면 병곡지곡로 333",
    "phone": "",
    "latitude": "35.5779815896",
    "longitude": "127.7150482787",
    "image": "http://tong.visitkorea.or.kr/cms/resource/74/2792874_image2_1.jpg",
    "category": "자연휴양림"
  },
  {
    "id": "789897",
    "title": "도사곡휴양림",
    "address": "강원특별자치도 정선군 사북읍 지장천로 436-27",
    "phone": "",
    "latitude": "37.2267328283",
    "longitude": "128.7956223479",
    "image": "http://tong.visitkorea.or.kr/cms/resource/61/3342261_image2_1.jpg",
    "category": "자연휴양림"
  },
  {
    "id": "2753093",
    "title": "독산성산림욕장",
    "address": "경기도 오산시 지곶동 산136",
    "phone": "",
    "latitude": "37.1807996812",
    "longitude": "127.0180588086",
    "image": "http://tong.visitkorea.or.kr/cms/resource/69/2753069_image2_1.jpg",
    "category": "자연휴양림"
  },
  {
    "id": "3393682",
    "title": "독용산성 자연휴양림",
    "address": "경상북도 성주군 금수강산면 봉두리",
    "phone": "",
    "latitude": "35.9063657750",
    "longitude": "128.1347190056",
    "image": "http://tong.visitkorea.or.kr/cms/resource/46/3393546_image2_1.jpg",
    "category": "자연휴양림"
  },
  {
    "id": "2705058",
    "title": "동강전망자연휴양림",
    "address": "강원특별자치도 정선군 신동읍 동강로 916-212",
    "phone": "",
    "latitude": "37.2597337758",
    "longitude": "128.6079603967",
    "image": "",
    "category": "자연휴양림"
  },
  {
    "id": "2661425",
    "title": "동두천자연휴양림",
    "address": "경기도 동두천시 탑동가산로 1 (탑동동)",
    "phone": "",
    "latitude": "37.8899222467",
    "longitude": "127.1371333896",
    "image": "http://tong.visitkorea.or.kr/cms/resource/18/2661418_image2_1.jpg",
    "category": "자연휴양림"
  },
  {
    "id": "3015120",
    "title": "동의보감촌한방자연휴양림",
    "address": "경상남도 산청군 금서면 동의보감로555번길 186",
    "phone": "",
    "latitude": "35.4355774103",
    "longitude": "127.8249562336",
    "image": "http://tong.visitkorea.or.kr/cms/resource/32/3014632_image2_1.JPG",
    "category": "자연휴양림"
  },
  {
    "id": "2638573",
    "title": "두루웰 자연휴양림",
    "address": "강원특별자치도 철원군 갈말읍 지경1길 69",
    "phone": "",
    "latitude": "38.2280506181",
    "longitude": "127.3532647862",
    "image": "",
    "category": "자연휴양림"
  },
  {
    "id": "2789625",
    "title": "둔내자연휴양림",
    "address": "강원특별자치도 횡성군 둔내면 청태산로154번길 334",
    "phone": "",
    "latitude": "37.5125926787",
    "longitude": "128.2724941422",
    "image": "http://tong.visitkorea.or.kr/cms/resource/32/3457832_image2_1.png",
    "category": "자연휴양림"
  },
  {
    "id": "126849",
    "title": "마곡사 천연송림욕장",
    "address": "충청남도 공주시 사곡면 마곡사로",
    "phone": "",
    "latitude": "36.5590434680",
    "longitude": "127.0123513592",
    "image": "http://tong.visitkorea.or.kr/cms/resource/40/3390240_image2_1.JPG",
    "category": "자연휴양림"
  },
  {
    "id": "2742424",
    "title": "마천산산림욕장",
    "address": "대구광역시 달성군 다사읍 이천리",
    "phone": "",
    "latitude": "35.8894429892",
    "longitude": "128.4556244600",
    "image": "http://tong.visitkorea.or.kr/cms/resource/09/3550209_image2_1.jpg",
    "category": "자연휴양림"
  },
  {
    "id": "125424",
    "title": "만수산자연휴양림",
    "address": "충청남도 부여군 외산면 휴양로 107",
    "phone": "",
    "latitude": "36.3385857609",
    "longitude": "126.7119564584",
    "image": "http://tong.visitkorea.or.kr/cms/resource/32/3336432_image2_1.jpg",
    "category": "자연휴양림"
  },
  {
    "id": "2661814",
    "title": "만인산 자연휴양림",
    "address": "대전광역시 동구 산내로 106",
    "phone": "",
    "latitude": "36.2022976798",
    "longitude": "127.4547630291",
    "image": "http://tong.visitkorea.or.kr/cms/resource/87/3350787_image2_1.jpg",
    "category": "자연휴양림"
  },
  {
    "id": "125429",
    "title": "만인산푸른학습원",
    "address": "대전광역시 동구 산내로 106",
    "phone": "",
    "latitude": "36.2021449168",
    "longitude": "127.4545991589",
    "image": "http://tong.visitkorea.or.kr/cms/resource/01/3033301_image2_1.JPG",
    "category": "자연휴양림"
  },
  {
    "id": "2681536",
    "title": "망경대산자연휴양림",
    "address": "강원특별자치도 영월군 산솔면 선도우길 177",
    "phone": "",
    "latitude": "37.1839172249",
    "longitude": "128.5935083942",
    "image": "http://tong.visitkorea.or.kr/cms/resource/76/3388576_image2_1.JPG",
    "category": "자연휴양림"
  },
  {
    "id": "126966",
    "title": "무등산편백자연휴양림",
    "address": "전라남도 화순군 이서면 안양산로 685",
    "phone": "061-373-2065",
    "latitude": "35.0918746064",
    "longitude": "127.0274076507",
    "image": "http://tong.visitkorea.or.kr/cms/resource/50/2644350_image2_1.JPG",
    "category": "자연휴양림"
  },
  {
    "id": "3392732",
    "title": "무봉산 자연휴양림",
    "address": "경기도 화성시 동탄순환대로24길 185 (중동)",
    "phone": "",
    "latitude": "37.2086872963",
    "longitude": "127.1273592364",
    "image": "http://tong.visitkorea.or.kr/cms/resource/93/3392093_image2_1.jpg",
    "category": "자연휴양림"
  },
  {
    "id": "2706626",
    "title": "무주 향로산 자연휴양림",
    "address": "전북특별자치도 무주군 무주읍 무학로 153-36",
    "phone": "",
    "latitude": "36.0240523805",
    "longitude": "127.6699125722",
    "image": "http://tong.visitkorea.or.kr/cms/resource/62/3562062_image2_1.jpg",
    "category": "자연휴양림"
  },
  {
    "id": "3032775",
    "title": "미숭산자연휴양림",
    "address": "경상북도 고령군 낫질로 672-99",
    "phone": "",
    "latitude": "35.7508735326",
    "longitude": "128.2035282846",
    "image": "http://tong.visitkorea.or.kr/cms/resource/56/3032756_image2_1.jpg",
    "category": "자연휴양림"
  },
  {
    "id": "2777911",
    "title": "미평 봉화산 산림욕장",
    "address": "전라남도 여수시 미평동 21-1",
    "phone": "",
    "latitude": "34.7750164603",
    "longitude": "127.7151941056",
    "image": "http://tong.visitkorea.or.kr/cms/resource/55/3421855_image2_1.jpg",
    "category": "자연휴양림"
  },
  {
    "id": "407414",
    "title": "민주지산 자연휴양림",
    "address": "충청북도 영동군 용화면 휴양림길 60",
    "phone": "043-740-3437",
    "latitude": "36.0534823501",
    "longitude": "127.8243924940",
    "image": "http://tong.visitkorea.or.kr/cms/resource/72/3335672_image2_1.JPG",
    "category": "자연휴양림"
  },
  {
    "id": "2858372",
    "title": "밀양 도래재 자연휴양림",
    "address": "경상남도 밀양시 도래재로 462",
    "phone": "",
    "latitude": "35.5565728431",
    "longitude": "128.9391523210",
    "image": "http://tong.visitkorea.or.kr/cms/resource/06/2858306_image2_1.jpg",
    "category": "자연휴양림"
  },
  {
    "id": "125422",
    "title": "박달재자연휴양림",
    "address": "충청북도 제천시 백운면 금봉로 223",
    "phone": "",
    "latitude": "37.1475999931",
    "longitude": "128.0455253163",
    "image": "http://tong.visitkorea.or.kr/cms/resource/39/3061139_image2_1.JPG",
    "category": "자연휴양림"
  },
  {
    "id": "1623888",
    "title": "방화동자연휴양림·가족휴가촌",
    "address": "전북특별자치도 장수군 번암면 방화동로 778",
    "phone": "",
    "latitude": "35.5897575387",
    "longitude": "127.5291060762",
    "image": "http://tong.visitkorea.or.kr/cms/resource/01/3555101_image2_1.jpg",
    "category": "자연휴양림"
  },
  {
    "id": "127478",
    "title": "백아산자연휴양림",
    "address": "전라남도 화순군 백아면 수양로 353",
    "phone": "",
    "latitude": "35.1600250519",
    "longitude": "127.1787786835",
    "image": "http://tong.visitkorea.or.kr/cms/resource/24/3061324_image2_1.jpg",
    "category": "자연휴양림"
  },
  {
    "id": "2761716",
    "title": "백야자연휴양림",
    "address": "충청북도 음성군 금왕읍 백야리",
    "phone": "",
    "latitude": "36.9754506047",
    "longitude": "127.6045199226",
    "image": "",
    "category": "자연휴양림"
  },
  {
    "id": "126960",
    "title": "백운산자연휴양림",
    "address": "전라남도 광양시 백계로 337 백운산휴양림",
    "phone": "",
    "latitude": "35.0516111635",
    "longitude": "127.5985444870",
    "image": "",
    "category": "자연휴양림"
  },
  {
    "id": "2381381",
    "title": "법기수원지",
    "address": "경상남도 양산시 동면 법기로 198-13",
    "phone": "",
    "latitude": "35.3483965720",
    "longitude": "129.1062407204",
    "image": "http://tong.visitkorea.or.kr/cms/resource/56/3489356_image2_1.jpg",
    "category": "자연휴양림"
  },
  {
    "id": "2031650",
    "title": "변산자연휴양림",
    "address": "전북특별자치도 부안군 변산면 변산로 3768",
    "phone": "",
    "latitude": "35.5815940097",
    "longitude": "126.5251871052",
    "image": "http://tong.visitkorea.or.kr/cms/resource/80/3499880_image2_1.jpg",
    "category": "자연휴양림"
  },
  {
    "id": "3407187",
    "title": "보현산 자연휴양림",
    "address": "경상북도 영천시 화북면 배나무정길 334",
    "phone": "",
    "latitude": "36.1424323623",
    "longitude": "128.9782518056",
    "image": "http://tong.visitkorea.or.kr/cms/resource/45/3407145_image2_1.jpg",
    "category": "자연휴양림"
  },
  {
    "id": "2777602",
    "title": "봉래산산림욕장",
    "address": "강원특별자치도 영월군 영월읍 영흥리",
    "phone": "",
    "latitude": "37.2011493909",
    "longitude": "128.4901254836",
    "image": "http://tong.visitkorea.or.kr/cms/resource/98/3379298_image2_1.JPG",
    "category": "자연휴양림"
  },
  {
    "id": "407267",
    "title": "봉수산자연휴양림&수목원",
    "address": "충청남도 예산군 대흥면 임존성길 153",
    "phone": "",
    "latitude": "36.5984515604",
    "longitude": "126.7808822465",
    "image": "http://tong.visitkorea.or.kr/cms/resource/69/1601669_image2_1.jpg",
    "category": "자연휴양림"
  },
  {
    "id": "2715405",
    "title": "봉황산산림욕장",
    "address": "강원특별자치도 삼척시 척주로 112",
    "phone": "",
    "latitude": "37.4384880515",
    "longitude": "129.1757124490",
    "image": "http://tong.visitkorea.or.kr/cms/resource/23/3503923_image2_1.jpg",
    "category": "자연휴양림"
  },
  {
    "id": "2784672",
    "title": "봉황산자연휴양림",
    "address": "전라남도 여수시 돌산읍 대복길 160",
    "phone": "",
    "latitude": "34.6147379822",
    "longitude": "127.7618190963",
    "image": "http://tong.visitkorea.or.kr/cms/resource/46/3552346_image2_1.JPG",
    "category": "자연휴양림"
  },
  {
    "id": "125423",
    "title": "봉황자연휴양림",
    "address": "충청북도 충주시 가금면 수룡봉황길 540",
    "phone": "",
    "latitude": "37.0601643172",
    "longitude": "127.8246921445",
    "image": "http://tong.visitkorea.or.kr/cms/resource/16/3061916_image2_1.jpg",
    "category": "자연휴양림"
  },
  {
    "id": "2615385",
    "title": "부귀 편백숲 삼림욕장",
    "address": "전북특별자치도 진안군 부귀면 전진로 1935-15",
    "phone": "",
    "latitude": "35.8416424403",
    "longitude": "127.3477433028",
    "image": "http://tong.visitkorea.or.kr/cms/resource/39/3511839_image2_1.jpg",
    "category": "자연휴양림"
  },
  {
    "id": "2661537",
    "title": "북구 편백산림욕장",
    "address": "울산광역시 북구 달천동",
    "phone": "",
    "latitude": "35.6503413364",
    "longitude": "129.3042288782",
    "image": "http://tong.visitkorea.or.kr/cms/resource/35/3510535_image2_1.jpg",
    "category": "자연휴양림"
  },
  {
    "id": "125407",
    "title": "불정자연휴양림",
    "address": "경상북도 문경시 불정길 180 (불정동)",
    "phone": "",
    "latitude": "36.6223481064",
    "longitude": "128.1366238860",
    "image": "http://tong.visitkorea.or.kr/cms/resource/83/1070183_image2_1.jpg",
    "category": "자연휴양림"
  },
  {
    "id": "1898484",
    "title": "붉은오름자연휴양림",
    "address": "제주특별자치도 서귀포시 표선면 남조로 1487-73",
    "phone": "",
    "latitude": "33.3952748674",
    "longitude": "126.6742707606",
    "image": "http://tong.visitkorea.or.kr/cms/resource/70/3023770_image2_1.jpg",
    "category": "자연휴양림"
  },
  {
    "id": "125406",
    "title": "비슬산자연휴양림",
    "address": "대구광역시 달성군 유가읍 일연선사길 99",
    "phone": "",
    "latitude": "35.6900527100",
    "longitude": "128.5129249161",
    "image": "http://tong.visitkorea.or.kr/cms/resource/02/3496902_image2_1.jpg",
    "category": "자연휴양림"
  },
  {
    "id": "3377214",
    "title": "산삼 자연휴양림",
    "address": "경상남도 함양군 서상면 가르내길 202-1",
    "phone": "",
    "latitude": "35.6939368797",
    "longitude": "127.6573558616",
    "image": "http://tong.visitkorea.or.kr/cms/resource/07/3377507_image2_1.JPG",
    "category": "자연휴양림"
  },
  {
    "id": "3376911",
    "title": "산수유 자연휴양림",
    "address": "전라남도 구례군 산동면 정산길 251",
    "phone": "",
    "latitude": "35.3010084755",
    "longitude": "127.4625333721",
    "image": "http://tong.visitkorea.or.kr/cms/resource/15/3376915_image2_1.JPG",
    "category": "자연휴양림"
  },
  {
    "id": "1624669",
    "title": "삼성산산림욕장",
    "address": "경기도 안양시 만안구 예술공원로131번길 49",
    "phone": "031-389-2474",
    "latitude": "37.4206229770",
    "longitude": "126.9230162967",
    "image": "http://tong.visitkorea.or.kr/cms/resource/03/3069903_image2_1.JPG",
    "category": "자연휴양림"
  },
  {
    "id": "2776832",
    "title": "삼척활기자연휴양림",
    "address": "강원특별자치도 삼척시 미로면 준경길 651-59",
    "phone": "",
    "latitude": "37.3820061870",
    "longitude": "129.0601328588",
    "image": "http://tong.visitkorea.or.kr/cms/resource/39/3503939_image2_1.jpg",
    "category": "자연휴양림"
  },
  {
    "id": "3071086",
    "title": "상당산성 자연휴양림",
    "address": "충청북도 청주시 청원구 내수읍 덕암2길 162",
    "phone": "",
    "latitude": "36.6828442894",
    "longitude": "127.5454334244",
    "image": "http://tong.visitkorea.or.kr/cms/resource/74/3071074_image2_1.JPG",
    "category": "자연휴양림"
  },
  {
    "id": "1125480",
    "title": "상소동 산림욕장",
    "address": "대전광역시 동구 상소동 산 1-1",
    "phone": "",
    "latitude": "36.2313640959",
    "longitude": "127.4710996743",
    "image": "http://tong.visitkorea.or.kr/cms/resource/55/3320755_image2_1.jpg",
    "category": "자연휴양림"
  },
  {
    "id": "2769739",
    "title": "생거진천 자연휴양림",
    "address": "충청북도 진천군 백곡면 명암길 435-135",
    "phone": "",
    "latitude": "36.9241498594",
    "longitude": "127.3901878870",
    "image": "http://tong.visitkorea.or.kr/cms/resource/00/3465400_image2_1.JPG",
    "category": "자연휴양림"
  },
  {
    "id": "128175",
    "title": "서귀포자연휴양림",
    "address": "제주특별자치도 서귀포시 1100로 882",
    "phone": "",
    "latitude": "33.3108197268",
    "longitude": "126.4630826543",
    "image": "http://tong.visitkorea.or.kr/cms/resource/27/3023727_image2_1.jpg",
    "category": "자연휴양림"
  },
  {
    "id": "3017491",
    "title": "서봉산산림욕장",
    "address": "경기도 화성시 봉담읍 덕리",
    "phone": "",
    "latitude": "37.1719520767",
    "longitude": "126.9390134434",
    "image": "http://tong.visitkorea.or.kr/cms/resource/54/3004154_image2_1.jpg",
    "category": "자연휴양림"
  },
  {
    "id": "2747164",
    "title": "서운산자연휴양림",
    "address": "경기도 안성시 금광면 배티로 185-39",
    "phone": "",
    "latitude": "36.9424352686",
    "longitude": "127.3137720430",
    "image": "http://tong.visitkorea.or.kr/cms/resource/07/3494707_image2_1.jpg",
    "category": "자연휴양림"
  },
  {
    "id": "2748983",
    "title": "서울대공원 산림욕장",
    "address": "경기도 과천시 막계동",
    "phone": "",
    "latitude": "37.4252518729",
    "longitude": "127.0156160762",
    "image": "http://tong.visitkorea.or.kr/cms/resource/81/3537381_image2_1.jpg",
    "category": "자연휴양림"
  },
  {
    "id": "2490906",
    "title": "석모도 자연휴양림",
    "address": "인천광역시 강화군 삼산면 삼산서로 39-75",
    "phone": "",
    "latitude": "37.6994881312",
    "longitude": "126.3153612612",
    "image": "http://tong.visitkorea.or.kr/cms/resource/42/3528542_image2_1.jpg",
    "category": "자연휴양림"
  },
  {
    "id": "3361444",
    "title": "선암 자연휴양림",
    "address": "전북특별자치도 김제시 금구면 월전로 299",
    "phone": "",
    "latitude": "35.7656818478",
    "longitude": "127.0404226259",
    "image": "http://tong.visitkorea.or.kr/cms/resource/45/3361445_image2_1.JPG",
    "category": "자연휴양림"
  },
  {
    "id": "127170",
    "title": "설매재자연휴양림",
    "address": "경기도 양평군 옥천면 용천로 510",
    "phone": "",
    "latitude": "37.5561984709",
    "longitude": "127.5125699627",
    "image": "http://tong.visitkorea.or.kr/cms/resource/21/3507021_image2_1.jpg",
    "category": "자연휴양림"
  },
  {
    "id": "2379537",
    "title": "성불산자연휴양림",
    "address": "충청북도 괴산군 괴산읍 충민로기곡길 78",
    "phone": "043-830-2679",
    "latitude": "36.8156986699",
    "longitude": "127.8618068803",
    "image": "http://tong.visitkorea.or.kr/cms/resource/95/2382795_image2_1.jpg",
    "category": "자연휴양림"
  },
  {
    "id": "1621189",
    "title": "성주 경산리 성밖숲",
    "address": "경상북도 성주군 성주읍 경산리",
    "phone": "",
    "latitude": "35.9155673744",
    "longitude": "128.2801336761",
    "image": "http://tong.visitkorea.or.kr/cms/resource/33/2605533_image2_1.jpg",
    "category": "자연휴양림"
  },
  {
    "id": "252565",
    "title": "성주봉자연휴양림",
    "address": "경상북도 상주시 은척면 성주봉로 3",
    "phone": "",
    "latitude": "36.5322955079",
    "longitude": "128.0391767916",
    "image": "http://tong.visitkorea.or.kr/cms/resource/16/3579416_image2_1.jpg",
    "category": "자연휴양림"
  },
  {
    "id": "127382",
    "title": "성주산자연휴양림",
    "address": "충청남도 보령시 성주면 화장골길 57-228",
    "phone": "",
    "latitude": "36.3325717359",
    "longitude": "126.6640220359",
    "image": "",
    "category": "자연휴양림"
  },
  {
    "id": "2738090",
    "title": "세아휴양림수목원",
    "address": "경상북도 칠곡군 석적읍 호국로 605-42",
    "phone": "",
    "latitude": "36.0330402107",
    "longitude": "128.4347612000",
    "image": "http://tong.visitkorea.or.kr/cms/resource/43/3554143_image2_1.JPG",
    "category": "자연휴양림"
  },
  {
    "id": "129270",
    "title": "소래산산림욕장",
    "address": "경기도 시흥시 소래산길 37 (대야동)",
    "phone": "",
    "latitude": "19.6944274800",
    "longitude": "117.9925662504",
    "image": "http://tong.visitkorea.or.kr/cms/resource/38/3076938_image2_1.JPG",
    "category": "자연휴양림"
  },
  {
    "id": "2761765",
    "title": "소백산자연휴양림",
    "address": "충청북도 단양군 영춘면 하리방터길 180",
    "phone": "",
    "latitude": "37.0607539948",
    "longitude": "128.4672983365",
    "image": "",
    "category": "자연휴양림"
  },
  {
    "id": "129193",
    "title": "소선암자연휴양림",
    "address": "충청북도 단양군 단성면 대잠2길 15",
    "phone": "",
    "latitude": "36.9185756949",
    "longitude": "128.3095443831",
    "image": "http://tong.visitkorea.or.kr/cms/resource/55/3067555_image2_1.JPG",
    "category": "자연휴양림"
  },
  {
    "id": "2570330",
    "title": "송이밸리자연휴양림",
    "address": "강원특별자치도 양양군 양양읍 고노동길 98-50",
    "phone": "",
    "latitude": "38.0544171266",
    "longitude": "128.6215849823",
    "image": "",
    "category": "자연휴양림"
  },
  {
    "id": "2369371",
    "title": "수도산자연휴양림",
    "address": "경상북도 김천시 대덕면 증산로 326-71",
    "phone": "",
    "latitude": "35.8918230338",
    "longitude": "127.9838271989",
    "image": "http://tong.visitkorea.or.kr/cms/resource/01/3402601_image2_1.jpg",
    "category": "자연휴양림"
  },
  {
    "id": "3504884",
    "title": "수락 휴(수락산 동막골 자연휴양림)",
    "address": "서울특별시 노원구 덕릉로145길 108 (상계동)",
    "phone": "",
    "latitude": "37.6811901448",
    "longitude": "127.0899687061",
    "image": "http://tong.visitkorea.or.kr/cms/resource/09/3504909_image2_1.jpg",
    "category": "자연휴양림"
  },
  {
    "id": "632059",
    "title": "수레의산자연휴양림",
    "address": "충청북도 음성군 생극면 차생로 310-108",
    "phone": "",
    "latitude": "37.0380998189",
    "longitude": "127.6525943755",
    "image": "http://tong.visitkorea.or.kr/cms/resource/12/3064412_image2_1.JPG",
    "category": "자연휴양림"
  },
  {
    "id": "3464003",
    "title": "순천자연휴양림",
    "address": "전라남도 순천시 서면 청소년수련원길 170",
    "phone": "",
    "latitude": "35.0439209931",
    "longitude": "127.4745139193",
    "image": "http://tong.visitkorea.or.kr/cms/resource/96/3463996_image2_1.JPG",
    "category": "자연휴양림"
  },
  {
    "id": "3078306",
    "title": "승봉산림욕장",
    "address": "인천광역시 옹진군 자월면 승봉리",
    "phone": "",
    "latitude": "37.1647085817",
    "longitude": "126.3107290732",
    "image": "http://tong.visitkorea.or.kr/cms/resource/17/3497917_image2_1.jpg",
    "category": "자연휴양림"
  },
  {
    "id": "126899",
    "title": "아산 영인산자연휴양림",
    "address": "충청남도 아산시 영인면 아산온천로 16-26",
    "phone": "",
    "latitude": "36.8410210525",
    "longitude": "126.9505937184",
    "image": "http://tong.visitkorea.or.kr/cms/resource/70/3567670_image2_1.jpg",
    "category": "자연휴양림"
  },
  {
    "id": "2436209",
    "title": "안동호반자연휴양림",
    "address": "경상북도 안동시 도산면 월천길 100-7",
    "phone": "",
    "latitude": "36.7035128842",
    "longitude": "128.8288571138",
    "image": "http://tong.visitkorea.or.kr/cms/resource/16/3585716_image2_1.jpg",
    "category": "자연휴양림"
  },
  {
    "id": "125448",
    "title": "안면도자연휴양림",
    "address": "충청남도 태안군 안면읍 안면대로 3195-6",
    "phone": "",
    "latitude": "36.4967476560",
    "longitude": "126.3588396636",
    "image": "http://tong.visitkorea.or.kr/cms/resource/04/3422604_image2_1.jpg",
    "category": "자연휴양림"
  },
  {
    "id": "2750930",
    "title": "양촌자연휴양림",
    "address": "충청남도 논산시 양촌면 매죽헌로1723번길 176-23",
    "phone": "",
    "latitude": "36.1572796992",
    "longitude": "127.2465217151",
    "image": "",
    "category": "자연휴양림"
  },
  {
    "id": "407259",
    "title": "양평 백운봉자연휴양림",
    "address": "경기도 양평군 양평읍 약수사길 78-14",
    "phone": "031-775-4005",
    "latitude": "37.5163754323",
    "longitude": "127.5191677381",
    "image": "http://tong.visitkorea.or.kr/cms/resource/01/3040601_image2_1.jpeg",
    "category": "자연휴양림"
  },
  {
    "id": "127166",
    "title": "오도산자연휴양림",
    "address": "경상남도 합천군 봉산면 오도산휴양로 398",
    "phone": "",
    "latitude": "35.6691162005",
    "longitude": "128.0539020352",
    "image": "http://tong.visitkorea.or.kr/cms/resource/75/3502275_image2_1.jpg",
    "category": "자연휴양림"
  },
  {
    "id": "407291",
    "title": "옥성자연휴양림",
    "address": "경상북도 구미시 옥성면 휴양림길 150",
    "phone": "",
    "latitude": "36.2791177970",
    "longitude": "128.2844509650",
    "image": "http://tong.visitkorea.or.kr/cms/resource/66/3513466_image2_1.jpg",
    "category": "자연휴양림"
  },
  {
    "id": "127080",
    "title": "옥화자연휴양림",
    "address": "충청북도 청주시 상당구 미원면 운암옥화길 140",
    "phone": "",
    "latitude": "36.5980511753",
    "longitude": "127.6958861872",
    "image": "http://tong.visitkorea.or.kr/cms/resource/70/3461470_image2_1.jpg",
    "category": "자연휴양림"
  },
  {
    "id": "2752308",
    "title": "온빛자연휴양림",
    "address": "충청남도 논산시 벌곡면 황룡재로 480-113",
    "phone": "",
    "latitude": "36.2028634872",
    "longitude": "127.2525505133",
    "image": "http://tong.visitkorea.or.kr/cms/resource/70/3577070_image2_1.jpg",
    "category": "자연휴양림"
  },
  {
    "id": "126964",
    "title": "와룡자연휴양림",
    "address": "전북특별자치도 장수군 천천면 비룡로 632",
    "phone": "",
    "latitude": "35.6812129655",
    "longitude": "127.4793053017",
    "image": "http://tong.visitkorea.or.kr/cms/resource/75/3560975_image2_1.jpg",
    "category": "자연휴양림"
  },
  {
    "id": "1683871",
    "title": "용두산 산림욕장",
    "address": "충청북도 제천시 송학면 도화리",
    "phone": "",
    "latitude": "37.1940501059",
    "longitude": "128.1896221196",
    "image": "http://tong.visitkorea.or.kr/cms/resource/07/3349907_image2_1.JPG",
    "category": "자연휴양림"
  },
  {
    "id": "125427",
    "title": "용봉산자연휴양림",
    "address": "충청남도 홍성군 홍북읍 용봉산2길 87",
    "phone": "",
    "latitude": "36.6449829445",
    "longitude": "126.6569338469",
    "image": "http://tong.visitkorea.or.kr/cms/resource/35/3340035_image2_1.jpg",
    "category": "자연휴양림"
  },
  {
    "id": "809149",
    "title": "용인자연휴양림",
    "address": "경기도 용인시 처인구 모현읍 초부로 220",
    "phone": "",
    "latitude": "37.3148442042",
    "longitude": "127.2678074082",
    "image": "http://tong.visitkorea.or.kr/cms/resource/69/3493769_image2_1.jpg",
    "category": "자연휴양림"
  },
  {
    "id": "127748",
    "title": "용추자연휴양림",
    "address": "경상남도 함양군 안의면 용추휴양림길 166",
    "phone": "",
    "latitude": "35.6960300856",
    "longitude": "127.7576663742",
    "image": "",
    "category": "자연휴양림"
  },
  {
    "id": "2712642",
    "title": "운림산림욕장",
    "address": "전라남도 진도군 의신면 사천리",
    "phone": "",
    "latitude": "34.4706406587",
    "longitude": "126.2928986347",
    "image": "http://tong.visitkorea.or.kr/cms/resource/80/2708880_image2_1.jpg",
    "category": "자연휴양림"
  },
  {
    "id": "2756543",
    "title": "운제산산림욕장",
    "address": "경상북도 포항시 남구 대송면 운제로386번길 102",
    "phone": "",
    "latitude": "35.9469200407",
    "longitude": "129.3591517160",
    "image": "http://tong.visitkorea.or.kr/cms/resource/43/3522643_image2_1.jpg",
    "category": "자연휴양림"
  },
  {
    "id": "1839066",
    "title": "운주산승마자연휴양림",
    "address": "경상북도 영천시 임고면 승마휴양림길 105",
    "phone": "",
    "latitude": "36.0354170643",
    "longitude": "128.9968671126",
    "image": "http://tong.visitkorea.or.kr/cms/resource/78/3502678_image2_1.jpg",
    "category": "자연휴양림"
  },
  {
    "id": "126927",
    "title": "원동자연휴양림",
    "address": "경상남도 양산시 원동면 늘밭로 64",
    "phone": "055-382-5839",
    "latitude": "35.3986627566",
    "longitude": "128.9351459298",
    "image": "",
    "category": "자연휴양림"
  },
  {
    "id": "3069995",
    "title": "원주섬강자작나무숲둘레길",
    "address": "강원특별자치도 원주시 호저면 산현리",
    "phone": "",
    "latitude": "37.4254512962",
    "longitude": "127.8984193766",
    "image": "http://tong.visitkorea.or.kr/cms/resource/71/3069971_image2_1.jpg",
    "category": "자연휴양림"
  },
  {
    "id": "125421",
    "title": "유치자연휴양림",
    "address": "전라남도 장흥군 유치면 휴양림길 154",
    "phone": "",
    "latitude": "34.7680494534",
    "longitude": "126.8323800964",
    "image": "http://tong.visitkorea.or.kr/cms/resource/08/3060908_image2_1.jpg",
    "category": "자연휴양림"
  },
  {
    "id": "1087135",
    "title": "율리휴양촌",
    "address": "충청북도 증평군 증평읍 율리휴양로 287",
    "phone": "",
    "latitude": "36.7172642077",
    "longitude": "127.6366520617",
    "image": "http://tong.visitkorea.or.kr/cms/resource/25/3340725_image2_1.JPG",
    "category": "자연휴양림"
  },
  {
    "id": "3422770",
    "title": "인천대공원 치유숲길",
    "address": "인천광역시 남동구 무네미로 236 (장수동)",
    "phone": "0324667282",
    "latitude": "37.4577461335",
    "longitude": "126.7493033010",
    "image": "http://tong.visitkorea.or.kr/cms/resource/92/3422792_image2_1.JPG",
    "category": "자연휴양림"
  },
  {
    "id": "127378",
    "title": "일자산근린공원",
    "address": "서울특별시 강동구 동남로 660 (둔촌동)",
    "phone": "",
    "latitude": "37.5330723568",
    "longitude": "127.1513728964",
    "image": "http://tong.visitkorea.or.kr/cms/resource/40/3513440_image2_1.jpg",
    "category": "자연휴양림"
  },
  {
    "id": "1870612",
    "title": "임해자연휴양림",
    "address": "강원특별자치도 강릉시 강동면 율곡로 1715-85",
    "phone": "",
    "latitude": "37.7186189405",
    "longitude": "128.9985724700",
    "image": "http://tong.visitkorea.or.kr/cms/resource/92/3341692_image2_1.jpg",
    "category": "자연휴양림"
  },
  {
    "id": "3090595",
    "title": "입화산자연휴양림",
    "address": "울산광역시 중구 길촌길 335 (다운동)",
    "phone": "",
    "latitude": "35.5771129703",
    "longitude": "129.2779082456",
    "image": "http://tong.visitkorea.or.kr/cms/resource/78/3090578_image2_1.JPG",
    "category": "자연휴양림"
  },
  {
    "id": "3377187",
    "title": "자굴산 자연휴양림",
    "address": "경상남도 의령군 가례면 자굴산휴양로 23",
    "phone": "",
    "latitude": "35.3789434866",
    "longitude": "128.2127875098",
    "image": "http://tong.visitkorea.or.kr/cms/resource/82/3377482_image2_1.JPG",
    "category": "자연휴양림"
  },
  {
    "id": "3482784",
    "title": "자일산림욕장",
    "address": "경기도 의정부시 호국로1828번길 146 (자일동)",
    "phone": "",
    "latitude": "37.7688774620",
    "longitude": "127.1065841190",
    "image": "http://tong.visitkorea.or.kr/cms/resource/75/3482775_image2_1.jpg",
    "category": "자연휴양림"
  },
  {
    "id": "2407108",
    "title": "잣향기푸른숲",
    "address": "경기도 가평군 상면 축령로 289-146",
    "phone": "",
    "latitude": "37.7707675416",
    "longitude": "127.3365658619",
    "image": "http://tong.visitkorea.or.kr/cms/resource/23/3037123_image2_1.jpg",
    "category": "자연휴양림"
  },
  {
    "id": "705678",
    "title": "장동산림욕장",
    "address": "대전광역시 대덕구 산디로 79-70",
    "phone": "",
    "latitude": "36.4055714493",
    "longitude": "127.4425308280",
    "image": "http://tong.visitkorea.or.kr/cms/resource/44/3033644_image2_1.jpg",
    "category": "자연휴양림"
  },
  {
    "id": "3038479",
    "title": "장생의숲길",
    "address": "제주특별자치도 제주시 명림로 584 (봉개동)",
    "phone": "",
    "latitude": "33.4397664699",
    "longitude": "126.6303735575",
    "image": "http://tong.visitkorea.or.kr/cms/resource/60/3038460_image2_1.jpg",
    "category": "자연휴양림"
  },
  {
    "id": "129438",
    "title": "장태산자연휴양림",
    "address": "대전광역시 서구 장안로 461",
    "phone": "",
    "latitude": "36.2159580005",
    "longitude": "127.3412755693",
    "image": "http://tong.visitkorea.or.kr/cms/resource/42/3569842_image2_1.jpg",
    "category": "자연휴양림"
  },
  {
    "id": "2751550",
    "title": "장흥자연휴양림",
    "address": "경기도 양주시 장흥면 권율로 594",
    "phone": "",
    "latitude": "37.7582150989",
    "longitude": "126.9685442552",
    "image": "http://tong.visitkorea.or.kr/cms/resource/46/3409546_image2_1.jpg",
    "category": "자연휴양림"
  },
  {
    "id": "2795081",
    "title": "전라남도완도자연휴양림",
    "address": "전라남도 완도군 완도읍 대야일구1길 115",
    "phone": "",
    "latitude": "34.3527049894",
    "longitude": "126.7024237803",
    "image": "http://tong.visitkorea.or.kr/cms/resource/70/2797870_image2_1.JPG",
    "category": "자연휴양림"
  },
  {
    "id": "2033464",
    "title": "정남진 편백숲 우드랜드",
    "address": "전라남도 장흥군 장흥읍 우드랜드길 180",
    "phone": "",
    "latitude": "34.6683512370",
    "longitude": "126.9340041552",
    "image": "",
    "category": "자연휴양림"
  },
  {
    "id": "125425",
    "title": "제암산자연휴양림",
    "address": "전라남도 보성군 웅치면 대산길 330",
    "phone": "",
    "latitude": "34.6984876656",
    "longitude": "126.9890735769",
    "image": "http://tong.visitkorea.or.kr/cms/resource/66/3511566_image2_1.jpg",
    "category": "자연휴양림"
  },
  {
    "id": "2763739",
    "title": "제주 교래자연휴양림",
    "address": "제주특별자치도 제주시 조천읍 남조로 2023",
    "phone": "",
    "latitude": "33.4513961615",
    "longitude": "126.6567237837",
    "image": "http://tong.visitkorea.or.kr/cms/resource/27/3525127_image2_1.jpg",
    "category": "자연휴양림"
  },
  {
    "id": "127479",
    "title": "제주절물자연휴양림",
    "address": "제주특별자치도 제주시 명림로 584",
    "phone": "",
    "latitude": "33.4400774642",
    "longitude": "126.6252156649",
    "image": "",
    "category": "자연휴양림"
  },
  {
    "id": "125432",
    "title": "조령산자연휴양림",
    "address": "충청북도 괴산군 연풍면 새재로 1795",
    "phone": "",
    "latitude": "36.8116053214",
    "longitude": "128.0470598431",
    "image": "http://tong.visitkorea.or.kr/cms/resource/07/3058707_image2_1.JPG",
    "category": "자연휴양림"
  },
  {
    "id": "1087114",
    "title": "좌구산 자연휴양림",
    "address": "충청북도 증평군 증평읍 솟점말길 107",
    "phone": "",
    "latitude": "36.7055630343",
    "longitude": "127.6511010924",
    "image": "http://tong.visitkorea.or.kr/cms/resource/22/3494822_image2_1.jpg",
    "category": "자연휴양림"
  },
  {
    "id": "643998",
    "title": "주작산자연휴양림",
    "address": "전라남도 강진군 주작산길 262",
    "phone": "",
    "latitude": "34.5169004392",
    "longitude": "126.6993006757",
    "image": "http://tong.visitkorea.or.kr/cms/resource/03/1971003_image2_1.jpg",
    "category": "자연휴양림"
  },
  {
    "id": "126773",
    "title": "주천강자연휴양림",
    "address": "강원특별자치도 횡성군 둔내면 강변로영랑6길 115",
    "phone": "",
    "latitude": "37.4592725413",
    "longitude": "128.2035769433",
    "image": "http://tong.visitkorea.or.kr/cms/resource/20/608020_image2_1.jpg",
    "category": "자연휴양림"
  },
  {
    "id": "127692",
    "title": "중미산자연휴양림",
    "address": "경기도 양평군 옥천면 중미산로 1152",
    "phone": "031-771-7166",
    "latitude": "37.5818000399",
    "longitude": "127.4571548101",
    "image": "http://tong.visitkorea.or.kr/cms/resource/86/607986_image2_1.jpg",
    "category": "자연휴양림"
  },
  {
    "id": "127165",
    "title": "중산리자연휴양림",
    "address": "경상남도 산청군 시천면 지리산대로 496-101",
    "phone": "055-974-2757",
    "latitude": "35.2882038097",
    "longitude": "127.7488306989",
    "image": "http://tong.visitkorea.or.kr/cms/resource/46/1892846_image2_1.jpg",
    "category": "자연휴양림"
  },
  {
    "id": "2764137",
    "title": "진해드림파크",
    "address": "경상남도 창원시 진해구 장천동 산1-2",
    "phone": "",
    "latitude": "35.1319747269",
    "longitude": "128.7128587127",
    "image": "http://tong.visitkorea.or.kr/cms/resource/09/3465109_image2_1.JPG",
    "category": "자연휴양림"
  },
  {
    "id": "127531",
    "title": "집다리골자연휴양림",
    "address": "강원특별자치도 춘천시 화악지암1길 129 집다리골자연휴양림",
    "phone": "",
    "latitude": "37.9779923535",
    "longitude": "127.5803958778",
    "image": "",
    "category": "자연휴양림"
  },
  {
    "id": "2789822",
    "title": "창안산산림욕장",
    "address": "강원특별자치도 화천군 사내면 사창리 산52",
    "phone": "",
    "latitude": "38.0712638185",
    "longitude": "127.5269452127",
    "image": "http://tong.visitkorea.or.kr/cms/resource/80/2795680_image2_1.jpg",
    "category": "자연휴양림"
  },
  {
    "id": "2773252",
    "title": "천보산 자연휴양림",
    "address": "경기도 포천시 원동교길 309 (동교동)",
    "phone": "",
    "latitude": "37.8554454072",
    "longitude": "127.1204775766",
    "image": "http://tong.visitkorea.or.kr/cms/resource/80/3495180_image2_1.jpg",
    "category": "자연휴양림"
  },
  {
    "id": "2736683",
    "title": "천생산성산림욕장",
    "address": "경상북도 구미시 마제지길 167 (인의동)",
    "phone": "",
    "latitude": "36.1040851670",
    "longitude": "128.4481219227",
    "image": "http://tong.visitkorea.or.kr/cms/resource/02/3566202_image2_1.jpg",
    "category": "자연휴양림"
  },
  {
    "id": "3507139",
    "title": "청도자연휴양림",
    "address": "경상북도 청도군 각북면 비슬산길 111-25",
    "phone": "",
    "latitude": "35.7108371294",
    "longitude": "128.5487739688",
    "image": "http://tong.visitkorea.or.kr/cms/resource/36/3507136_image2_1.jpg",
    "category": "자연휴양림"
  },
  {
    "id": "3407888",
    "title": "청송 자연휴양림",
    "address": "경상북도 청송군 부남면 청송로 3478-96",
    "phone": "",
    "latitude": "36.3179555317",
    "longitude": "129.0537984180",
    "image": "http://tong.visitkorea.or.kr/cms/resource/47/3407447_image2_1.png",
    "category": "자연휴양림"
  },
  {
    "id": "125408",
    "title": "청송자연휴양림 퇴적암층 (청송국가지질공원)",
    "address": "경상북도 청송군 부남면 청송로 3478-96",
    "phone": "",
    "latitude": "36.3179555317",
    "longitude": "129.0537984180",
    "image": "http://tong.visitkorea.or.kr/cms/resource/17/3518517_image2_1.jpg",
    "category": "자연휴양림"
  },
  {
    "id": "127929",
    "title": "청평자연휴양림",
    "address": "경기도 가평군 청평면 북한강로2246번길 8-6",
    "phone": "",
    "latitude": "37.7131449494",
    "longitude": "127.4054751473",
    "image": "http://tong.visitkorea.or.kr/cms/resource/70/3077270_image2_1.jpg",
    "category": "자연휴양림"
  },
  {
    "id": "2737272",
    "title": "초록산산림욕장",
    "address": "경기도 화성시 양감면 사창리",
    "phone": "",
    "latitude": "37.0917505387",
    "longitude": "126.9558141401",
    "image": "http://tong.visitkorea.or.kr/cms/resource/37/3540037_image2_1.jpg",
    "category": "자연휴양림"
  },
  {
    "id": "2752469",
    "title": "축령산 휴양림",
    "address": "전라남도 장성군 서삼면 추암로 716",
    "phone": "",
    "latitude": "35.3688382932",
    "longitude": "126.7314713321",
    "image": "http://tong.visitkorea.or.kr/cms/resource/58/2752458_image2_1.JPG",
    "category": "자연휴양림"
  },
  {
    "id": "127818",
    "title": "축령산자연휴양림",
    "address": "경기도 남양주시 수동면 축령산로 299",
    "phone": "",
    "latitude": "37.7529607789",
    "longitude": "127.3091660984",
    "image": "http://tong.visitkorea.or.kr/cms/resource/83/3077083_image2_1.jpg",
    "category": "자연휴양림"
  },
  {
    "id": "2419040",
    "title": "충북알프스자연휴양림",
    "address": "충청북도 보은군 산외면 장갑리 산15",
    "phone": "",
    "latitude": "36.5699310989",
    "longitude": "127.7898257875",
    "image": "http://tong.visitkorea.or.kr/cms/resource/83/3577183_image2_1.jpeg",
    "category": "자연휴양림"
  },
  {
    "id": "128068",
    "title": "치악산자연휴양림",
    "address": "강원특별자치도 원주시 판부면 휴양림길 66",
    "phone": "",
    "latitude": "37.2558594690",
    "longitude": "128.0312984496",
    "image": "http://tong.visitkorea.or.kr/cms/resource/76/3045376_image2_1.jpg",
    "category": "자연휴양림"
  },
  {
    "id": "125428",
    "title": "칠갑산자연휴양림",
    "address": "충청남도 청양군 대치면 광대리",
    "phone": "",
    "latitude": "36.4323467391",
    "longitude": "126.8441143219",
    "image": "http://tong.visitkorea.or.kr/cms/resource/70/3027970_image2_1.jpg",
    "category": "자연휴양림"
  },
  {
    "id": "1060129",
    "title": "칼봉산자연휴양림",
    "address": "경기도 가평군 가평읍 경반안로 454",
    "phone": "",
    "latitude": "37.8362956149",
    "longitude": "127.4653577668",
    "image": "http://tong.visitkorea.or.kr/cms/resource/93/3490493_image2_1.jpg",
    "category": "자연휴양림"
  },
  {
    "id": "128917",
    "title": "태학산자연휴양림",
    "address": "충청남도 천안시 동남구 풍세면 휴양림길 105-2",
    "phone": "",
    "latitude": "36.7286559313",
    "longitude": "127.0919590376",
    "image": "http://tong.visitkorea.or.kr/cms/resource/90/3563990_image2_1.jpg",
    "category": "자연휴양림"
  },
  {
    "id": "125405",
    "title": "토함산자연휴양림",
    "address": "경상북도 경주시 문무대왕면 불국로 1208-45",
    "phone": "",
    "latitude": "35.7620021293",
    "longitude": "129.3649815057",
    "image": "",
    "category": "자연휴양림"
  },
  {
    "id": "2738085",
    "title": "팔공산금화자연휴양림",
    "address": "경상북도 칠곡군 가산면 가산로 323",
    "phone": "",
    "latitude": "36.0517625330",
    "longitude": "128.5553750195",
    "image": "http://tong.visitkorea.or.kr/cms/resource/88/3561888_image2_1.JPG",
    "category": "자연휴양림"
  },
  {
    "id": "125426",
    "title": "팔영산자연휴양림",
    "address": "전라남도 고흥군 영남면 팔영로 1347-418",
    "phone": "",
    "latitude": "34.6214289206",
    "longitude": "127.4394637689",
    "image": "",
    "category": "자연휴양림"
  },
  {
    "id": "2772886",
    "title": "평창자연휴양림",
    "address": "강원특별자치도 평창군 봉평면 팔송로 285",
    "phone": "",
    "latitude": "37.6098292645",
    "longitude": "128.3047049944",
    "image": "http://tong.visitkorea.or.kr/cms/resource/51/3468551_image2_1.JPG",
    "category": "자연휴양림"
  },
  {
    "id": "407172",
    "title": "피노키오청소년수련원(피노키오 캠핑장)",
    "address": "강원특별자치도 원주시 신림면 소야1길 72",
    "phone": "",
    "latitude": "37.2574840515",
    "longitude": "128.1677250095",
    "image": "http://tong.visitkorea.or.kr/cms/resource/02/3504902_image2_1.jpg",
    "category": "자연휴양림"
  },
  {
    "id": "2720430",
    "title": "하동 편백자연휴양림",
    "address": "경상남도 하동군 옥종면 돌고지로 1088-51",
    "phone": "",
    "latitude": "35.1862280155",
    "longitude": "127.8401892169",
    "image": "http://tong.visitkorea.or.kr/cms/resource/54/3530854_image2_1.jpg",
    "category": "자연휴양림"
  },
  {
    "id": "126233",
    "title": "하동송림공원",
    "address": "경상남도 하동군 하동읍 광평리",
    "phone": "",
    "latitude": "35.0627374549",
    "longitude": "127.7445202702",
    "image": "http://tong.visitkorea.or.kr/cms/resource/86/3501086_image2_1.jpg",
    "category": "자연휴양림"
  },
  {
    "id": "2774513",
    "title": "하추자연휴양림",
    "address": "강원특별자치도 인제군 인제읍 하추로 686",
    "phone": "",
    "latitude": "38.0347496922",
    "longitude": "128.3193324547",
    "image": "http://tong.visitkorea.or.kr/cms/resource/61/3336461_image2_1.jpg",
    "category": "자연휴양림"
  },
  {
    "id": "127697",
    "title": "학가산자연휴양림",
    "address": "경상북도 예천군 보문면 휴양림길 210",
    "phone": "",
    "latitude": "36.6802193859",
    "longitude": "128.5909400646",
    "image": "http://tong.visitkorea.or.kr/cms/resource/09/3561609_image2_1.JPG",
    "category": "자연휴양림"
  },
  {
    "id": "127164",
    "title": "한천자연휴양림",
    "address": "전라남도 화순군 한천면 죽헌로 719",
    "phone": "",
    "latitude": "34.9916333134",
    "longitude": "127.0384091912",
    "image": "http://tong.visitkorea.or.kr/cms/resource/14/3566814_image2_1.jpg",
    "category": "자연휴양림"
  },
  {
    "id": "2718744",
    "title": "함양대봉산휴양밸리",
    "address": "경상남도 함양군 병곡면 병곡지곡로 331",
    "phone": "",
    "latitude": "35.5680604946",
    "longitude": "127.7152874090",
    "image": "http://tong.visitkorea.or.kr/cms/resource/00/3531800_image2_1.jpg",
    "category": "자연휴양림"
  },
  {
    "id": "2756669",
    "title": "화원자연휴양림",
    "address": "대구광역시 달성군 화원읍 화원휴양림길 126",
    "phone": "",
    "latitude": "35.7718300136",
    "longitude": "128.5367594539",
    "image": "http://tong.visitkorea.or.kr/cms/resource/87/3567387_image2_1.jpg",
    "category": "자연휴양림"
  },
  {
    "id": "2768805",
    "title": "화인산림욕장",
    "address": "충청북도 옥천군 안남면 안남로 151-66",
    "phone": "",
    "latitude": "36.3824281372",
    "longitude": "127.6683362799",
    "image": "http://tong.visitkorea.or.kr/cms/resource/38/3373738_image2_1.JPG",
    "category": "자연휴양림"
  },
  {
    "id": "2782565",
    "title": "화진포소나무숲산림욕장",
    "address": "강원특별자치도 고성군 거진읍 화진포길 258-115",
    "phone": "",
    "latitude": "38.4650603678",
    "longitude": "128.4485156639",
    "image": "http://tong.visitkorea.or.kr/cms/resource/21/2786621_image2_1.jpg",
    "category": "자연휴양림"
  },
  {
    "id": "2946628",
    "title": "환상숲곶자왈공원",
    "address": "제주특별자치도 제주시 한경면 녹차분재로 594-1",
    "phone": "",
    "latitude": "33.3224319590",
    "longitude": "126.2629303320",
    "image": "http://tong.visitkorea.or.kr/cms/resource/67/2947167_image2_1.jpg",
    "category": "자연휴양림"
  },
  {
    "id": "407202",
    "title": "횡성자연휴양림",
    "address": "강원특별자치도 횡성군 갑천면 정포로430번길 113",
    "phone": "",
    "latitude": "37.5390976958",
    "longitude": "128.1118745224",
    "image": "http://tong.visitkorea.or.kr/cms/resource/66/1842066_image2_1.jpg",
    "category": "자연휴양림"
  },
  {
    "id": "126958",
    "title": "흑석산 자연휴양림",
    "address": "전라남도 해남군 계곡면 산골길 306",
    "phone": "",
    "latitude": "34.6715705981",
    "longitude": "126.6161153759",
    "image": "http://tong.visitkorea.or.kr/cms/resource/09/3061309_image2_1.jpg",
    "category": "자연휴양림"
  },
  {
    "id": "3072418",
    "title": "흥림산자연휴양림 (영양에코둥지)",
    "address": "경상북도 영양군 일월면 재일로 2394-70",
    "phone": "",
    "latitude": "36.7020101402",
    "longitude": "129.1126819604",
    "image": "http://tong.visitkorea.or.kr/cms/resource/13/3072413_image2_1.JPG",
    "category": "자연휴양림"
  },
  {
    "id": "2795178",
    "title": "흥부골자연휴양림",
    "address": "전북특별자치도 남원시 인월면 구인월길 125",
    "phone": "",
    "latitude": "35.4507298906",
    "longitude": "127.5897488062",
    "image": "http://tong.visitkorea.or.kr/cms/resource/08/3517108_image2_1.jpg",
    "category": "자연휴양림"
  }
]