[
  {
    "id": "126643",
    "title": "대승령과 대승폭포",
    "address": "강원특별자치도 인제군 북면 설악로",
    "phone": "",
    "latitude": "38.1196152453",
    "longitude": "128.3415306083",
    "image": "http://tong.visitkorea.or.kr/cms/resource/91/3042591_image2_1.jpg",
    "category": "폭포",
    "original_category": "산"
  },
  {
    "id": "2569476",
    "title": "비둘기낭 폭포 (한탄강 유네스코 세계지질공원)",
    "address": "경기도 포천시 영북면 대회산리",
    "phone": "",
    "latitude": "38.0798348747",
    "longitude": "127.2169316606",
    "image": "http://tong.visitkorea.or.kr/cms/resource/83/3496483_image2_1.jpg",
    "category": "폭포",
    "original_category": "자연생태관광지"
  },
  {
    "id": "3452906",
    "title": "홍제천인공폭포",
    "address": "서울특별시 서대문구 연희로 248 (연희동)",
    "phone": "",
    "latitude": "37.5792603445",
    "longitude": "126.9362995081",
    "image": "http://tong.visitkorea.or.kr/cms/resource/45/3452745_image2_1.jpg",
    "category": "폭포",
    "original_category": "자연생태관광지"
  },
  {
    "id": "125418",
    "title": "국립 신불산폭포자연휴양림",
    "address": "울산광역시 울주군 상북면 청수골길 175",
    "phone": "",
    "latitude": "35.5259945138",
    "longitude": "129.0232319274",
    "image": "http://tong.visitkorea.or.kr/cms/resource/87/3077987_image2_1.bmp",
    "category": "폭포",
    "original_category": "자연휴양림"
  },
  {
    "id": "125658",
    "title": "가령폭포",
    "address": "강원특별자치도 홍천군 내촌면 와야리",
    "phone": "",
    "latitude": "37.8326534604",
    "longitude": "128.1595225440",
    "image": "http://tong.visitkorea.or.kr/cms/resource/50/3494150_image2_1.jpg",
    "category": "폭포"
  },
  {
    "id": "2363553",
    "title": "갱매폭포",
    "address": "경기도 과천시 막계동",
    "phone": "",
    "latitude": "37.4345511080",
    "longitude": "127.0331142230",
    "image": "http://tong.visitkorea.or.kr/cms/resource/89/2363489_image2_1.jpg",
    "category": "폭포"
  },
  {
    "id": "127747",
    "title": "구곡폭포",
    "address": "강원특별자치도 춘천시 남산면 강촌구곡길 254",
    "phone": "",
    "latitude": "37.7939337577",
    "longitude": "127.6092986794",
    "image": "",
    "category": "폭포"
  },
  {
    "id": "125669",
    "title": "구룡폭포(소금강)",
    "address": "강원특별자치도 강릉시 연곡면 소금강길 500",
    "phone": "",
    "latitude": "37.8026919730",
    "longitude": "128.6835093795",
    "image": "http://tong.visitkorea.or.kr/cms/resource/42/3029842_image2_1.jpg",
    "category": "폭포"
  },
  {
    "id": "2790513",
    "title": "구만폭포",
    "address": "경상남도 밀양시 산내면 봉의리",
    "phone": "",
    "latitude": "35.6195423145",
    "longitude": "128.8738257371",
    "image": "http://tong.visitkorea.or.kr/cms/resource/05/2792305_image2_1.jpg",
    "category": "폭포"
  },
  {
    "id": "125656",
    "title": "구성폭포",
    "address": "강원특별자치도 춘천시 북산면 청평리",
    "phone": "",
    "latitude": "37.9783050468",
    "longitude": "127.8159299508",
    "image": "http://tong.visitkorea.or.kr/cms/resource/85/2739785_image2_1.jpg",
    "category": "폭포"
  },
  {
    "id": "1610474",
    "title": "구장군폭포",
    "address": "전북특별자치도 순창군 팔덕면 청계리",
    "phone": "",
    "latitude": "35.4083228536",
    "longitude": "127.0668822579",
    "image": "http://tong.visitkorea.or.kr/cms/resource/79/3519579_image2_1.jpg",
    "category": "폭포"
  },
  {
    "id": "1626454",
    "title": "금선폭포",
    "address": "전북특별자치도 정읍시 내장호반로 328 (내장동)",
    "phone": "",
    "latitude": "35.5044426262",
    "longitude": "126.9106714366",
    "image": "",
    "category": "폭포"
  },
  {
    "id": "126067",
    "title": "내연산 보경사 12폭포",
    "address": "경상북도 포항시 북구 송라면 보경로 53",
    "phone": "",
    "latitude": "36.2284631351",
    "longitude": "129.3568937537",
    "image": "http://tong.visitkorea.or.kr/cms/resource/72/3520372_image2_1.jpg",
    "category": "폭포"
  },
  {
    "id": "126059",
    "title": "달기폭포",
    "address": "경상북도 청송군 청송읍 달기폭포길",
    "phone": "",
    "latitude": "36.4407788321",
    "longitude": "129.1144894830",
    "image": "http://tong.visitkorea.or.kr/cms/resource/63/3410063_image2_1.jpg",
    "category": "폭포"
  },
  {
    "id": "2778472",
    "title": "대혜폭포",
    "address": "경상북도 구미시 금오산로 434-1 (남통동)",
    "phone": "",
    "latitude": "36.1062405109",
    "longitude": "128.2988156329",
    "image": "http://tong.visitkorea.or.kr/cms/resource/93/3407293_image2_1.jpg",
    "category": "폭포"
  },
  {
    "id": "1626988",
    "title": "도덕폭포",
    "address": "전북특별자치도 정읍시 내장동",
    "phone": "",
    "latitude": "35.4854700231",
    "longitude": "126.9250845294",
    "image": "",
    "category": "폭포"
  },
  {
    "id": "1201432",
    "title": "도마치계곡(적목용소폭포)",
    "address": "경기도 가평군 북면 적목리",
    "phone": "",
    "latitude": "38.0155548377",
    "longitude": "127.4411185950",
    "image": "http://tong.visitkorea.or.kr/cms/resource/10/3511910_image2_1.jpg",
    "category": "폭포"
  },
  {
    "id": "2756754",
    "title": "동창천 청룡폭포(청룡인공폭포)",
    "address": "경상북도 경주시 산내면 외칠리",
    "phone": "",
    "latitude": "35.7597435527",
    "longitude": "129.0436263742",
    "image": "http://tong.visitkorea.or.kr/cms/resource/03/3519003_image2_1.jpg",
    "category": "폭포"
  },
  {
    "id": "125655",
    "title": "등선폭포(삼악산)",
    "address": "강원특별자치도 춘천시 서면 덕두원리",
    "phone": "033-244-2331",
    "latitude": "37.8277557360",
    "longitude": "127.6584182123",
    "image": "http://tong.visitkorea.or.kr/cms/resource/97/2742797_image2_1.jpg",
    "category": "폭포"
  },
  {
    "id": "127187",
    "title": "만연폭포",
    "address": "전라남도 화순군 화순읍 유천리",
    "phone": "",
    "latitude": "35.0735401173",
    "longitude": "127.0011132091",
    "image": "http://tong.visitkorea.or.kr/cms/resource/12/3348012_image2_1.JPG",
    "category": "폭포"
  },
  {
    "id": "125775",
    "title": "매월대폭포",
    "address": "강원특별자치도 철원군 근남면 잠곡리 222-5",
    "phone": "",
    "latitude": "38.1950151047",
    "longitude": "127.4768433340",
    "image": "http://tong.visitkorea.or.kr/cms/resource/65/3332265_image2_1.jpg",
    "category": "폭포"
  },
  {
    "id": "1686758",
    "title": "매학폭포",
    "address": "충청북도 충주시 수안보면 사문리",
    "phone": "",
    "latitude": "36.8244596379",
    "longitude": "128.0598722172",
    "image": "",
    "category": "폭포"
  },
  {
    "id": "125673",
    "title": "무릉계곡 용추폭포(강원)",
    "address": "강원특별자치도 동해시 삼화동",
    "phone": "",
    "latitude": "37.4536522297",
    "longitude": "128.9952281499",
    "image": "http://tong.visitkorea.or.kr/cms/resource/53/3544453_image2_1.jpg",
    "category": "폭포"
  },
  {
    "id": "1200089",
    "title": "무주채폭포",
    "address": "경기도 가평군 북면 적목리",
    "phone": "",
    "latitude": "38.0152547328",
    "longitude": "127.4335192987",
    "image": "http://tong.visitkorea.or.kr/cms/resource/01/3511401_image2_1.png",
    "category": "폭포"
  },
  {
    "id": "2796807",
    "title": "무지개폭포",
    "address": "경상남도 양산시 평산동",
    "phone": "",
    "latitude": "35.3837400065",
    "longitude": "129.1159277855",
    "image": "http://tong.visitkorea.or.kr/cms/resource/88/2797788_image2_1.jpg",
    "category": "폭포"
  },
  {
    "id": "2785612",
    "title": "백석폭포",
    "address": "강원특별자치도 정선군 북평면 오대천로 412",
    "phone": "",
    "latitude": "37.4651160442",
    "longitude": "128.6281079829",
    "image": "http://tong.visitkorea.or.kr/cms/resource/10/3505510_image2_1.jpg",
    "category": "폭포"
  },
  {
    "id": "2394017",
    "title": "백운산 구시폭포",
    "address": "전라남도 광양시 옥룡면 동곡리",
    "phone": "",
    "latitude": "35.1127181966",
    "longitude": "127.5996928152",
    "image": "http://tong.visitkorea.or.kr/cms/resource/57/3345057_image2_1.JPG",
    "category": "폭포"
  },
  {
    "id": "988215",
    "title": "병풍폭포",
    "address": "전북특별자치도 순창군 팔덕면 강천산길 113",
    "phone": "",
    "latitude": "35.4081700885",
    "longitude": "127.0666322839",
    "image": "http://tong.visitkorea.or.kr/cms/resource/17/3358917_image2_1.JPG",
    "category": "폭포"
  },
  {
    "id": "126071",
    "title": "봉래폭포 (울릉도, 독도 국가지질공원)",
    "address": "경상북도 울릉군 울릉읍 도동리",
    "phone": "",
    "latitude": "37.4985407161",
    "longitude": "130.8842669502",
    "image": "",
    "category": "폭포"
  },
  {
    "id": "126070",
    "title": "불일폭포",
    "address": "경상남도 하동군 화개면 목압길",
    "phone": "",
    "latitude": "35.2374494585",
    "longitude": "127.6495296506",
    "image": "",
    "category": "폭포"
  },
  {
    "id": "125671",
    "title": "비룡폭포",
    "address": "강원특별자치도 속초시 설악동",
    "phone": "033-636-7700",
    "latitude": "38.1611551800",
    "longitude": "128.5023258220",
    "image": "http://tong.visitkorea.or.kr/cms/resource/10/2733310_image2_1.jpg",
    "category": "폭포"
  },
  {
    "id": "2716199",
    "title": "비와야폭포",
    "address": "강원특별자치도 태백시 양지길 25 (장성동)",
    "phone": "",
    "latitude": "37.1066648430",
    "longitude": "129.0208308308",
    "image": "http://tong.visitkorea.or.kr/cms/resource/89/3525089_image2_1.jpg",
    "category": "폭포"
  },
  {
    "id": "125652",
    "title": "삼부연폭포 (한탄강 유네스코 세계지질공원)",
    "address": "강원특별자치도 철원군 갈말읍 신철원리",
    "phone": "",
    "latitude": "38.1401993039",
    "longitude": "127.3276947350",
    "image": "http://tong.visitkorea.or.kr/cms/resource/80/3532480_image2_1.jpg",
    "category": "폭포"
  },
  {
    "id": "125670",
    "title": "삼척 미인폭포",
    "address": "강원특별자치도 삼척시 도계읍 문의재로 77-162",
    "phone": "",
    "latitude": "37.1796236553",
    "longitude": "129.0476928999",
    "image": "http://tong.visitkorea.or.kr/cms/resource/02/3331502_image2_1.jpg",
    "category": "폭포"
  },
  {
    "id": "1608963",
    "title": "선계폭포",
    "address": "전북특별자치도 부안군 보안면 우동리",
    "phone": "",
    "latitude": "35.6291154752",
    "longitude": "126.6361037995",
    "image": "http://tong.visitkorea.or.kr/cms/resource/12/3573612_image2_1.jpg",
    "category": "폭포"
  },
  {
    "id": "252549",
    "title": "세렴폭포",
    "address": "강원특별자치도 원주시 소초면 학곡리",
    "phone": "",
    "latitude": "37.3825759373",
    "longitude": "128.0603171272",
    "image": "http://tong.visitkorea.or.kr/cms/resource/58/2391458_image2_1.jpg",
    "category": "폭포"
  },
  {
    "id": "127892",
    "title": "소승폭포",
    "address": "강원특별자치도 인제군 북면 한계리",
    "phone": "",
    "latitude": "38.1055568074",
    "longitude": "128.3954233658",
    "image": "",
    "category": "폭포"
  },
  {
    "id": "129405",
    "title": "소정방폭포",
    "address": "제주특별자치도 서귀포시 칠십리로214번길 17-17 (동홍동)",
    "phone": "",
    "latitude": "33.2452065509",
    "longitude": "126.5769659202",
    "image": "http://tong.visitkorea.or.kr/cms/resource/77/3384477_image2_1.jpg",
    "category": "폭포"
  },
  {
    "id": "126638",
    "title": "수락폭포",
    "address": "전라남도 구례군 산동면 수락길 73",
    "phone": "",
    "latitude": "35.3468087927",
    "longitude": "127.4587658528",
    "image": "http://tong.visitkorea.or.kr/cms/resource/89/3547989_image2_1.jpg",
    "category": "폭포"
  },
  {
    "id": "1687491",
    "title": "수룡폭포",
    "address": "충청북도 충주시 노은면 수룡리",
    "phone": "",
    "latitude": "37.0634495189",
    "longitude": "127.7958196484",
    "image": "http://tong.visitkorea.or.kr/cms/resource/40/3505040_image2_1.jpg",
    "category": "폭포"
  },
  {
    "id": "125837",
    "title": "수옥폭포",
    "address": "충청북도 괴산군 연풍면 원풍리",
    "phone": "",
    "latitude": "36.8070499486",
    "longitude": "128.0286227346",
    "image": "http://tong.visitkorea.or.kr/cms/resource/84/3494984_image2_1.jpg",
    "category": "폭포"
  },
  {
    "id": "2614828",
    "title": "시무지기 폭포 (무등산권 국가지질공원)",
    "address": "광주광역시 북구 무등로 1550",
    "phone": "",
    "latitude": "35.1441458348",
    "longitude": "126.9890013959",
    "image": "http://tong.visitkorea.or.kr/cms/resource/76/3350476_image2_1.jpg",
    "category": "폭포"
  },
  {
    "id": "3038429",
    "title": "십이폭포(12폭포)",
    "address": "충청남도 금산군 남이면 구석리",
    "phone": "",
    "latitude": "36.0154721803",
    "longitude": "127.4784020585",
    "image": "",
    "category": "폭포"
  },
  {
    "id": "3009127",
    "title": "양백폭포",
    "address": "충청북도 단양군 단양읍 기촌리",
    "phone": "",
    "latitude": "36.9802920446",
    "longitude": "128.3743395684",
    "image": "http://tong.visitkorea.or.kr/cms/resource/23/3009123_image2_1.JPG",
    "category": "폭포"
  },
  {
    "id": "127052",
    "title": "엉또폭포",
    "address": "제주특별자치도 서귀포시 엉또로 104 (강정동)",
    "phone": "",
    "latitude": "33.2672723157",
    "longitude": "126.4984055673",
    "image": "http://tong.visitkorea.or.kr/cms/resource/58/3536058_image2_1.jpg",
    "category": "폭포"
  },
  {
    "id": "2773573",
    "title": "오색 용소폭포",
    "address": "강원특별자치도 양양군 서면 약수길 45",
    "phone": "",
    "latitude": "38.0771971834",
    "longitude": "128.4455557996",
    "image": "http://tong.visitkorea.or.kr/cms/resource/56/3393956_image2_1.JPG",
    "category": "폭포"
  },
  {
    "id": "2776990",
    "title": "오색 치마폭포",
    "address": "강원특별자치도 양양군 서면 오색리",
    "phone": "",
    "latitude": "38.0831549021",
    "longitude": "128.4496246907",
    "image": "http://tong.visitkorea.or.kr/cms/resource/73/3500573_image2_1.jpg",
    "category": "폭포"
  },
  {
    "id": "127915",
    "title": "오송폭포",
    "address": "경상북도 상주시 화북면 장암리",
    "phone": "",
    "latitude": "36.5709271637",
    "longitude": "127.8852172325",
    "image": "http://tong.visitkorea.or.kr/cms/resource/23/3400423_image2_1.jpg",
    "category": "폭포"
  },
  {
    "id": "2785719",
    "title": "오장폭포",
    "address": "강원특별자치도 정선군 여량면 구절리",
    "phone": "",
    "latitude": "37.5342522182",
    "longitude": "128.7574275948",
    "image": "http://tong.visitkorea.or.kr/cms/resource/28/3505528_image2_1.jpg",
    "category": "폭포"
  },
  {
    "id": "125838",
    "title": "옥계폭포",
    "address": "충청북도 영동군 심천면 고당리",
    "phone": "043-740-3114",
    "latitude": "36.2124448405",
    "longitude": "127.6721183745",
    "image": "http://tong.visitkorea.or.kr/cms/resource/85/3569485_image2_1.jpg",
    "category": "폭포"
  },
  {
    "id": "126055",
    "title": "옥양폭포",
    "address": "경상북도 상주시 화북면 입석리",
    "phone": "",
    "latitude": "36.6273485069",
    "longitude": "127.8867210715",
    "image": "http://tong.visitkorea.or.kr/cms/resource/63/3403663_image2_1.jpg",
    "category": "폭포"
  },
  {
    "id": "127639",
    "title": "용담폭포",
    "address": "충청북도 제천시 수산면 상천1길",
    "phone": "",
    "latitude": "36.9769678968",
    "longitude": "128.2510618160",
    "image": "",
    "category": "폭포"
  },
  {
    "id": "129467",
    "title": "용대 매바위 인공폭포",
    "address": "강원특별자치도 인제군 북면 용대리",
    "phone": "",
    "latitude": "38.2203568051",
    "longitude": "128.3682250679",
    "image": "http://tong.visitkorea.or.kr/cms/resource/30/3502530_image2_1.jpg",
    "category": "폭포"
  },
  {
    "id": "647272",
    "title": "용소폭포(연하계곡)",
    "address": "강원특별자치도 영월군 영월읍 연하리",
    "phone": "",
    "latitude": "37.1898493765",
    "longitude": "128.5672244618",
    "image": "http://tong.visitkorea.or.kr/cms/resource/58/3039658_image2_1.jpg",
    "category": "폭포"
  },
  {
    "id": "2932015",
    "title": "용연폭포",
    "address": "경상북도 청송군 주왕산면 상의리",
    "phone": "",
    "latitude": "36.3841327858",
    "longitude": "129.1296564629",
    "image": "http://tong.visitkorea.or.kr/cms/resource/31/3474431_image2_1.jpg",
    "category": "폭포"
  },
  {
    "id": "2788075",
    "title": "용추폭포",
    "address": "경상남도 창원시 진해구 마천로103번길 2 (마천동)",
    "phone": "",
    "latitude": "35.1333397565",
    "longitude": "128.7838497082",
    "image": "http://tong.visitkorea.or.kr/cms/resource/12/2792312_image2_1.jpg",
    "category": "폭포"
  },
  {
    "id": "2782495",
    "title": "용추폭포 (김천)",
    "address": "경상북도 김천시 증산면 수도리 24",
    "phone": "",
    "latitude": "35.8640905679",
    "longitude": "128.0115310560",
    "image": "http://tong.visitkorea.or.kr/cms/resource/76/2795376_image2_1.jpg",
    "category": "폭포"
  },
  {
    "id": "1597542",
    "title": "용추폭포(고창)",
    "address": "전북특별자치도 고창군 신림면 가평리",
    "phone": "",
    "latitude": "35.4610531012",
    "longitude": "126.7469593008",
    "image": "",
    "category": "폭포"
  },
  {
    "id": "2789658",
    "title": "용추폭포(괴산)",
    "address": "충청북도 괴산군 청천면 사기막리",
    "phone": "",
    "latitude": "36.7042470915",
    "longitude": "127.8355207141",
    "image": "http://tong.visitkorea.or.kr/cms/resource/87/3534187_image2_1.jpg",
    "category": "폭포"
  },
  {
    "id": "252576",
    "title": "용추폭포(무주)",
    "address": "전북특별자치도 무주군 안성면 칠연로",
    "phone": "",
    "latitude": "35.8425565790",
    "longitude": "127.6828440841",
    "image": "http://tong.visitkorea.or.kr/cms/resource/83/3549683_image2_1.jpg",
    "category": "폭포"
  },
  {
    "id": "125494",
    "title": "운계폭포",
    "address": "경기도 파주시 적성면 감골길 48",
    "phone": "",
    "latitude": "37.9118746691",
    "longitude": "126.9523135563",
    "image": "http://tong.visitkorea.or.kr/cms/resource/47/3341747_image2_1.jpg",
    "category": "폭포"
  },
  {
    "id": "126263",
    "title": "위봉폭포",
    "address": "전북특별자치도 완주군 소양면 대흥리",
    "phone": "",
    "latitude": "35.9097387398",
    "longitude": "127.2614908428",
    "image": "http://tong.visitkorea.or.kr/cms/resource/95/3505995_image2_1.jpg",
    "category": "폭포"
  },
  {
    "id": "125674",
    "title": "육담폭포",
    "address": "강원특별자치도 속초시 설악산로 1065-129",
    "phone": "",
    "latitude": "38.1679655022",
    "longitude": "128.5025117046",
    "image": "",
    "category": "폭포"
  },
  {
    "id": "125832",
    "title": "은선폭포",
    "address": "충청남도 공주시 반포면 동학사1로 327-6",
    "phone": "042-825-3002∼3",
    "latitude": "36.3566372174",
    "longitude": "127.2325981663",
    "image": "http://tong.visitkorea.or.kr/cms/resource/60/3468860_image2_1.jpg",
    "category": "폭포"
  },
  {
    "id": "126051",
    "title": "장각폭포",
    "address": "경상북도 상주시 화북면 상오리",
    "phone": "",
    "latitude": "36.5416477578",
    "longitude": "127.9168207844",
    "image": "http://tong.visitkorea.or.kr/cms/resource/71/3030871_image2_1.jpg",
    "category": "폭포"
  },
  {
    "id": "125496",
    "title": "재인폭포 (한탄강 유네스코 세계지질공원)",
    "address": "경기도 연천군 연천읍 부곡리 192",
    "phone": "",
    "latitude": "38.0772227105",
    "longitude": "127.1427246484",
    "image": "http://tong.visitkorea.or.kr/cms/resource/05/3532805_image2_1.jpg",
    "category": "폭포"
  },
  {
    "id": "2843976",
    "title": "재인폭포 출렁다리",
    "address": "경기도 연천군 연천읍 고문리",
    "phone": "",
    "latitude": "38.0765560961",
    "longitude": "127.1413164638",
    "image": "http://tong.visitkorea.or.kr/cms/resource/38/2843938_image2_1.jpg",
    "category": "폭포"
  },
  {
    "id": "126437",
    "title": "정방폭포",
    "address": "제주특별자치도 서귀포시 칠십리로214번길 37",
    "phone": "064-733-1530",
    "latitude": "33.2450398180",
    "longitude": "126.5716052770",
    "image": "http://tong.visitkorea.or.kr/cms/resource/78/2665278_image2_1.jpg",
    "category": "폭포"
  },
  {
    "id": "127687",
    "title": "중원폭포",
    "address": "경기도 양평군 용문면 연수리",
    "phone": "031-773-5101",
    "latitude": "37.5527008042",
    "longitude": "127.6174022188",
    "image": "http://tong.visitkorea.or.kr/cms/resource/43/772243_image2_1.jpg",
    "category": "폭포"
  },
  {
    "id": "125648",
    "title": "직연폭포",
    "address": "강원특별자치도 양구군 방산면 칠전리",
    "phone": "",
    "latitude": "38.2065559897",
    "longitude": "127.9509218612",
    "image": "http://tong.visitkorea.or.kr/cms/resource/51/3557151_image2_1.jpg",
    "category": "폭포"
  },
  {
    "id": "125653",
    "title": "직탕폭포 (한탄강 유네스코 세계지질공원)",
    "address": "강원특별자치도 철원군 동송읍 장흥리",
    "phone": "",
    "latitude": "38.2097567004",
    "longitude": "127.2659177854",
    "image": "http://tong.visitkorea.or.kr/cms/resource/37/3575437_image2_1.jpg",
    "category": "폭포"
  },
  {
    "id": "125675",
    "title": "천당폭포",
    "address": "강원특별자치도 속초시 설악산로",
    "phone": "033-636-7700",
    "latitude": "38.1459895779",
    "longitude": "128.4661629115",
    "image": "http://tong.visitkorea.or.kr/cms/resource/74/1966674_image2_1.jpg",
    "category": "폭포"
  },
  {
    "id": "1580917",
    "title": "천일폭포",
    "address": "전북특별자치도 무주군 적상면 산성로",
    "phone": "",
    "latitude": "35.9571659250",
    "longitude": "127.6911847092",
    "image": "http://tong.visitkorea.or.kr/cms/resource/98/3559998_image2_1.jpg",
    "category": "폭포"
  },
  {
    "id": "126439",
    "title": "천제연폭포",
    "address": "제주특별자치도 서귀포시 천제연로 132",
    "phone": "",
    "latitude": "33.2526559999",
    "longitude": "126.4184294967",
    "image": "http://tong.visitkorea.or.kr/cms/resource/56/3552156_image2_1.jpg",
    "category": "폭포"
  },
  {
    "id": "126438",
    "title": "천지연폭포",
    "address": "제주특별자치도 서귀포시 서홍동 666-1",
    "phone": "",
    "latitude": "33.2447452147",
    "longitude": "126.5595618830",
    "image": "http://tong.visitkorea.or.kr/cms/resource/30/2918130_image2_1.jpg",
    "category": "폭포"
  },
  {
    "id": "2766609",
    "title": "청량폭포",
    "address": "경상북도 봉화군 명호면 북곡리",
    "phone": "",
    "latitude": "36.7850494882",
    "longitude": "128.9066255826",
    "image": "http://tong.visitkorea.or.kr/cms/resource/96/3528496_image2_1.jpg",
    "category": "폭포"
  },
  {
    "id": "125676",
    "title": "토왕성폭포",
    "address": "강원특별자치도 속초시 설악동",
    "phone": "033-636-7700",
    "latitude": "38.1543558239",
    "longitude": "128.4947239457",
    "image": "http://tong.visitkorea.or.kr/cms/resource/06/3502106_image2_1.jpg",
    "category": "폭포"
  },
  {
    "id": "128203",
    "title": "파래소폭포",
    "address": "울산광역시 울주군 상북면 억새벌길 200-78",
    "phone": "",
    "latitude": "35.5432703343",
    "longitude": "129.0225231752",
    "image": "",
    "category": "폭포"
  },
  {
    "id": "125647",
    "title": "팔랑폭포",
    "address": "강원특별자치도 양구군 동면 팔랑리",
    "phone": "",
    "latitude": "38.2144570893",
    "longitude": "128.0573230221",
    "image": "http://tong.visitkorea.or.kr/cms/resource/27/3514827_image2_1.jpg",
    "category": "폭포"
  },
  {
    "id": "126076",
    "title": "홍룡폭포",
    "address": "경상남도 양산시 상북면 홍룡로 372",
    "phone": "",
    "latitude": "35.3970351886",
    "longitude": "129.0865272037",
    "image": "http://tong.visitkorea.or.kr/cms/resource/31/3366631_image2_1.jpg",
    "category": "폭포"
  },
  {
    "id": "128204",
    "title": "홍류폭포",
    "address": "울산광역시 울주군 상북면 명촌길천로 33-6",
    "phone": "",
    "latitude": "35.5596834909",
    "longitude": "129.0823702624",
    "image": "http://tong.visitkorea.or.kr/cms/resource/07/3049207_image2_1.jpg",
    "category": "폭포"
  },
  {
    "id": "2758652",
    "title": "홍연폭포",
    "address": "부산광역시 기장군 철마면 웅천리 879-47",
    "phone": "",
    "latitude": "35.2958702558",
    "longitude": "129.1667035724",
    "image": "http://tong.visitkorea.or.kr/cms/resource/50/3338650_image2_1.jpg",
    "category": "폭포"
  },
  {
    "id": "2783698",
    "title": "홍제폭포",
    "address": "서울특별시 서대문구 연희동 170-181",
    "phone": "",
    "latitude": "37.5798797061",
    "longitude": "126.9357023224",
    "image": "http://tong.visitkorea.or.kr/cms/resource/00/3498000_image2_1.jpg",
    "category": "폭포"
  },
  {
    "id": "780768",
    "title": "화도푸른물센터 피아노폭포",
    "address": "경기도 남양주시 화도읍 폭포로 562",
    "phone": "",
    "latitude": "37.6320477289",
    "longitude": "127.3459579117",
    "image": "http://tong.visitkorea.or.kr/cms/resource/47/3507847_image2_1.jpg",
    "category": "폭포"
  },
  {
    "id": "126698",
    "title": "황계폭포",
    "address": "경상남도 합천군 용주면 황계리",
    "phone": "",
    "latitude": "35.5117398377",
    "longitude": "128.0701215005",
    "image": "http://tong.visitkorea.or.kr/cms/resource/97/3501997_image2_1.jpg",
    "category": "폭포"
  },
  {
    "id": "126049",
    "title": "희방폭포",
    "address": "경상북도 영주시 풍기읍 수철리",
    "phone": "054-638-6196, 6796",
    "latitude": "36.9178480053",
    "longitude": "128.4580227923",
    "image": "http://tong.visitkorea.or.kr/cms/resource/63/3510063_image2_1.jpg",
    "category": "폭포"
  },
  {
    "id": "126053",
    "title": "기백산 용추계곡과 용추폭포",
    "address": "경상남도 함양군 안의면 신안리",
    "phone": "",
    "latitude": "35.6870423266",
    "longitude": "127.7639188382",
    "image": "http://tong.visitkorea.or.kr/cms/resource/62/3538262_image2_1.jpg",
    "category": "폭포",
    "original_category": "계곡"
  },
  {
    "id": "126441",
    "title": "돈내코 원앙폭포",
    "address": "제주특별자치도 서귀포시 돈내코로 137",
    "phone": "",
    "latitude": "33.3005255267",
    "longitude": "126.5820170154",
    "image": "http://tong.visitkorea.or.kr/cms/resource/03/3558303_image2_1.jpg",
    "category": "폭포",
    "original_category": "계곡"
  },
  {
    "id": "129685",
    "title": "용추폭포계곡",
    "address": "전라남도 보성군 웅치면 용반리",
    "phone": "",
    "latitude": "34.6910583523",
    "longitude": "127.0134243974",
    "image": "",
    "category": "폭포",
    "original_category": "계곡"
  },
  {
    "id": "2789629",
    "title": "이끼폭포",
    "address": "강원특별자치도 삼척시 도계읍 무건리 산 58",
    "phone": "",
    "latitude": "37.2605265486",
    "longitude": "129.1031382723",
    "image": "http://tong.visitkorea.or.kr/cms/resource/22/3492922_image2_1.JPG",
    "category": "폭포",
    "original_category": "계곡"
  },
  {
    "id": "3046988",
    "title": "구절산 폭포암",
    "address": "경상남도 고성군 동해면 외곡1길 535",
    "phone": "",
    "latitude": "35.0146881418",
    "longitude": "128.4201512754",
    "image": "http://tong.visitkorea.or.kr/cms/resource/53/3538653_image2_1.jpg",
    "category": "폭포",
    "original_category": "사찰"
  }
]