[
  {
    "id": "126273",
    "title": "가계해수욕장",
    "address": "전라남도 진도군 고군면 신비의바닷길 47",
    "phone": "",
    "latitude": "34.4354594945",
    "longitude": "126.3547412438",
    "image": "http://tong.visitkorea.or.kr/cms/resource/36/3079736_image2_1.jpg",
    "category": "해수욕장"
  },
  {
    "id": "126289",
    "title": "가마미해수욕장",
    "address": "전라남도 영광군 홍농읍 가마미로 355",
    "phone": "",
    "latitude": "35.3997293920",
    "longitude": "126.4090769892",
    "image": "http://tong.visitkorea.or.kr/cms/resource/63/3018763_image2_1.jpg",
    "category": "해수욕장"
  },
  {
    "id": "1916695",
    "title": "가사해수욕장",
    "address": "전라남도 완도군 약산면",
    "phone": "",
    "latitude": "34.3704872810",
    "longitude": "126.9281702396",
    "image": "http://tong.visitkorea.or.kr/cms/resource/24/3382824_image2_1.JPG",
    "category": "해수욕장"
  },
  {
    "id": "127311",
    "title": "갈음이해수욕장",
    "address": "충청남도 태안군 근흥면 정죽리",
    "phone": "",
    "latitude": "36.6957489937",
    "longitude": "126.1520087212",
    "image": "http://tong.visitkorea.or.kr/cms/resource/10/3340710_image2_1.jpg",
    "category": "해수욕장"
  },
  {
    "id": "126288",
    "title": "격포해수욕장",
    "address": "전북특별자치도 부안군 변산면 변산해변로 29-14",
    "phone": "",
    "latitude": "35.6292793235",
    "longitude": "126.4698102873",
    "image": "http://tong.visitkorea.or.kr/cms/resource/55/3522155_image2_1.jpg",
    "category": "해수욕장"
  },
  {
    "id": "1621219",
    "title": "경정해수욕장",
    "address": "경상북도 영덕군 축산면 영덕대게로 1726",
    "phone": "",
    "latitude": "36.4820413681",
    "longitude": "129.4330268106",
    "image": "",
    "category": "해수욕장"
  },
  {
    "id": "128758",
    "title": "경포해수욕장",
    "address": "강원특별자치도 강릉시 창해로 514 (안현동)",
    "phone": "",
    "latitude": "37.8058292968",
    "longitude": "128.9074668585",
    "image": "http://tong.visitkorea.or.kr/cms/resource/58/2938658_image2_1.bmp",
    "category": "해수욕장"
  },
  {
    "id": "126103",
    "title": "고래불해수욕장",
    "address": "경상북도 영덕군 병곡면 병곡리",
    "phone": "",
    "latitude": "36.5989470861",
    "longitude": "129.4110308341",
    "image": "http://tong.visitkorea.or.kr/cms/resource/48/3515948_image2_1.jpg",
    "category": "해수욕장"
  },
  {
    "id": "127865",
    "title": "고사포해수욕장",
    "address": "전북특별자치도 부안군 변산면 노루목길 8-8",
    "phone": "",
    "latitude": "35.6619179225",
    "longitude": "126.5082532575",
    "image": "http://tong.visitkorea.or.kr/cms/resource/60/3522160_image2_1.jpg",
    "category": "해수욕장"
  },
  {
    "id": "127870",
    "title": "곽지해수욕장",
    "address": "제주특별자치도 제주시 애월읍 곽지리 1565",
    "phone": "",
    "latitude": "33.4485353054",
    "longitude": "126.3031045774",
    "image": "http://tong.visitkorea.or.kr/cms/resource/30/3053130_image2_1.jpg",
    "category": "해수욕장"
  },
  {
    "id": "126078",
    "title": "광안리해수욕장",
    "address": "부산광역시 수영구 광안해변로 219 (광안동)",
    "phone": "",
    "latitude": "35.1538130576",
    "longitude": "129.1185477876",
    "image": "http://tong.visitkorea.or.kr/cms/resource/45/3311245_image2_1.jpg",
    "category": "해수욕장"
  },
  {
    "id": "2723589",
    "title": "광암해수욕장",
    "address": "경상남도 창원시 마산합포구 진동면 요장리",
    "phone": "",
    "latitude": "35.1021853620",
    "longitude": "128.5021445678",
    "image": "http://tong.visitkorea.or.kr/cms/resource/78/3565278_image2_1.jpg",
    "category": "해수욕장"
  },
  {
    "id": "2713784",
    "title": "광진해수욕장",
    "address": "강원특별자치도 양양군 현남면 광진리",
    "phone": "",
    "latitude": "37.9654163470",
    "longitude": "128.7643637105",
    "image": "http://tong.visitkorea.or.kr/cms/resource/60/3518260_image2_1.jpg",
    "category": "해수욕장"
  },
  {
    "id": "127292",
    "title": "구례포해수욕장",
    "address": "충청남도 태안군 원북면 황촌리",
    "phone": "",
    "latitude": "36.8858083861",
    "longitude": "126.1982717477",
    "image": "http://tong.visitkorea.or.kr/cms/resource/17/3055617_image2_1.jpg",
    "category": "해수욕장"
  },
  {
    "id": "127214",
    "title": "구룡포해수욕장",
    "address": "경상북도 포항시 남구 구룡포읍 호미로426번길 6",
    "phone": "",
    "latitude": "35.9968322529",
    "longitude": "129.5662849025",
    "image": "http://tong.visitkorea.or.kr/cms/resource/11/3042811_image2_1.jpg",
    "category": "해수욕장"
  },
  {
    "id": "128892",
    "title": "구름포해수욕장",
    "address": "충청남도 태안군 소원면 구름포길 116",
    "phone": "",
    "latitude": "36.8358883858",
    "longitude": "126.1530549488",
    "image": "http://tong.visitkorea.or.kr/cms/resource/90/3493790_image2_1.jpg",
    "category": "해수욕장"
  },
  {
    "id": "2761552",
    "title": "구봉솔숲해수욕장",
    "address": "경기도 안산시 단원구 대부북동",
    "phone": "",
    "latitude": "37.2820519630",
    "longitude": "126.5531121433",
    "image": "http://tong.visitkorea.or.kr/cms/resource/29/3539229_image2_1.jpg",
    "category": "해수욕장"
  },
  {
    "id": "126102",
    "title": "구산해수욕장",
    "address": "경상북도 울진군 기성면 기성로 108",
    "phone": "",
    "latitude": "36.7533222575",
    "longitude": "129.4674823321",
    "image": "http://tong.visitkorea.or.kr/cms/resource/70/3039170_image2_1.JPG",
    "category": "해수욕장"
  },
  {
    "id": "126290",
    "title": "구시포해수욕장",
    "address": "전북특별자치도 고창군 상하면 진암구시포로 545",
    "phone": "",
    "latitude": "35.4454496457",
    "longitude": "126.4356707082",
    "image": "http://tong.visitkorea.or.kr/cms/resource/11/3536211_image2_1.jpg",
    "category": "해수욕장"
  },
  {
    "id": "126083",
    "title": "구영해수욕장",
    "address": "경상남도 거제시 장목면 거제북로",
    "phone": "",
    "latitude": "35.0312133979",
    "longitude": "128.6910133258",
    "image": "http://tong.visitkorea.or.kr/cms/resource/57/3519157_image2_1.jpg",
    "category": "해수욕장"
  },
  {
    "id": "583071",
    "title": "구조라해수욕장",
    "address": "경상남도 거제시 일운면 구조라리",
    "phone": "",
    "latitude": "34.8088382548",
    "longitude": "128.6905248524",
    "image": "http://tong.visitkorea.or.kr/cms/resource/10/3519210_image2_1.jpg",
    "category": "해수욕장"
  },
  {
    "id": "1932009",
    "title": "궁평리 해수욕장",
    "address": "경기도 화성시 서신면 수문개길 81-36",
    "phone": "",
    "latitude": "37.1234615370",
    "longitude": "126.6848461741",
    "image": "http://tong.visitkorea.or.kr/cms/resource/29/3031629_image2_1.JPG",
    "category": "해수욕장"
  },
  {
    "id": "1916699",
    "title": "금곡해수욕장",
    "address": "전라남도 완도군 생일면 금곡리",
    "phone": "",
    "latitude": "34.3121999203",
    "longitude": "126.9625658558",
    "image": "http://tong.visitkorea.or.kr/cms/resource/10/2516110_image2_1.jpg",
    "category": "해수욕장"
  },
  {
    "id": "591866",
    "title": "금능해수욕장",
    "address": "제주특별자치도 제주시 한림읍 금능길 119-10",
    "phone": "",
    "latitude": "33.3903434702",
    "longitude": "126.2360339355",
    "image": "http://tong.visitkorea.or.kr/cms/resource/55/2877155_image2_1.jpg",
    "category": "해수욕장"
  },
  {
    "id": "126303",
    "title": "금일명사십리해수욕장",
    "address": "전라남도 완도군 금일읍 금일로 886",
    "phone": "",
    "latitude": "34.3318326286",
    "longitude": "127.0568710231",
    "image": "",
    "category": "해수욕장"
  },
  {
    "id": "2723794",
    "title": "금장해수욕장",
    "address": "전라남도 고흥군 금산면 어전리",
    "phone": "",
    "latitude": "34.4348229162",
    "longitude": "127.1642591248",
    "image": "http://tong.visitkorea.or.kr/cms/resource/40/3542840_image2_1.jpg",
    "category": "해수욕장"
  },
  {
    "id": "2753950",
    "title": "기성망양해수욕장",
    "address": "경상북도 울진군 기성면 망양리",
    "phone": "",
    "latitude": "36.8427475194",
    "longitude": "129.4344297869",
    "image": "http://tong.visitkorea.or.kr/cms/resource/75/3576575_image2_1.jpg",
    "category": "해수욕장"
  },
  {
    "id": "128903",
    "title": "기지포해수욕장",
    "address": "충청남도 태안군 안면읍 해안관광로 745-19",
    "phone": "",
    "latitude": "36.5627783257",
    "longitude": "126.3223634527",
    "image": "http://tong.visitkorea.or.kr/cms/resource/06/2716306_image2_1.jpg",
    "category": "해수욕장"
  },
  {
    "id": "126695",
    "title": "꽃지해수욕장",
    "address": "충청남도 태안군 안면읍 승언리",
    "phone": "",
    "latitude": "36.5013661578",
    "longitude": "126.3346639477",
    "image": "http://tong.visitkorea.or.kr/cms/resource/23/3498123_image2_1.jpg",
    "category": "해수욕장"
  },
  {
    "id": "1532338",
    "title": "꾸지나무골해수욕장",
    "address": "충청남도 태안군 이원면 내리",
    "phone": "",
    "latitude": "36.9351487451",
    "longitude": "126.2929090667",
    "image": "http://tong.visitkorea.or.kr/cms/resource/29/3494229_image2_1.jpg",
    "category": "해수욕장"
  },
  {
    "id": "129630",
    "title": "나곡해수욕장",
    "address": "경상북도 울진군 나실길 20-20",
    "phone": "",
    "latitude": "37.1257472378",
    "longitude": "129.3708990607",
    "image": "http://tong.visitkorea.or.kr/cms/resource/76/3060776_image2_1.JPG",
    "category": "해수욕장"
  },
  {
    "id": "127885",
    "title": "나로우주해수욕장",
    "address": "전라남도 고흥군 봉래면 신금리",
    "phone": "",
    "latitude": "34.4682354406",
    "longitude": "127.4688177923",
    "image": "http://tong.visitkorea.or.kr/cms/resource/44/3519244_image2_1.jpg",
    "category": "해수욕장"
  },
  {
    "id": "125702",
    "title": "낙산해수욕장",
    "address": "강원특별자치도 양양군 강현면 해맞이길 55",
    "phone": "",
    "latitude": "38.1173878185",
    "longitude": "128.6335763809",
    "image": "http://tong.visitkorea.or.kr/cms/resource/68/2929768_image2_1.jpg",
    "category": "해수욕장"
  },
  {
    "id": "125849",
    "title": "난지섬해수욕장",
    "address": "충청남도 당진시 석문면 난지1길 67",
    "phone": "",
    "latitude": "37.0470102889",
    "longitude": "126.4241913673",
    "image": "http://tong.visitkorea.or.kr/cms/resource/20/1932520_image2_1.jpg",
    "category": "해수욕장"
  },
  {
    "id": "2782702",
    "title": "남성리해수욕장",
    "address": "전라남도 고흥군 포두면 남성리",
    "phone": "",
    "latitude": "34.5195342013",
    "longitude": "127.4064164168",
    "image": "http://tong.visitkorea.or.kr/cms/resource/18/3518918_image2_1.jpg",
    "category": "해수욕장"
  },
  {
    "id": "2916001",
    "title": "남애1리해수욕장",
    "address": "강원특별자치도 양양군 현남면 화상해안길 245",
    "phone": "",
    "latitude": "37.9341454568",
    "longitude": "128.7891485534",
    "image": "http://tong.visitkorea.or.kr/cms/resource/96/2915996_image2_1.JPG",
    "category": "해수욕장"
  },
  {
    "id": "2913902",
    "title": "남애3리해수욕장",
    "address": "강원특별자치도 양양군 현남면 매바위길 167",
    "phone": "",
    "latitude": "37.9457079159",
    "longitude": "128.7845708299",
    "image": "http://tong.visitkorea.or.kr/cms/resource/09/1584009_image2_1.jpg",
    "category": "해수욕장"
  },
  {
    "id": "127546",
    "title": "남열해돋이해수욕장",
    "address": "전라남도 고흥군 영남면 남열리",
    "phone": "",
    "latitude": "34.5806370729",
    "longitude": "127.4869161920",
    "image": "http://tong.visitkorea.or.kr/cms/resource/30/3360830_image2_1.JPG",
    "category": "해수욕장"
  },
  {
    "id": "126564",
    "title": "남일대해수욕장",
    "address": "경상남도 사천시 모례2길 11-19 (향촌동)",
    "phone": "",
    "latitude": "34.9279921255",
    "longitude": "128.0980483541",
    "image": "http://tong.visitkorea.or.kr/cms/resource/62/3374262_image2_1.JPG",
    "category": "해수욕장"
  },
  {
    "id": "127456",
    "title": "남해가천암수바위",
    "address": "경상남도 남해군 남면 홍현리",
    "phone": "",
    "latitude": "34.7265361089",
    "longitude": "127.8941213688",
    "image": "http://tong.visitkorea.or.kr/cms/resource/78/3554878_image2_1.jpg",
    "category": "해수욕장"
  },
  {
    "id": "127159",
    "title": "남호해수욕장",
    "address": "경상북도 영덕군 남정면 남호리",
    "phone": "",
    "latitude": "36.3276467711",
    "longitude": "129.3799304895",
    "image": "http://tong.visitkorea.or.kr/cms/resource/36/3515936_image2_1.jpg",
    "category": "해수욕장"
  },
  {
    "id": "3462403",
    "title": "노을야경투어",
    "address": "인천광역시 연수구 인천타워대로 234 (송도동)",
    "phone": "",
    "latitude": "37.3923961679",
    "longitude": "126.6360571042",
    "image": "",
    "category": "해수욕장"
  },
  {
    "id": "2740047",
    "title": "논짓물",
    "address": "제주특별자치도 서귀포시 예래해안로 256 (하예동)",
    "phone": "",
    "latitude": "33.2365767524",
    "longitude": "126.3887657618",
    "image": "http://tong.visitkorea.or.kr/cms/resource/44/3550644_image2_1.jpg",
    "category": "해수욕장"
  },
  {
    "id": "126079",
    "title": "다대포해수욕장",
    "address": "부산광역시 사하구 몰운대1길 14",
    "phone": "",
    "latitude": "35.0464195263",
    "longitude": "128.9680332493",
    "image": "http://tong.visitkorea.or.kr/cms/resource/15/3497115_image2_1.jpg",
    "category": "해수욕장"
  },
  {
    "id": "2758237",
    "title": "달산포해수욕장",
    "address": "충청남도 태안군 남면 달산리",
    "phone": "",
    "latitude": "36.6537479514",
    "longitude": "126.2959106813",
    "image": "http://tong.visitkorea.or.kr/cms/resource/39/3514739_image2_1.jpg",
    "category": "해수욕장"
  },
  {
    "id": "2768080",
    "title": "당너머해수욕장",
    "address": "인천광역시 옹진군 영흥면 선재리",
    "phone": "",
    "latitude": "37.2341515699",
    "longitude": "126.5306127249",
    "image": "http://tong.visitkorea.or.kr/cms/resource/42/3524942_image2_1.jpg",
    "category": "해수욕장"
  },
  {
    "id": "126271",
    "title": "대광해수욕장",
    "address": "전라남도 신안군 임자면 광산리",
    "phone": "",
    "latitude": "35.1034268421",
    "longitude": "126.0701421506",
    "image": "http://tong.visitkorea.or.kr/cms/resource/95/3378795_image2_1.JPG",
    "category": "해수욕장"
  },
  {
    "id": "127883",
    "title": "대전해수욕장",
    "address": "전라남도 고흥군 두원면 두원로 1306-30",
    "phone": "",
    "latitude": "34.7135268715",
    "longitude": "127.2724761027",
    "image": "http://tong.visitkorea.or.kr/cms/resource/19/3344719_image2_1.JPG",
    "category": "해수욕장"
  },
  {
    "id": "2774430",
    "title": "대진 해수욕장",
    "address": "강원특별자치도 동해시 대진항길 46 (대진동)",
    "phone": "",
    "latitude": "37.5810009497",
    "longitude": "129.1125692666",
    "image": "http://tong.visitkorea.or.kr/cms/resource/33/2774433_image2_1.jpg",
    "category": "해수욕장"
  },
  {
    "id": "126104",
    "title": "대진해수욕장",
    "address": "경상북도 영덕군 영해면 영덕대게로 2840",
    "phone": "",
    "latitude": "36.5645374176",
    "longitude": "129.4266915867",
    "image": "http://tong.visitkorea.or.kr/cms/resource/38/3042738_image2_1.JPG",
    "category": "해수욕장"
  },
  {
    "id": "127866",
    "title": "대천해수욕장",
    "address": "충청남도 보령시 머드로 123",
    "phone": "041-933-7051",
    "latitude": "36.3132018619",
    "longitude": "126.5093475608",
    "image": "http://tong.visitkorea.or.kr/cms/resource/71/3513871_image2_1.jpg",
    "category": "해수욕장"
  },
  {
    "id": "127100",
    "title": "덕동해수욕장",
    "address": "경상남도 통영시 욕지면 서산리",
    "phone": "",
    "latitude": "34.6356355724",
    "longitude": "128.2347217926",
    "image": "http://tong.visitkorea.or.kr/cms/resource/40/3558240_image2_1.jpg",
    "category": "해수욕장"
  },
  {
    "id": "2723634",
    "title": "덕원해수욕장",
    "address": "경상남도 거제시 동부면 가배리 556-3",
    "phone": "",
    "latitude": "34.7783840090",
    "longitude": "128.5743079796",
    "image": "http://tong.visitkorea.or.kr/cms/resource/97/3373797_image2_1.JPG",
    "category": "해수욕장"
  },
  {
    "id": "2664745",
    "title": "덕적도 능동자갈마당",
    "address": "인천광역시 옹진군 덕적면 덕적북로 725",
    "phone": "",
    "latitude": "37.2639907025",
    "longitude": "126.1027481475",
    "image": "http://tong.visitkorea.or.kr/cms/resource/95/3511495_image2_1.jpg",
    "category": "해수욕장"
  },
  {
    "id": "129011",
    "title": "덕천해수욕장",
    "address": "경상북도 영덕군 병곡면 덕천리",
    "phone": "",
    "latitude": "36.5699478204",
    "longitude": "129.4219307346",
    "image": "http://tong.visitkorea.or.kr/cms/resource/24/3515924_image2_1.jpg",
    "category": "해수욕장"
  },
  {
    "id": "127939",
    "title": "덕포해수욕장",
    "address": "경상남도 거제시 덕포5길 32-4",
    "phone": "",
    "latitude": "34.9110910787",
    "longitude": "128.7104315142",
    "image": "http://tong.visitkorea.or.kr/cms/resource/43/3372343_image2_1.JPG",
    "category": "해수욕장"
  },
  {
    "id": "126888",
    "title": "덕흥해수욕장",
    "address": "전라남도 고흥군 동일면 덕흥리",
    "phone": "",
    "latitude": "34.5271231302",
    "longitude": "127.4586172208",
    "image": "http://tong.visitkorea.or.kr/cms/resource/14/3519314_image2_1.jpg",
    "category": "해수욕장"
  },
  {
    "id": "1621384",
    "title": "도구해수욕장",
    "address": "경상북도 포항시 남구 동해면 일월로81번길",
    "phone": "",
    "latitude": "35.9918193724",
    "longitude": "129.4444096143",
    "image": "",
    "category": "해수욕장"
  },
  {
    "id": "127766",
    "title": "도초 시목해수욕장",
    "address": "전라남도 신안군 도초면 시목길 219-30",
    "phone": "",
    "latitude": "34.6717209661",
    "longitude": "125.9559625347",
    "image": "http://tong.visitkorea.or.kr/cms/resource/33/2821533_image2_1.jpg",
    "category": "해수욕장"
  },
  {
    "id": "129583",
    "title": "독산해수욕장",
    "address": "충청남도 보령시 웅천읍 소황리",
    "phone": "",
    "latitude": "36.2225459561",
    "longitude": "126.5309118710",
    "image": "http://tong.visitkorea.or.kr/cms/resource/23/3513923_image2_1.jpg",
    "category": "해수욕장"
  },
  {
    "id": "126291",
    "title": "돌머리해수욕장",
    "address": "전라남도 함평군 함평읍 주포로 614",
    "phone": "",
    "latitude": "35.0865542912",
    "longitude": "126.4419067904",
    "image": "http://tong.visitkorea.or.kr/cms/resource/55/3381355_image2_1.JPG",
    "category": "해수욕장"
  },
  {
    "id": "3012090",
    "title": "동개해수욕장",
    "address": "전라남도 신안군 흑산면 가거도리",
    "phone": "",
    "latitude": "34.0494863560",
    "longitude": "125.1316467172",
    "image": "",
    "category": "해수욕장"
  },
  {
    "id": "2723525",
    "title": "동고리해수욕장",
    "address": "전라남도 완도군 신지면 신지로 1259-1",
    "phone": "",
    "latitude": "34.3297826984",
    "longitude": "126.8799032227",
    "image": "http://tong.visitkorea.or.kr/cms/resource/19/2723519_image2_1.jpg",
    "category": "해수욕장"
  },
  {
    "id": "2710849",
    "title": "동산포해수욕장",
    "address": "강원특별자치도 양양군 현남면 동산큰길 39",
    "phone": "",
    "latitude": "37.9791563343",
    "longitude": "128.7599720145",
    "image": "http://tong.visitkorea.or.kr/cms/resource/74/3518274_image2_1.jpg",
    "category": "해수욕장"
  },
  {
    "id": "2710838",
    "title": "동산해수욕장",
    "address": "강원특별자치도 양양군 현남면 동산큰길 84-54",
    "phone": "",
    "latitude": "37.9814671694",
    "longitude": "128.7595719781",
    "image": "http://tong.visitkorea.or.kr/cms/resource/70/3351770_image2_1.JPG",
    "category": "해수욕장"
  },
  {
    "id": "126286",
    "title": "동호해수욕장",
    "address": "전북특별자치도 고창군 해리면 명사십리로 887",
    "phone": "",
    "latitude": "35.5143481439",
    "longitude": "126.4816454501",
    "image": "http://tong.visitkorea.or.kr/cms/resource/11/3336511_image2_1.jpg",
    "category": "해수욕장"
  },
  {
    "id": "126682",
    "title": "두곡월포해수욕장",
    "address": "경상남도 남해군 남면 당항리",
    "phone": "",
    "latitude": "34.7682372361",
    "longitude": "127.9078191046",
    "image": "http://tong.visitkorea.or.kr/cms/resource/48/3554848_image2_1.jpg",
    "category": "해수욕장"
  },
  {
    "id": "128893",
    "title": "두여해수욕장",
    "address": "충청남도 태안군 안면읍 정당리",
    "phone": "",
    "latitude": "36.5419475153",
    "longitude": "126.3297105565",
    "image": "http://tong.visitkorea.or.kr/cms/resource/49/3340749_image2_1.jpg",
    "category": "해수욕장"
  },
  {
    "id": "126302",
    "title": "땅끝송호해수욕장",
    "address": "전라남도 해남군 송지면 땅끝해안로 1827",
    "phone": "",
    "latitude": "34.3143479503",
    "longitude": "126.5190463327",
    "image": "",
    "category": "해수욕장"
  },
  {
    "id": "3097805",
    "title": "떠오르길·김녕 바닷길",
    "address": "제주특별자치도 제주시 구좌읍 김녕로1길 51-3",
    "phone": "",
    "latitude": "33.5579219672",
    "longitude": "126.7488938991",
    "image": "http://tong.visitkorea.or.kr/cms/resource/91/3546291_image2_1.jpg",
    "category": "해수욕장"
  },
  {
    "id": "128904",
    "title": "마검포해수욕장",
    "address": "충청남도 태안군 남면 신온리",
    "phone": "",
    "latitude": "36.6076475953",
    "longitude": "126.2893097098",
    "image": "http://tong.visitkorea.or.kr/cms/resource/88/3340788_image2_1.jpg",
    "category": "해수욕장"
  },
  {
    "id": "125842",
    "title": "만리포해수욕장",
    "address": "충청남도 태안군 소원면 만리포2길 138",
    "phone": "",
    "latitude": "36.7858023228",
    "longitude": "126.1422683553",
    "image": "http://tong.visitkorea.or.kr/cms/resource/35/2653435_image2_1.jpg",
    "category": "해수욕장"
  },
  {
    "id": "126100",
    "title": "망양정해수욕장",
    "address": "경상북도 울진군 근남면 망양정로 1016",
    "phone": "",
    "latitude": "36.9687160298",
    "longitude": "129.4125140305",
    "image": "http://tong.visitkorea.or.kr/cms/resource/76/3039176_image2_1.JPG",
    "category": "해수욕장"
  },
  {
    "id": "2723624",
    "title": "망치몽돌해수욕장",
    "address": "경상남도 거제시 일운면 망치리 120-2",
    "phone": "",
    "latitude": "34.8127707384",
    "longitude": "128.6677545045",
    "image": "http://tong.visitkorea.or.kr/cms/resource/46/3519346_image2_1.jpg",
    "category": "해수욕장"
  },
  {
    "id": "2758238",
    "title": "먼동해수욕장",
    "address": "충청남도 태안군 원북면 구례포길 47-508",
    "phone": "",
    "latitude": "36.8836084568",
    "longitude": "126.1874783414",
    "image": "http://tong.visitkorea.or.kr/cms/resource/45/3450845_image2_1.jpg",
    "category": "해수욕장"
  },
  {
    "id": "126577",
    "title": "명사해수욕장",
    "address": "경상남도 거제시 남부면 명사해수욕장길",
    "phone": "",
    "latitude": "34.7272513743",
    "longitude": "128.6047816783",
    "image": "http://tong.visitkorea.or.kr/cms/resource/33/3077233_image2_1.jpg",
    "category": "해수욕장"
  },
  {
    "id": "2783140",
    "title": "명장섬해수욕장 (장고도)",
    "address": "충청남도 보령시 오천면 삽시도리",
    "phone": "",
    "latitude": "36.4014250582",
    "longitude": "126.3457238871",
    "image": "",
    "category": "해수욕장"
  },
  {
    "id": "128753",
    "title": "모사금해수욕장",
    "address": "전라남도 여수시 오천동",
    "phone": "",
    "latitude": "34.7965564174",
    "longitude": "127.7557650074",
    "image": "http://tong.visitkorea.or.kr/cms/resource/43/3027343_image2_1.jpg",
    "category": "해수욕장"
  },
  {
    "id": "129493",
    "title": "모상개해수욕장",
    "address": "경상남도 남해군 창선면 진동리",
    "phone": "",
    "latitude": "34.8393655486",
    "longitude": "128.0756553901",
    "image": "http://tong.visitkorea.or.kr/cms/resource/54/3373754_image2_1.JPG",
    "category": "해수욕장"
  },
  {
    "id": "2614721",
    "title": "몰운대(부산)",
    "address": "부산광역시 사하구 다대동",
    "phone": "",
    "latitude": "35.0405368894",
    "longitude": "128.9701276709",
    "image": "http://tong.visitkorea.or.kr/cms/resource/30/3506330_image2_1.jpg",
    "category": "해수욕장"
  },
  {
    "id": "2768103",
    "title": "몽돌해수욕장(옹진군)",
    "address": "인천광역시 옹진군 영흥면 내리 1212-28",
    "phone": "",
    "latitude": "37.2841335604",
    "longitude": "126.4675615457",
    "image": "http://tong.visitkorea.or.kr/cms/resource/48/2791248_image2_1.JPG",
    "category": "해수욕장"
  },
  {
    "id": "125845",
    "title": "몽산포해수욕장",
    "address": "충청남도 태안군 남면 몽산포길 65-27",
    "phone": "",
    "latitude": "36.6701403637",
    "longitude": "126.2875471184",
    "image": "http://tong.visitkorea.or.kr/cms/resource/86/3344186_image2_1.jpg",
    "category": "해수욕장"
  },
  {
    "id": "125841",
    "title": "무창포해수욕장",
    "address": "충청남도 보령시 웅천읍 열린바다1길 10",
    "phone": "",
    "latitude": "36.2445351993",
    "longitude": "126.5365469039",
    "image": "http://tong.visitkorea.or.kr/cms/resource/13/3513913_image2_1.jpg",
    "category": "해수욕장"
  },
  {
    "id": "3026168",
    "title": "물건해수욕장",
    "address": "경상남도 남해군 삼동면 동부대로1030번길 42-34",
    "phone": "",
    "latitude": "34.7933619854",
    "longitude": "128.0540529108",
    "image": "http://tong.visitkorea.or.kr/cms/resource/48/3026148_image2_1.JPG",
    "category": "해수욕장"
  },
  {
    "id": "1622212",
    "title": "물안해수욕장",
    "address": "경상남도 거제시 하청면 칠천로 973-1",
    "phone": "",
    "latitude": "35.0108510911",
    "longitude": "128.6524866723",
    "image": "http://tong.visitkorea.or.kr/cms/resource/34/3519234_image2_1.jpg",
    "category": "해수욕장"
  },
  {
    "id": "2704383",
    "title": "물치해수욕장",
    "address": "강원특별자치도 양양군 강현면 물치리",
    "phone": "",
    "latitude": "38.1537553201",
    "longitude": "128.6083247601",
    "image": "http://tong.visitkorea.or.kr/cms/resource/53/3518053_image2_1.jpg",
    "category": "해수욕장"
  },
  {
    "id": "799776",
    "title": "미라리해수욕장",
    "address": "전라남도 완도군 소안면 미라리",
    "phone": "",
    "latitude": "34.1452970651",
    "longitude": "126.6693982608",
    "image": "",
    "category": "해수욕장"
  },
  {
    "id": "128895",
    "title": "바람아래해수욕장",
    "address": "충청남도 태안군 고남면 장곡리",
    "phone": "",
    "latitude": "36.4133214441",
    "longitude": "126.3769540951",
    "image": "http://tong.visitkorea.or.kr/cms/resource/83/3055583_image2_1.jpg",
    "category": "해수욕장"
  },
  {
    "id": "127545",
    "title": "발포해수욕장",
    "address": "전라남도 고흥군 도화면 발포리",
    "phone": "",
    "latitude": "34.4917364545",
    "longitude": "127.3560159558",
    "image": "http://tong.visitkorea.or.kr/cms/resource/89/3519189_image2_1.jpg",
    "category": "해수욕장"
  },
  {
    "id": "128901",
    "title": "밧개해수욕장",
    "address": "충청남도 태안군 안면읍 승언리",
    "phone": "",
    "latitude": "36.5309210243",
    "longitude": "126.3307690830",
    "image": "http://tong.visitkorea.or.kr/cms/resource/93/3055593_image2_1.jpg",
    "category": "해수욕장"
  },
  {
    "id": "2783069",
    "title": "방아머리해수욕장",
    "address": "경기도 안산시 단원구 대부황금로 1531",
    "phone": "",
    "latitude": "37.2899181516",
    "longitude": "126.5778985598",
    "image": "http://tong.visitkorea.or.kr/cms/resource/16/2786416_image2_1.jpg",
    "category": "해수욕장"
  },
  {
    "id": "125843",
    "title": "방포해수욕장",
    "address": "충청남도 태안군 안면읍 방포1길 29-1",
    "phone": "",
    "latitude": "36.5087930546",
    "longitude": "126.3331027834",
    "image": "http://tong.visitkorea.or.kr/cms/resource/84/3340684_image2_1.jpg",
    "category": "해수욕장"
  },
  {
    "id": "2723809",
    "title": "배낭기미해수욕장",
    "address": "전라남도 신안군 흑산면 진리 586-18",
    "phone": "",
    "latitude": "34.6891078527",
    "longitude": "125.4265562784",
    "image": "",
    "category": "해수욕장"
  },
  {
    "id": "2778033",
    "title": "배알도해수욕장",
    "address": "전라남도 광양시 태인동 1630-1",
    "phone": "",
    "latitude": "34.9599548059",
    "longitude": "127.7586661229",
    "image": "http://tong.visitkorea.or.kr/cms/resource/69/3520269_image2_1.jpg",
    "category": "해수욕장"
  },
  {
    "id": "1626917",
    "title": "백리포해수욕장",
    "address": "충청남도 태안군 소원면 의항리",
    "phone": "",
    "latitude": "36.1200457982",
    "longitude": "126.1553093788",
    "image": "http://tong.visitkorea.or.kr/cms/resource/90/3553190_image2_1.jpg",
    "category": "해수욕장"
  },
  {
    "id": "128902",
    "title": "백사장해수욕장",
    "address": "충청남도 태안군 안면읍 백사장2길 25-144",
    "phone": "",
    "latitude": "36.5788846763",
    "longitude": "126.3148053807",
    "image": "http://tong.visitkorea.or.kr/cms/resource/26/2716426_image2_1.jpg",
    "category": "해수욕장"
  },
  {
    "id": "2660694",
    "title": "벌천포해수욕장",
    "address": "충청남도 서산시 대산읍 오지리",
    "phone": "",
    "latitude": "36.9678818273",
    "longitude": "126.3369097525",
    "image": "http://tong.visitkorea.or.kr/cms/resource/55/3055355_image2_1.JPG",
    "category": "해수욕장"
  },
  {
    "id": "126287",
    "title": "변산해수욕장",
    "address": "전북특별자치도 부안군 변산면 변산로 2100",
    "phone": "",
    "latitude": "35.6787274928",
    "longitude": "126.5303730814",
    "image": "http://tong.visitkorea.or.kr/cms/resource/73/2514273_image2_1.jpg",
    "category": "해수욕장"
  },
  {
    "id": "127099",
    "title": "봉암해수욕장",
    "address": "경상남도 통영시 한산면 추봉리",
    "phone": "",
    "latitude": "34.7592378161",
    "longitude": "128.5124249749",
    "image": "http://tong.visitkorea.or.kr/cms/resource/63/3558263_image2_1.jpg",
    "category": "해수욕장"
  },
  {
    "id": "126099",
    "title": "봉평해수욕장",
    "address": "경상북도 울진군 죽변면 봉평리",
    "phone": "",
    "latitude": "37.0440490907",
    "longitude": "129.4132311212",
    "image": "",
    "category": "해수욕장"
  },
  {
    "id": "126122",
    "title": "부산 송도해수욕장",
    "address": "부산광역시 서구 송도해변로 100",
    "phone": "",
    "latitude": "35.0739256715",
    "longitude": "129.0164588470",
    "image": "http://tong.visitkorea.or.kr/cms/resource/86/2504686_image2_1.jpg",
    "category": "해수욕장"
  },
  {
    "id": "125682",
    "title": "북분리해수욕장",
    "address": "강원특별자치도 양양군 현남면 동해대로 972",
    "phone": "",
    "latitude": "37.9854221046",
    "longitude": "128.7512587183",
    "image": "http://tong.visitkorea.or.kr/cms/resource/15/3076915_image2_1.jpg",
    "category": "해수욕장"
  },
  {
    "id": "129589",
    "title": "비진도해수욕장",
    "address": "경상남도 통영시 한산면 비진리",
    "phone": "",
    "latitude": "34.7212938928",
    "longitude": "128.4599166464",
    "image": "",
    "category": "해수욕장"
  },
  {
    "id": "2723610",
    "title": "사곡해수욕장",
    "address": "경상남도 거제시 사등면 사곡리 757-1",
    "phone": "",
    "latitude": "34.8988649512",
    "longitude": "128.5721855360",
    "image": "http://tong.visitkorea.or.kr/cms/resource/41/3372141_image2_1.JPG",
    "category": "해수욕장"
  },
  {
    "id": "1532423",
    "title": "사목해수욕장",
    "address": "충청남도 태안군 이원면 내리",
    "phone": "",
    "latitude": "36.9204059972",
    "longitude": "126.2924067266",
    "image": "http://tong.visitkorea.or.kr/cms/resource/64/3553164_image2_1.jpg",
    "category": "해수욕장"
  },
  {
    "id": "2750952",
    "title": "사창해수욕장",
    "address": "충청남도 보령시 오천면 원산도리",
    "phone": "",
    "latitude": "36.3653470110",
    "longitude": "126.4129104379",
    "image": "http://tong.visitkorea.or.kr/cms/resource/04/3513904_image2_1.jpg",
    "category": "해수욕장"
  },
  {
    "id": "3429847",
    "title": "사천무지개도로",
    "address": "경상남도 사천시 해안관광로 381-5 (송포동)",
    "phone": "",
    "latitude": "34.9656785953",
    "longitude": "128.0430355166",
    "image": "http://tong.visitkorea.or.kr/cms/resource/72/3432672_image2_1.jpg",
    "category": "해수욕장"
  },
  {
    "id": "127779",
    "title": "사촌해수욕장",
    "address": "경상남도 남해군 남면 남면로1229번길 44",
    "phone": "",
    "latitude": "34.7414171144",
    "longitude": "127.8560937545",
    "image": "http://tong.visitkorea.or.kr/cms/resource/36/2486336_image2_1.jpg",
    "category": "해수욕장"
  },
  {
    "id": "125846",
    "title": "삼봉해수욕장",
    "address": "충청남도 태안군 안면읍 삼봉길 209-3",
    "phone": "",
    "latitude": "36.5715605240",
    "longitude": "126.3150888802",
    "image": "http://tong.visitkorea.or.kr/cms/resource/65/3340665_image2_1.jpg",
    "category": "해수욕장"
  },
  {
    "id": "129401",
    "title": "삼양해수욕장",
    "address": "제주특별자치도 제주시 삼양이동",
    "phone": "",
    "latitude": "33.5255284819",
    "longitude": "126.5852560795",
    "image": "http://tong.visitkorea.or.kr/cms/resource/20/3039520_image2_1.jpeg",
    "category": "해수욕장"
  },
  {
    "id": "129160",
    "title": "삼정해수욕장",
    "address": "경상북도 포항시 남구 구룡포읍 삼정리",
    "phone": "",
    "latitude": "36.0039426727",
    "longitude": "129.5721314056",
    "image": "http://tong.visitkorea.or.kr/cms/resource/11/3528311_image2_1.jpg",
    "category": "해수욕장"
  },
  {
    "id": "126278",
    "title": "상록해수욕장",
    "address": "전북특별자치도 부안군 변산면 변산로 3210-16",
    "phone": "",
    "latitude": "35.6007494449",
    "longitude": "126.4822571170",
    "image": "http://tong.visitkorea.or.kr/cms/resource/06/3067106_image2_1.jpg",
    "category": "해수욕장"
  },
  {
    "id": "126084",
    "title": "상주은모래비치",
    "address": "경상남도 남해군 상주면 상주로 17",
    "phone": "",
    "latitude": "34.7222160000",
    "longitude": "127.9874688864",
    "image": "http://tong.visitkorea.or.kr/cms/resource/01/3583201_image2_1.jpg",
    "category": "해수욕장"
  },
  {
    "id": "128897",
    "title": "샛별해수욕장",
    "address": "충청남도 태안군 안면읍 샛별길 184-2",
    "phone": "",
    "latitude": "36.4486777956",
    "longitude": "126.3360401973",
    "image": "http://tong.visitkorea.or.kr/cms/resource/78/3055578_image2_1.jpg",
    "category": "해수욕장"
  },
  {
    "id": "129255",
    "title": "선녀바위 해수욕장",
    "address": "인천광역시 중구 을왕동",
    "phone": "",
    "latitude": "37.4396528206",
    "longitude": "126.3779099153",
    "image": "http://tong.visitkorea.or.kr/cms/resource/92/3518392_image2_1.jpg",
    "category": "해수욕장"
  },
  {
    "id": "2022531",
    "title": "선유도해수욕장",
    "address": "전북특별자치도 군산시 옥도면",
    "phone": "",
    "latitude": "35.8161737144",
    "longitude": "126.4110635938",
    "image": "http://tong.visitkorea.or.kr/cms/resource/39/3350739_image2_1.jpg",
    "category": "해수욕장"
  },
  {
    "id": "2723780",
    "title": "설레미해수욕장",
    "address": "전라남도 신안군 증도면 우전리 산37-6",
    "phone": "",
    "latitude": "34.9614245008",
    "longitude": "126.1344426331",
    "image": "http://tong.visitkorea.or.kr/cms/resource/43/3559043_image2_1.jpg",
    "category": "해수욕장"
  },
  {
    "id": "129487",
    "title": "설리해수욕장",
    "address": "경상남도 남해군 미조면 미송로303번길 70",
    "phone": "",
    "latitude": "34.7055990803",
    "longitude": "128.0255437691",
    "image": "http://tong.visitkorea.or.kr/cms/resource/25/3339025_image2_1.jpg",
    "category": "해수욕장"
  },
  {
    "id": "2710820",
    "title": "설악해수욕장",
    "address": "강원특별자치도 양양군 강현면 용호리 4-5",
    "phone": "",
    "latitude": "38.1301333481",
    "longitude": "128.6227575205",
    "image": "http://tong.visitkorea.or.kr/cms/resource/22/2745222_image2_1.jpg",
    "category": "해수욕장"
  },
  {
    "id": "2775500",
    "title": "소돌해수욕장",
    "address": "강원특별자치도 강릉시 주문진읍 해안로 1993",
    "phone": "",
    "latitude": "37.9062383246",
    "longitude": "128.8272654209",
    "image": "http://tong.visitkorea.or.kr/cms/resource/23/2921823_image2_1.jpg",
    "category": "해수욕장"
  },
  {
    "id": "125707",
    "title": "속초해수욕장",
    "address": "강원특별자치도 속초시 해오름로 190 (조양동)",
    "phone": "",
    "latitude": "38.1906064639",
    "longitude": "128.6019575219",
    "image": "http://tong.visitkorea.or.kr/cms/resource/68/2733168_image2_1.jpg",
    "category": "해수욕장"
  },
  {
    "id": "2788450",
    "title": "솔개해수욕장",
    "address": "울산광역시 울주군 서생면 진하리",
    "phone": "",
    "latitude": "35.3737398854",
    "longitude": "129.3467301771",
    "image": "http://tong.visitkorea.or.kr/cms/resource/45/3534645_image2_1.jpg",
    "category": "해수욕장"
  },
  {
    "id": "125704",
    "title": "송전해수욕장",
    "address": "강원특별자치도 양양군 손양면 송전리",
    "phone": "",
    "latitude": "38.0932550080",
    "longitude": "128.6590248255",
    "image": "http://tong.visitkorea.or.kr/cms/resource/33/3518033_image2_1.jpg",
    "category": "해수욕장"
  },
  {
    "id": "126080",
    "title": "송정해수욕장",
    "address": "부산광역시 해운대구 송정해변로 62",
    "phone": "",
    "latitude": "35.1787117732",
    "longitude": "129.1996400523",
    "image": "http://tong.visitkorea.or.kr/cms/resource/22/3495922_image2_1.jpg",
    "category": "해수욕장"
  },
  {
    "id": "127874",
    "title": "송지호 해수욕장",
    "address": "강원특별자치도 고성군 죽왕면 오호리",
    "phone": "",
    "latitude": "38.3307331455",
    "longitude": "128.5279598643",
    "image": "http://tong.visitkorea.or.kr/cms/resource/14/3516814_image2_1.jpg",
    "category": "해수욕장"
  },
  {
    "id": "127867",
    "title": "수륙해수욕장",
    "address": "경상남도 통영시 산양읍 영운리",
    "phone": "",
    "latitude": "34.8197380922",
    "longitude": "128.4398241478",
    "image": "http://tong.visitkorea.or.kr/cms/resource/55/3558155_image2_1.jpg",
    "category": "해수욕장"
  },
  {
    "id": "2752501",
    "title": "신덕해수욕장",
    "address": "전라남도 여수시 신덕2길 16-9",
    "phone": "",
    "latitude": "34.8189735425",
    "longitude": "127.7668829067",
    "image": "http://tong.visitkorea.or.kr/cms/resource/52/3523452_image2_1.jpg",
    "category": "해수욕장"
  },
  {
    "id": "128908",
    "title": "신두리해수욕장",
    "address": "충청남도 태안군 원북면 신두해변길 199",
    "phone": "",
    "latitude": "36.8398246669",
    "longitude": "126.1897459586",
    "image": "http://tong.visitkorea.or.kr/cms/resource/86/3493386_image2_1.jpg",
    "category": "해수욕장"
  },
  {
    "id": "126447",
    "title": "신양섭지해수욕장",
    "address": "제주특별자치도 서귀포시 성산읍 섭지코지로 107",
    "phone": "",
    "latitude": "33.4302500880",
    "longitude": "126.9280674087",
    "image": "http://tong.visitkorea.or.kr/cms/resource/02/3024202_image2_1.jpg",
    "category": "해수욕장"
  },
  {
    "id": "147317",
    "title": "신지명사십리해수욕장",
    "address": "전라남도 완도군 신지면",
    "phone": "",
    "latitude": "34.3271484387",
    "longitude": "126.8059708719",
    "image": "http://tong.visitkorea.or.kr/cms/resource/54/3502454_image2_1.jpg",
    "category": "해수욕장"
  },
  {
    "id": "2736409",
    "title": "신창 간이 해수욕장",
    "address": "경상북도 포항시 남구 장기면 신창리",
    "phone": "",
    "latitude": "35.8923430278",
    "longitude": "129.5130425914",
    "image": "http://tong.visitkorea.or.kr/cms/resource/88/3529888_image2_1.jpg",
    "category": "해수욕장"
  },
  {
    "id": "129542",
    "title": "신흥해수욕장",
    "address": "전라남도 완도군 청산면 신흥리",
    "phone": "",
    "latitude": "34.1836828016",
    "longitude": "126.9076598501",
    "image": "http://tong.visitkorea.or.kr/cms/resource/15/214515_image2_1.jpg",
    "category": "해수욕장"
  },
  {
    "id": "129253",
    "title": "실미해수욕장",
    "address": "인천광역시 중구 큰무리로 99",
    "phone": "",
    "latitude": "37.4025436985",
    "longitude": "126.4038613398",
    "image": "http://tong.visitkorea.or.kr/cms/resource/48/3047048_image2_1.jpg",
    "category": "해수욕장"
  },
  {
    "id": "126280",
    "title": "안도해수욕장",
    "address": "전라남도 여수시 남면 안도해수욕장길 105",
    "phone": "",
    "latitude": "34.4905110672",
    "longitude": "127.8125372529",
    "image": "http://tong.visitkorea.or.kr/cms/resource/54/3548954_image2_1.JPG",
    "category": "해수욕장"
  },
  {
    "id": "128905",
    "title": "안면해수욕장",
    "address": "충청남도 태안군 안면읍 해안관광로 554-4",
    "phone": "",
    "latitude": "36.5495272033",
    "longitude": "126.3299770005",
    "image": "http://tong.visitkorea.or.kr/cms/resource/17/3493617_image2_1.jpg",
    "category": "해수욕장"
  },
  {
    "id": "129232",
    "title": "안악해수욕장",
    "address": "전라남도 함평군 손불면 안악길 132",
    "phone": "",
    "latitude": "35.1393113718",
    "longitude": "126.3908655801",
    "image": "http://tong.visitkorea.or.kr/cms/resource/70/3061170_image2_1.jpg",
    "category": "해수욕장"
  },
  {
    "id": "2740135",
    "title": "알작지",
    "address": "제주특별자치도 제주시 테우해안로 60",
    "phone": "",
    "latitude": "33.4962044339",
    "longitude": "126.4412414879",
    "image": "http://tong.visitkorea.or.kr/cms/resource/54/3555454_image2_1.jpg",
    "category": "해수욕장"
  },
  {
    "id": "2388953",
    "title": "애견전용해수욕장 멍비치",
    "address": "강원특별자치도 양양군 현남면 광진리",
    "phone": "",
    "latitude": "37.9533540227",
    "longitude": "128.7728272095",
    "image": "http://tong.visitkorea.or.kr/cms/resource/79/2603579_image2_1.jpg",
    "category": "해수욕장"
  },
  {
    "id": "128894",
    "title": "어은돌해수욕장",
    "address": "충청남도 태안군 소원면 모항리",
    "phone": "",
    "latitude": "36.7528475763",
    "longitude": "126.1294092752",
    "image": "http://tong.visitkorea.or.kr/cms/resource/73/3340773_image2_1.jpg",
    "category": "해수욕장"
  },
  {
    "id": "126579",
    "title": "여차몽돌해수욕장",
    "address": "경상남도 거제시 여차길 22",
    "phone": "",
    "latitude": "34.7141671199",
    "longitude": "128.6269162116",
    "image": "http://tong.visitkorea.or.kr/cms/resource/79/3519179_image2_1.jpg",
    "category": "해수욕장"
  },
  {
    "id": "2022592",
    "title": "연대도 해수욕장",
    "address": "경상남도 통영시 산양읍",
    "phone": "",
    "latitude": "34.7339413464",
    "longitude": "128.3962218561",
    "image": "http://tong.visitkorea.or.kr/cms/resource/88/3570588_image2_1.jpg",
    "category": "해수욕장"
  },
  {
    "id": "2723813",
    "title": "연소해수욕장",
    "address": "전라남도 고흥군 금산면 연소양지길 70",
    "phone": "",
    "latitude": "34.4476762381",
    "longitude": "127.1167129711",
    "image": "http://tong.visitkorea.or.kr/cms/resource/39/3522039_image2_1.jpg",
    "category": "해수욕장"
  },
  {
    "id": "127591",
    "title": "연포해수욕장",
    "address": "충청남도 태안군 근흥면 도황리",
    "phone": "",
    "latitude": "36.6942473832",
    "longitude": "126.2105090159",
    "image": "http://tong.visitkorea.or.kr/cms/resource/98/3344198_image2_1.jpg",
    "category": "해수욕장"
  },
  {
    "id": "1623658",
    "title": "염포해수욕장",
    "address": "전라남도 고흥군 봉래면 외초리",
    "phone": "",
    "latitude": "34.4318176967",
    "longitude": "127.4930388032",
    "image": "http://tong.visitkorea.or.kr/cms/resource/31/3521931_image2_1.jpg",
    "category": "해수욕장"
  },
  {
    "id": "2756138",
    "title": "영리해수욕장",
    "address": "경상북도 영덕군 병곡면 고래불로 330",
    "phone": "",
    "latitude": "36.5930255011",
    "longitude": "129.4091145127",
    "image": "http://tong.visitkorea.or.kr/cms/resource/24/3401824_image2_1.jpg",
    "category": "해수욕장"
  },
  {
    "id": "127698",
    "title": "영일대해수욕장",
    "address": "경상북도 포항시 북구 두호동",
    "phone": "",
    "latitude": "36.0550442873",
    "longitude": "129.3779302810",
    "image": "http://tong.visitkorea.or.kr/cms/resource/46/3584546_image2_1.jpg",
    "category": "해수욕장"
  },
  {
    "id": "126309",
    "title": "예송해수욕장",
    "address": "전라남도 완도군 보길면 예송리",
    "phone": "",
    "latitude": "34.1404264316",
    "longitude": "126.5628854753",
    "image": "",
    "category": "해수욕장"
  },
  {
    "id": "2732554",
    "title": "오도1리해수욕장",
    "address": "경상북도 포항시 북구 흥해읍 오도리314-1",
    "phone": "",
    "latitude": "36.1550166976",
    "longitude": "129.3984255773",
    "image": "http://tong.visitkorea.or.kr/cms/resource/18/3528318_image2_1.jpg",
    "category": "해수욕장"
  },
  {
    "id": "127161",
    "title": "오보 해수욕장",
    "address": "경상북도 영덕군 영덕읍 영덕대게로 1213",
    "phone": "",
    "latitude": "36.4410876537",
    "longitude": "129.4311837414",
    "image": "",
    "category": "해수욕장"
  },
  {
    "id": "2750440",
    "title": "오봉산해수욕장",
    "address": "충청남도 보령시 오천면 원산도리",
    "phone": "",
    "latitude": "36.3680464750",
    "longitude": "126.3996115658",
    "image": "",
    "category": "해수욕장"
  },
  {
    "id": "3077071",
    "title": "오시아노해수욕장",
    "address": "전라남도 해남군 화원면 시아로 552",
    "phone": "",
    "latitude": "34.6681957085",
    "longitude": "126.2600412997",
    "image": "http://tong.visitkorea.or.kr/cms/resource/40/3583040_image2_1.jpg",
    "category": "해수욕장"
  },
  {
    "id": "2723629",
    "title": "옥계해수욕장",
    "address": "경상남도 거제시 하청면 연구리 416",
    "phone": "",
    "latitude": "34.9782876787",
    "longitude": "128.6308866457",
    "image": "http://tong.visitkorea.or.kr/cms/resource/58/3372158_image2_1.JPG",
    "category": "해수욕장"
  },
  {
    "id": "129256",
    "title": "왕산해수욕장",
    "address": "인천광역시 중구 을왕동",
    "phone": "",
    "latitude": "37.4565312636",
    "longitude": "126.3693185709",
    "image": "",
    "category": "해수욕장"
  },
  {
    "id": "2022541",
    "title": "왜목마을 해수욕장",
    "address": "충청남도 당진시 석문면 왜목길 26",
    "phone": "",
    "latitude": "37.0444845717",
    "longitude": "126.5261405088",
    "image": "http://tong.visitkorea.or.kr/cms/resource/69/3047169_image2_1.JPG",
    "category": "해수욕장"
  },
  {
    "id": "2388283",
    "title": "외달도 해수욕장",
    "address": "전라남도 목포시 외달도길 47-17",
    "phone": "",
    "latitude": "34.7806419384",
    "longitude": "126.2941828235",
    "image": "",
    "category": "해수욕장"
  },
  {
    "id": "2723815",
    "title": "용동해수욕장",
    "address": "전라남도 고흥군 도덕면 용동리 590",
    "phone": "",
    "latitude": "34.6323538997",
    "longitude": "127.1829193027",
    "image": "http://tong.visitkorea.or.kr/cms/resource/64/3344864_image2_1.JPG",
    "category": "해수욕장"
  },
  {
    "id": "129641",
    "title": "용두해수욕장",
    "address": "충청남도 보령시 남포면 열린바다로 82-45",
    "phone": "",
    "latitude": "36.2602057335",
    "longitude": "126.5428681503",
    "image": "http://tong.visitkorea.or.kr/cms/resource/94/3513894_image2_1.jpg",
    "category": "해수욕장"
  },
  {
    "id": "2736413",
    "title": "용한 1리 해수욕장",
    "address": "경상북도 포항시 북구 흥해읍 영일만항로 33",
    "phone": "",
    "latitude": "36.1150383600",
    "longitude": "129.4229384772",
    "image": "http://tong.visitkorea.or.kr/cms/resource/28/3528228_image2_1.jpg",
    "category": "해수욕장"
  },
  {
    "id": "127764",
    "title": "우이도 돈목해수욕장",
    "address": "전라남도 신안군 도초면 돈목길 33-1",
    "phone": "",
    "latitude": "34.6072845019",
    "longitude": "125.8272143193",
    "image": "",
    "category": "해수욕장"
  },
  {
    "id": "126276",
    "title": "우전해수욕장",
    "address": "전라남도 신안군 증도면 지도증도로 1684",
    "phone": "",
    "latitude": "34.9710734516",
    "longitude": "126.1369505122",
    "image": "http://tong.visitkorea.or.kr/cms/resource/20/3558920_image2_1.jpg",
    "category": "해수욕장"
  },
  {
    "id": "2750957",
    "title": "원산도해수욕장",
    "address": "충청남도 보령시 오천면 원산도3길 44-64",
    "phone": "",
    "latitude": "36.3639334609",
    "longitude": "126.4232789853",
    "image": "",
    "category": "해수욕장"
  },
  {
    "id": "2758242",
    "title": "원안해수욕장",
    "address": "충청남도 태안군 근흥면 용도로 410-110",
    "phone": "",
    "latitude": "36.7033884424",
    "longitude": "126.2367869517",
    "image": "",
    "category": "해수욕장"
  },
  {
    "id": "127728",
    "title": "원평해수욕장",
    "address": "강원특별자치도 삼척시 근덕면 원평길 38-20",
    "phone": "",
    "latitude": "37.3204257175",
    "longitude": "129.2709520093",
    "image": "http://tong.visitkorea.or.kr/cms/resource/85/3070685_image2_1.jpg",
    "category": "해수욕장"
  },
  {
    "id": "2723745",
    "title": "원평해수욕장",
    "address": "전라남도 신안군 비금면 원평해수욕장길 64",
    "phone": "",
    "latitude": "34.7754919212",
    "longitude": "125.9133722013",
    "image": "http://tong.visitkorea.or.kr/cms/resource/79/3070679_image2_1.jpg",
    "category": "해수욕장"
  },
  {
    "id": "2714805",
    "title": "월천해수욕장",
    "address": "강원특별자치도 삼척시 원덕읍 월천리 178-1",
    "phone": "",
    "latitude": "37.1612261605",
    "longitude": "129.3533495391",
    "image": "http://tong.visitkorea.or.kr/cms/resource/45/3387145_image2_1.JPG",
    "category": "해수욕장"
  },
  {
    "id": "126090",
    "title": "월포해수욕장",
    "address": "경상북도 포항시 북구 청하면 해안로2308번길",
    "phone": "",
    "latitude": "36.2023274798",
    "longitude": "129.3710516047",
    "image": "http://tong.visitkorea.or.kr/cms/resource/30/3528330_image2_1.jpg",
    "category": "해수욕장"
  },
  {
    "id": "264528",
    "title": "위도해수욕장",
    "address": "전북특별자치도 부안군 위도면 진리",
    "phone": "",
    "latitude": "35.6042707270",
    "longitude": "126.2835969764",
    "image": "http://tong.visitkorea.or.kr/cms/resource/03/2720903_image2_1.jpg",
    "category": "해수욕장"
  },
  {
    "id": "2782847",
    "title": "유동해수욕장",
    "address": "경상남도 통영시 욕지면 욕지일주로 1148-101",
    "phone": "",
    "latitude": "34.6232426742",
    "longitude": "128.2439879726",
    "image": "http://tong.visitkorea.or.kr/cms/resource/14/3580414_image2_1.jpg",
    "category": "해수욕장"
  },
  {
    "id": "128767",
    "title": "을왕리해수욕장",
    "address": "인천광역시 중구 용유서로302번길 16-15 (을왕동)",
    "phone": "",
    "latitude": "37.4468686389",
    "longitude": "126.3773708783",
    "image": "http://tong.visitkorea.or.kr/cms/resource/78/3518478_image2_1.jpg",
    "category": "해수욕장"
  },
  {
    "id": "2753660",
    "title": "음포해수욕장",
    "address": "충청남도 태안군 이원면 사창리",
    "phone": "",
    "latitude": "36.9073490673",
    "longitude": "126.2862104144",
    "image": "http://tong.visitkorea.or.kr/cms/resource/19/3343519_image2_1.jpg",
    "category": "해수욕장"
  },
  {
    "id": "127884",
    "title": "익금해수욕장",
    "address": "전라남도 고흥군 금산면 익금해변길 32",
    "phone": "",
    "latitude": "34.4303286750",
    "longitude": "127.1464302382",
    "image": "http://tong.visitkorea.or.kr/cms/resource/74/3521974_image2_1.jpg",
    "category": "해수욕장"
  },
  {
    "id": "2704932",
    "title": "인구해수욕장",
    "address": "강원특별자치도 양양군 현남면 인구항길 12",
    "phone": "",
    "latitude": "37.9703129545",
    "longitude": "128.7619443329",
    "image": "http://tong.visitkorea.or.kr/cms/resource/42/3518042_image2_1.jpg",
    "category": "해수욕장"
  },
  {
    "id": "126098",
    "title": "일광해수욕장",
    "address": "부산광역시 기장군 일광읍 삼성리",
    "phone": "",
    "latitude": "35.2598394371",
    "longitude": "129.2340292654",
    "image": "http://tong.visitkorea.or.kr/cms/resource/94/3495494_image2_1.jpg",
    "category": "해수욕장"
  },
  {
    "id": "126091",
    "title": "일산해수욕장(울산)",
    "address": "울산광역시 동구 해수욕장10길 18",
    "phone": "",
    "latitude": "35.4949278551",
    "longitude": "129.4302000587",
    "image": "http://tong.visitkorea.or.kr/cms/resource/44/3528444_image2_1.jpg",
    "category": "해수욕장"
  },
  {
    "id": "1939570",
    "title": "임랑해수욕장",
    "address": "부산광역시 기장군 장안읍 임랑리",
    "phone": "",
    "latitude": "35.3160142193",
    "longitude": "129.2620863763",
    "image": "http://tong.visitkorea.or.kr/cms/resource/79/3495479_image2_1.jpg",
    "category": "해수욕장"
  },
  {
    "id": "125719",
    "title": "작은후진해수욕장",
    "address": "강원특별자치도 삼척시 새천년도로 467",
    "phone": "",
    "latitude": "37.4638879088",
    "longitude": "129.1758977619",
    "image": "http://tong.visitkorea.or.kr/cms/resource/26/2716526_image2_1.jpg",
    "category": "해수욕장"
  },
  {
    "id": "2710829",
    "title": "잔교리해수욕장",
    "address": "강원특별자치도 양양군 현북면 잔교리",
    "phone": "",
    "latitude": "37.9933960100",
    "longitude": "128.7425870330",
    "image": "http://tong.visitkorea.or.kr/cms/resource/66/3518266_image2_1.jpg",
    "category": "해수욕장"
  },
  {
    "id": "128997",
    "title": "장경리해수욕장",
    "address": "인천광역시 옹진군 영흥면 영흥로 723",
    "phone": "",
    "latitude": "37.2725902198",
    "longitude": "126.4540158726",
    "image": "http://tong.visitkorea.or.kr/cms/resource/73/3517473_image2_1.jpg",
    "category": "해수욕장"
  },
  {
    "id": "128899",
    "title": "장돌해수욕장",
    "address": "충청남도 태안군 고남면 장곡리",
    "phone": "",
    "latitude": "36.4161681438",
    "longitude": "126.3654661682",
    "image": "http://tong.visitkorea.or.kr/cms/resource/89/3343589_image2_1.jpg",
    "category": "해수욕장"
  },
  {
    "id": "129251",
    "title": "장봉도 한들해수욕장",
    "address": "인천광역시 옹진군 북도면 장봉로465번길 70",
    "phone": "",
    "latitude": "37.5288391243",
    "longitude": "126.3468408637",
    "image": "http://tong.visitkorea.or.kr/cms/resource/89/3308689_image2_1.jpg",
    "category": "해수욕장"
  },
  {
    "id": "126097",
    "title": "장사해수욕장",
    "address": "경상북도 영덕군 남정면 장사리",
    "phone": "",
    "latitude": "36.2820463146",
    "longitude": "129.3760293925",
    "image": "http://tong.visitkorea.or.kr/cms/resource/39/3515939_image2_1.jpg",
    "category": "해수욕장"
  },
  {
    "id": "128922",
    "title": "장삼포해수욕장",
    "address": "충청남도 태안군 고남면 장곡리",
    "phone": "",
    "latitude": "36.4226478622",
    "longitude": "126.3600109353",
    "image": "http://tong.visitkorea.or.kr/cms/resource/69/3340569_image2_1.jpg",
    "category": "해수욕장"
  },
  {
    "id": "129638",
    "title": "장안해수욕장",
    "address": "충청남도 보령시 웅천읍",
    "phone": "",
    "latitude": "36.2002320072",
    "longitude": "126.5404199298",
    "image": "http://tong.visitkorea.or.kr/cms/resource/11/3048111_image2_1.jpg",
    "category": "해수욕장"
  },
  {
    "id": "2702823",
    "title": "정암해수욕장",
    "address": "강원특별자치도 양양군 강현면 정암리",
    "phone": "",
    "latitude": "38.1390571755",
    "longitude": "128.6158245382",
    "image": "http://tong.visitkorea.or.kr/cms/resource/18/2745218_image2_1.jpg",
    "category": "해수욕장"
  },
  {
    "id": "1932056",
    "title": "제부도해수욕장",
    "address": "경기도 화성시 서신면 해안길 260",
    "phone": "",
    "latitude": "37.1644195149",
    "longitude": "126.6181483350",
    "image": "http://tong.visitkorea.or.kr/cms/resource/08/3500708_image2_1.JPG",
    "category": "해수욕장"
  },
  {
    "id": "2789378",
    "title": "제주신흥해수욕장",
    "address": "제주특별자치도 제주시 조천읍 조함해안로 273-35",
    "phone": "",
    "latitude": "33.5519793450",
    "longitude": "126.6485444197",
    "image": "http://tong.visitkorea.or.kr/cms/resource/57/2800157_image2_1.jpg",
    "category": "해수욕장"
  },
  {
    "id": "3038062",
    "title": "제주이호랜드",
    "address": "제주특별자치도 제주시 이호일동",
    "phone": "",
    "latitude": "33.5025067338",
    "longitude": "126.4550484782",
    "image": "http://tong.visitkorea.or.kr/cms/resource/35/3038035_image2_1.jpg",
    "category": "해수욕장"
  },
  {
    "id": "2778169",
    "title": "조금나루해수욕장",
    "address": "전라남도 무안군 망운면 송현리",
    "phone": "",
    "latitude": "34.9948434445",
    "longitude": "126.3348740627",
    "image": "http://tong.visitkorea.or.kr/cms/resource/05/3535705_image2_1.jpg",
    "category": "해수욕장"
  },
  {
    "id": "2756533",
    "title": "조사리간이해수욕장",
    "address": "경상북도 포항시 북구 송라면 조사리 348-1",
    "phone": "",
    "latitude": "36.2273415020",
    "longitude": "129.3809750017",
    "image": "http://tong.visitkorea.or.kr/cms/resource/68/3522668_image2_1.jpg",
    "category": "해수욕장"
  },
  {
    "id": "125720",
    "title": "죽도해수욕장",
    "address": "강원특별자치도 양양군 현남면 인구중앙길",
    "phone": "",
    "latitude": "37.9723515608",
    "longitude": "128.7595861490",
    "image": "http://tong.visitkorea.or.kr/cms/resource/07/2738607_image2_1.jpg",
    "category": "해수욕장"
  },
  {
    "id": "126082",
    "title": "죽림해수욕장",
    "address": "경상남도 거제시 거제면 오수리",
    "phone": "",
    "latitude": "34.8383330868",
    "longitude": "128.5865025594",
    "image": "http://tong.visitkorea.or.kr/cms/resource/47/3039847_image2_1.JPG",
    "category": "해수욕장"
  },
  {
    "id": "2912974",
    "title": "죽천해수욕장",
    "address": "경상북도 포항시 북구 흥해읍 죽천길 43",
    "phone": "",
    "latitude": "36.0863664875",
    "longitude": "129.4168315136",
    "image": "http://tong.visitkorea.or.kr/cms/resource/52/2912952_image2_1.jpg",
    "category": "해수욕장"
  },
  {
    "id": "2710821",
    "title": "중광정해수욕장",
    "address": "강원특별자치도 양양군 현북면 하조대해안길 119",
    "phone": "",
    "latitude": "38.0278081942",
    "longitude": "128.7175465614",
    "image": "http://tong.visitkorea.or.kr/cms/resource/58/3389558_image2_1.JPG",
    "category": "해수욕장"
  },
  {
    "id": "126304",
    "title": "중리해수욕장",
    "address": "전라남도 완도군 보길면 중통리",
    "phone": "",
    "latitude": "34.1631160324",
    "longitude": "126.5916046493",
    "image": "http://tong.visitkorea.or.kr/cms/resource/66/3459666_image2_1.jpg",
    "category": "해수욕장"
  },
  {
    "id": "126433",
    "title": "진도 신비의 바닷길",
    "address": "전라남도 진도군 고군면 신비의바닷길 148",
    "phone": "",
    "latitude": "34.4272464720",
    "longitude": "126.3513750668",
    "image": "http://tong.visitkorea.or.kr/cms/resource/20/3569920_image2_1.JPG",
    "category": "해수욕장"
  },
  {
    "id": "129548",
    "title": "진산리해수욕장",
    "address": "전라남도 완도군 소안면 진산리",
    "phone": "",
    "latitude": "34.1309205697",
    "longitude": "126.6496642147",
    "image": "",
    "category": "해수욕장"
  },
  {
    "id": "126096",
    "title": "진하해수욕장",
    "address": "울산광역시 울주군 서생면 진하리",
    "phone": "",
    "latitude": "35.3827277372",
    "longitude": "129.3451995038",
    "image": "http://tong.visitkorea.or.kr/cms/resource/33/3060633_image2_1.jpg",
    "category": "해수욕장"
  },
  {
    "id": "2723802",
    "title": "짱뚱어해수욕장",
    "address": "전라남도 신안군 증도면 문준경길 459-2",
    "phone": "",
    "latitude": "34.9874189685",
    "longitude": "126.1456521258",
    "image": "http://tong.visitkorea.or.kr/cms/resource/57/3558857_image2_1.jpg",
    "category": "해수욕장"
  },
  {
    "id": "125847",
    "title": "천리포해수욕장",
    "address": "충청남도 태안군 소원면 천리포1길 277-6",
    "phone": "",
    "latitude": "36.8032865619",
    "longitude": "126.1509865497",
    "image": "http://tong.visitkorea.or.kr/cms/resource/37/3493737_image2_1.jpg",
    "category": "해수욕장"
  },
  {
    "id": "2755214",
    "title": "천하몽돌해수욕장",
    "address": "경상남도 남해군 미조면 송정리 1379",
    "phone": "",
    "latitude": "34.7243467683",
    "longitude": "128.0132526930",
    "image": "http://tong.visitkorea.or.kr/cms/resource/34/2755234_image2_1.jpg",
    "category": "해수욕장"
  },
  {
    "id": "125852",
    "title": "청포대해수욕장",
    "address": "충청남도 태안군 남면 청포대길 57-2",
    "phone": "",
    "latitude": "36.6387303525",
    "longitude": "126.3026354670",
    "image": "http://tong.visitkorea.or.kr/cms/resource/41/3055541_image2_1.jpg",
    "category": "해수욕장"
  },
  {
    "id": "127729",
    "title": "초곡해수욕장",
    "address": "강원특별자치도 삼척시 근덕면 초곡2길",
    "phone": "",
    "latitude": "37.3104438286",
    "longitude": "129.2861481811",
    "image": "http://tong.visitkorea.or.kr/cms/resource/08/1813608_image2_1.jpg",
    "category": "해수욕장"
  },
  {
    "id": "126742",
    "title": "춘장대해수욕장",
    "address": "충청남도 서천군 서면 춘장대길 20",
    "phone": "",
    "latitude": "36.1632331925",
    "longitude": "126.5243389992",
    "image": "http://tong.visitkorea.or.kr/cms/resource/89/3043689_image2_1.jpg",
    "category": "해수욕장"
  },
  {
    "id": "126092",
    "title": "칠포해수욕장",
    "address": "경상북도 포항시 북구 흥해읍 해안로",
    "phone": "",
    "latitude": "36.1319610157",
    "longitude": "129.4005538393",
    "image": "http://tong.visitkorea.or.kr/cms/resource/51/3528351_image2_1.jpg",
    "category": "해수욕장"
  },
  {
    "id": "126275",
    "title": "톱머리 해수욕장",
    "address": "전라남도 무안군 망운면 피서리",
    "phone": "",
    "latitude": "34.9681556483",
    "longitude": "126.3870256467",
    "image": "http://tong.visitkorea.or.kr/cms/resource/86/3535786_image2_1.jpg",
    "category": "해수욕장"
  },
  {
    "id": "3034356",
    "title": "통개 해수욕장",
    "address": "충청남도 태안군 소원면 통개항길 36-24",
    "phone": "",
    "latitude": "36.7263175155",
    "longitude": "126.1417894029",
    "image": "http://tong.visitkorea.or.kr/cms/resource/50/3034350_image2_1.jpg",
    "category": "해수욕장"
  },
  {
    "id": "129547",
    "title": "통리해수욕장",
    "address": "전라남도 완도군 보길면 중통리",
    "phone": "",
    "latitude": "34.1581052724",
    "longitude": "126.5788031102",
    "image": "http://tong.visitkorea.or.kr/cms/resource/56/214556_image2_1.jpg",
    "category": "해수욕장"
  },
  {
    "id": "127864",
    "title": "파도리해수욕장",
    "address": "충청남도 태안군 소원면 모항파도로 490-85",
    "phone": "",
    "latitude": "36.7410379259",
    "longitude": "126.1351535082",
    "image": "http://tong.visitkorea.or.kr/cms/resource/04/3055504_image2_1.JPG",
    "category": "해수욕장"
  },
  {
    "id": "128794",
    "title": "표선해수욕장",
    "address": "제주특별자치도 서귀포시 표선면 민속해안로 592",
    "phone": "",
    "latitude": "33.3256630271",
    "longitude": "126.8424244429",
    "image": "http://tong.visitkorea.or.kr/cms/resource/01/3034601_image2_1.jpg",
    "category": "해수욕장"
  },
  {
    "id": "126279",
    "title": "풍류해수욕장",
    "address": "전라남도 고흥군 두원면 풍류리",
    "phone": "",
    "latitude": "34.6639566972",
    "longitude": "127.2293172305",
    "image": "http://tong.visitkorea.or.kr/cms/resource/63/3521963_image2_1.jpg",
    "category": "해수욕장"
  },
  {
    "id": "129254",
    "title": "하나개해수욕장",
    "address": "인천광역시 중구 하나개로 150 (무의동)",
    "phone": "",
    "latitude": "37.3844625784",
    "longitude": "126.4102556957",
    "image": "http://tong.visitkorea.or.kr/cms/resource/54/3498254_image2_1.jpg",
    "category": "해수욕장"
  },
  {
    "id": "127160",
    "title": "하저해수욕장 (하저리 해수욕장)",
    "address": "경상북도 영덕군 강구면 하저리",
    "phone": "",
    "latitude": "36.3898346941",
    "longitude": "129.4079234165",
    "image": "",
    "category": "해수욕장"
  },
  {
    "id": "125701",
    "title": "하조대해수욕장",
    "address": "강원특별자치도 양양군 현북면 하조대해안길 35",
    "phone": "",
    "latitude": "38.0229894402",
    "longitude": "128.7242655472",
    "image": "http://tong.visitkorea.or.kr/cms/resource/73/2745273_image2_1.jpg",
    "category": "해수욕장"
  },
  {
    "id": "127917",
    "title": "학암포해수욕장",
    "address": "충청남도 태안군 원북면 옥파로 1163-27",
    "phone": "",
    "latitude": "36.8988458682",
    "longitude": "126.2041236489",
    "image": "http://tong.visitkorea.or.kr/cms/resource/45/3340745_image2_1.jpg",
    "category": "해수욕장"
  },
  {
    "id": "126081",
    "title": "해운대해수욕장",
    "address": "부산광역시 해운대구 해운대해변로 264",
    "phone": "",
    "latitude": "35.1591243474",
    "longitude": "129.1603078991",
    "image": "http://tong.visitkorea.or.kr/cms/resource/34/3090534_image2_1.JPG",
    "category": "해수욕장"
  },
  {
    "id": "127490",
    "title": "협재해수욕장",
    "address": "제주특별자치도 제주시 한림읍 한림로 329-10",
    "phone": "",
    "latitude": "33.3937764770",
    "longitude": "126.2394418960",
    "image": "http://tong.visitkorea.or.kr/cms/resource/66/3096066_image2_1.jpg",
    "category": "해수욕장"
  },
  {
    "id": "126683",
    "title": "호도해수욕장",
    "address": "충청남도 보령시 오천면 녹도리",
    "phone": "",
    "latitude": "36.2949470632",
    "longitude": "126.2670087367",
    "image": "http://tong.visitkorea.or.kr/cms/resource/56/217356_image2_1.jpg",
    "category": "해수욕장"
  },
  {
    "id": "126443",
    "title": "화순금모래해수욕장",
    "address": "제주특별자치도 서귀포시 안덕면 화순해안로",
    "phone": "",
    "latitude": "33.2407004292",
    "longitude": "126.3335149080",
    "image": "http://tong.visitkorea.or.kr/cms/resource/52/3023852_image2_1.jpg",
    "category": "해수욕장"
  },
  {
    "id": "2724982",
    "title": "화진포해수욕장",
    "address": "강원특별자치도 고성군 현내면 화진포길 386",
    "phone": "",
    "latitude": "38.4822636746",
    "longitude": "128.4361968025",
    "image": "http://tong.visitkorea.or.kr/cms/resource/08/3558708_image2_1.JPG",
    "category": "해수욕장"
  },
  {
    "id": "126094",
    "title": "화진해수욕장",
    "address": "경상북도 포항시 북구 송라면 동해대로3218번길 34-4",
    "phone": "",
    "latitude": "36.2510303377",
    "longitude": "129.3733888652",
    "image": "",
    "category": "해수욕장"
  },
  {
    "id": "2723774",
    "title": "황성금리해수욕장",
    "address": "전라남도 신안군 신의면 하태서리 산151-1",
    "phone": "",
    "latitude": "34.5345491127",
    "longitude": "126.0559791321",
    "image": "",
    "category": "해수욕장"
  },
  {
    "id": "126589",
    "title": "황포해수욕장",
    "address": "경상남도 거제시 장목면 황포1길",
    "phone": "",
    "latitude": "35.0201087783",
    "longitude": "128.6740567675",
    "image": "http://tong.visitkorea.or.kr/cms/resource/97/3519197_image2_1.jpg",
    "category": "해수욕장"
  },
  {
    "id": "126694",
    "title": "후정해수욕장",
    "address": "경상북도 울진군 죽변면 후정리",
    "phone": "",
    "latitude": "37.0703489083",
    "longitude": "129.4158300882",
    "image": "http://tong.visitkorea.or.kr/cms/resource/03/3576603_image2_1.jpg",
    "category": "해수욕장"
  },
  {
    "id": "129015",
    "title": "후포해수욕장",
    "address": "경상북도 울진군 후포면 삼율리",
    "phone": "",
    "latitude": "36.6750445745",
    "longitude": "129.4420091571",
    "image": "http://tong.visitkorea.or.kr/cms/resource/91/3038291_image2_1.JPG",
    "category": "해수욕장"
  },
  {
    "id": "126086",
    "title": "흥남해수욕장",
    "address": "경상남도 거제시 장목면 흥남길 46",
    "phone": "",
    "latitude": "34.9599940242",
    "longitude": "128.7149048188",
    "image": "http://tong.visitkorea.or.kr/cms/resource/94/3039994_image2_1.JPG",
    "category": "해수욕장"
  },
  {
    "id": "129183",
    "title": "흥환간이해수욕장",
    "address": "경상북도 포항시 남구 동해면 호미로",
    "phone": "",
    "latitude": "36.0237807355",
    "longitude": "129.5011453811",
    "image": "http://tong.visitkorea.or.kr/cms/resource/23/3528323_image2_1.jpg",
    "category": "해수욕장"
  }
]