[
  {
    "id": "1590094",
    "title": "대정저수지",
    "address": "전북특별자치도 임실군 오수면 대정리",
    "phone": "",
    "latitude": "35.5114242740",
    "longitude": "127.3430107054",
    "image": "http://tong.visitkorea.or.kr/cms/resource/39/3536339_image2_1.jpg",
    "category": "호수",
    "original_category": "산"
  },
  {
    "id": "129443",
    "title": "광주호 호수생태원",
    "address": "광주광역시 북구 충효동",
    "phone": "",
    "latitude": "35.1844387151",
    "longitude": "127.0012131923",
    "image": "http://tong.visitkorea.or.kr/cms/resource/05/3515105_image2_1.jpg",
    "category": "호수",
    "original_category": "자연생태관광지"
  },
  {
    "id": "2606116",
    "title": "군산호수 둘레길",
    "address": "전북특별자치도 군산시 옥산면 옥산신성길 50",
    "phone": "",
    "latitude": "35.9378210788",
    "longitude": "126.7464193853",
    "image": "http://tong.visitkorea.or.kr/cms/resource/18/3573318_image2_1.jpg",
    "category": "호수",
    "original_category": "자연생태관광지"
  },
  {
    "id": "2591809",
    "title": "궁동저수지 생태공원",
    "address": "서울특별시 구로구 궁동",
    "phone": "",
    "latitude": "37.5012175047",
    "longitude": "126.8293197915",
    "image": "http://tong.visitkorea.or.kr/cms/resource/02/3570402_image2_1.jpg",
    "category": "호수",
    "original_category": "자연생태관광지"
  },
  {
    "id": "2659551",
    "title": "느린호수길",
    "address": "충청남도 예산군 응봉면",
    "phone": "",
    "latitude": "36.6338200305",
    "longitude": "126.7990018882",
    "image": "http://tong.visitkorea.or.kr/cms/resource/76/3340276_image2_1.jpg",
    "category": "호수",
    "original_category": "자연생태관광지"
  },
  {
    "id": "2689327",
    "title": "밀양댐 생태공원",
    "address": "경상남도 밀양시 단장면 고례리",
    "phone": "",
    "latitude": "35.4856417993",
    "longitude": "128.9316271684",
    "image": "http://tong.visitkorea.or.kr/cms/resource/12/3519312_image2_1.jpg",
    "category": "호수",
    "original_category": "자연생태관광지"
  },
  {
    "id": "2633917",
    "title": "백운호수 생태탐방로",
    "address": "경기도 의왕시 학의동",
    "phone": "",
    "latitude": "37.3804707280",
    "longitude": "127.0028490522",
    "image": "http://tong.visitkorea.or.kr/cms/resource/66/3508466_image2_1.jpg",
    "category": "호수",
    "original_category": "자연생태관광지"
  },
  {
    "id": "3075271",
    "title": "부천호수식물원 수피아",
    "address": "경기도 부천시 조마루로 15 (상동)",
    "phone": "",
    "latitude": "37.5016770727",
    "longitude": "126.7454802012",
    "image": "http://tong.visitkorea.or.kr/cms/resource/24/3075224_image2_1.jpg",
    "category": "호수",
    "original_category": "자연생태관광지"
  },
  {
    "id": "2763831",
    "title": "성호호수연꽃단지",
    "address": "경기도 이천시 설성면 장천리",
    "phone": "",
    "latitude": "37.1394497035",
    "longitude": "127.5254196330",
    "image": "http://tong.visitkorea.or.kr/cms/resource/49/3541449_image2_1.jpg",
    "category": "호수",
    "original_category": "자연생태관광지"
  },
  {
    "id": "2762692",
    "title": "안산호수공원 무궁화동산",
    "address": "경기도 안산시 상록구 해안로 615",
    "phone": "",
    "latitude": "37.2974883099",
    "longitude": "126.8259063423",
    "image": "",
    "category": "호수",
    "original_category": "자연생태관광지"
  },
  {
    "id": "2652451",
    "title": "입곡 저수지 드라이브길",
    "address": "경상남도 함안군 산인면 입곡공원길 225",
    "phone": "",
    "latitude": "35.2648800029",
    "longitude": "128.4479060644",
    "image": "http://tong.visitkorea.or.kr/cms/resource/34/3070434_image2_1.JPG",
    "category": "호수",
    "original_category": "자연생태관광지"
  },
  {
    "id": "3447439",
    "title": "장자호수공원생태체험관",
    "address": "경기도 구리시 장자호수길 76-42 (교문동)",
    "phone": "",
    "latitude": "37.5831774183",
    "longitude": "127.1386031859",
    "image": "http://tong.visitkorea.or.kr/cms/resource/06/3447406_image2_1.jpg",
    "category": "호수",
    "original_category": "자연생태관광지"
  },
  {
    "id": "3081668",
    "title": "장흥댐 신풍갈대습지",
    "address": "전라남도 장흥군 유치면 신풍리",
    "phone": "",
    "latitude": "34.7999376978",
    "longitude": "126.8421145684",
    "image": "http://tong.visitkorea.or.kr/cms/resource/64/3081664_image2_1.jpg",
    "category": "호수",
    "original_category": "자연생태관광지"
  },
  {
    "id": "2616165",
    "title": "지리산호수공원",
    "address": "전라남도 구례군 산동면 산업로 1590-18",
    "phone": "",
    "latitude": "35.2807849923",
    "longitude": "127.4183794557",
    "image": "http://tong.visitkorea.or.kr/cms/resource/51/3346251_image2_1.JPG",
    "category": "호수",
    "original_category": "자연생태관광지"
  },
  {
    "id": "3075171",
    "title": "충주댐 벚꽃길",
    "address": "충청북도 충주시 동량면 조동리",
    "phone": "",
    "latitude": "37.0106508495",
    "longitude": "127.9904203334",
    "image": "http://tong.visitkorea.or.kr/cms/resource/59/3075159_image2_1.jpg",
    "category": "호수",
    "original_category": "자연생태관광지"
  },
  {
    "id": "2606206",
    "title": "회야댐 생태습지",
    "address": "울산광역시 울주군 웅촌면 통천리 산109-1번지",
    "phone": "",
    "latitude": "35.4683912467",
    "longitude": "129.2452780347",
    "image": "http://tong.visitkorea.or.kr/cms/resource/93/3549193_image2_1.jpg",
    "category": "호수",
    "original_category": "자연생태관광지"
  },
  {
    "id": "2784081",
    "title": "용댐계곡",
    "address": "경상남도 창원시 마산합포구 진전면 월안로 86",
    "phone": "",
    "latitude": "35.1096660894",
    "longitude": "128.4040140525",
    "image": "http://tong.visitkorea.or.kr/cms/resource/84/3584584_image2_1.jpg",
    "category": "호수",
    "original_category": "계곡"
  },
  {
    "id": "127975",
    "title": "경포호(철새도래지)",
    "address": "강원특별자치도 강릉시 경포로 365",
    "phone": "",
    "latitude": "37.7956108224",
    "longitude": "128.8965681570",
    "image": "",
    "category": "호수"
  },
  {
    "id": "128272",
    "title": "고삼호수",
    "address": "경기도 안성시 고삼면 봉산리",
    "phone": "",
    "latitude": "37.0820511430",
    "longitude": "128.0000201927",
    "image": "http://tong.visitkorea.or.kr/cms/resource/93/3558793_image2_1.jpg",
    "category": "호수"
  },
  {
    "id": "126329",
    "title": "광주호",
    "address": "광주광역시 북구 충효샘길 7 (충효동)",
    "phone": "",
    "latitude": "35.1840804198",
    "longitude": "127.0010882121",
    "image": "http://tong.visitkorea.or.kr/cms/resource/04/3368304_image2_1.jpg",
    "category": "호수"
  },
  {
    "id": "125869",
    "title": "괴산호",
    "address": "충청북도 괴산군 칠성면",
    "phone": "",
    "latitude": "36.7555274086",
    "longitude": "127.8404160535",
    "image": "http://tong.visitkorea.or.kr/cms/resource/37/3571237_image2_1.jpg",
    "category": "호수"
  },
  {
    "id": "128275",
    "title": "금광호수",
    "address": "경기도 안성시 금광면 오흥리",
    "phone": "",
    "latitude": "36.9943269081",
    "longitude": "127.3359797032",
    "image": "http://tong.visitkorea.or.kr/cms/resource/81/3521781_image2_1.jpg",
    "category": "호수"
  },
  {
    "id": "126327",
    "title": "나주호",
    "address": "전라남도 나주시 다도면 나주호로 558-314",
    "phone": "",
    "latitude": "34.9481381862",
    "longitude": "126.8720749405",
    "image": "http://tong.visitkorea.or.kr/cms/resource/86/3060686_image2_1.jpg",
    "category": "호수"
  },
  {
    "id": "126707",
    "title": "남양호(남양황라)",
    "address": "경기도 화성시 장안면",
    "phone": "",
    "latitude": "37.0154818785",
    "longitude": "126.8157344806",
    "image": "http://tong.visitkorea.or.kr/cms/resource/39/3031639_image2_1.JPG",
    "category": "호수"
  },
  {
    "id": "126323",
    "title": "담양호",
    "address": "전라남도 담양군 금성면 금성산성길 366",
    "phone": "",
    "latitude": "19.6944274800",
    "longitude": "117.9925662504",
    "image": "http://tong.visitkorea.or.kr/cms/resource/39/3562539_image2_1.jpg",
    "category": "호수"
  },
  {
    "id": "126847",
    "title": "당진 삽교호",
    "address": "충청남도 당진시 삽교천3길 100",
    "phone": "",
    "latitude": "36.8889410934",
    "longitude": "126.8248676612",
    "image": "http://tong.visitkorea.or.kr/cms/resource/76/3047076_image2_1.jpg",
    "category": "호수"
  },
  {
    "id": "126846",
    "title": "대청호",
    "address": "대전광역시 동구",
    "phone": "",
    "latitude": "36.4011148323",
    "longitude": "127.5101665667",
    "image": "http://tong.visitkorea.or.kr/cms/resource/66/3303866_image2_1.jpg",
    "category": "호수"
  },
  {
    "id": "2911885",
    "title": "대청호 마산동 쉼터",
    "address": "대전광역시 동구 마산동",
    "phone": "",
    "latitude": "36.3812776529",
    "longitude": "127.4787615831",
    "image": "http://tong.visitkorea.or.kr/cms/resource/72/2911872_image2_1.jpg",
    "category": "호수"
  },
  {
    "id": "3072039",
    "title": "도암호",
    "address": "강원특별자치도 평창군 대관령면 수하2길 364",
    "phone": "",
    "latitude": "19.6944274800",
    "longitude": "117.9925662504",
    "image": "http://tong.visitkorea.or.kr/cms/resource/42/3055142_image2_1.jpg",
    "category": "호수"
  },
  {
    "id": "2746554",
    "title": "동정호",
    "address": "경상남도 하동군 악양면 평사리 305-2",
    "phone": "",
    "latitude": "35.1461798361",
    "longitude": "127.6868342901",
    "image": "http://tong.visitkorea.or.kr/cms/resource/27/3530827_image2_1.jpg",
    "category": "호수"
  },
  {
    "id": "750804",
    "title": "마장호수",
    "address": "경기도 파주시 광탄면 기산리",
    "phone": "",
    "latitude": "37.7752540883",
    "longitude": "126.9301139480",
    "image": "http://tong.visitkorea.or.kr/cms/resource/76/3332576_image2_1.jpg",
    "category": "호수"
  },
  {
    "id": "2790492",
    "title": "밀양호",
    "address": "경상남도 밀양시 단장면 고례리 310",
    "phone": "",
    "latitude": "35.4757096336",
    "longitude": "128.9343410948",
    "image": "http://tong.visitkorea.or.kr/cms/resource/52/3519552_image2_1.jpg",
    "category": "호수"
  },
  {
    "id": "2703447",
    "title": "반월호수",
    "address": "경기도 군포시 둔대동",
    "phone": "",
    "latitude": "37.3236530546",
    "longitude": "126.8885138117",
    "image": "http://tong.visitkorea.or.kr/cms/resource/75/3523675_image2_1.jpg",
    "category": "호수"
  },
  {
    "id": "126705",
    "title": "백운호수",
    "address": "경기도 의왕시 백운로 526 (학의동)",
    "phone": "031-240-4810",
    "latitude": "37.3832509208",
    "longitude": "127.0006158435",
    "image": "http://tong.visitkorea.or.kr/cms/resource/06/3508506_image2_1.jpg",
    "category": "호수"
  },
  {
    "id": "129440",
    "title": "보령호",
    "address": "충청남도 보령시 미산면 용수리",
    "phone": "",
    "latitude": "36.2393462626",
    "longitude": "126.6613136112",
    "image": "http://tong.visitkorea.or.kr/cms/resource/93/3559993_image2_1.jpg",
    "category": "호수"
  },
  {
    "id": "2750851",
    "title": "세병호",
    "address": "전북특별자치도 전주시 덕진구 송천동2가 1316",
    "phone": "",
    "latitude": "35.8768679830",
    "longitude": "127.1307950117",
    "image": "",
    "category": "호수"
  },
  {
    "id": "127566",
    "title": "소양호(양구)",
    "address": "강원특별자치도 양구군 양구읍 석현리",
    "phone": "",
    "latitude": "38.0194458116",
    "longitude": "128.0221877116",
    "image": "http://tong.visitkorea.or.kr/cms/resource/17/3533717_image2_1.jpg",
    "category": "호수"
  },
  {
    "id": "125737",
    "title": "소양호(인제)",
    "address": "강원특별자치도 인제군 남면 신월리",
    "phone": "",
    "latitude": "38.0235684967",
    "longitude": "128.0719191733",
    "image": "http://tong.visitkorea.or.kr/cms/resource/32/3475232_image2_1.jpg",
    "category": "호수"
  },
  {
    "id": "125802",
    "title": "소양호(춘천)",
    "address": "강원특별자치도 춘천시 신북읍 유포리",
    "phone": "",
    "latitude": "37.9451423519",
    "longitude": "127.8218442932",
    "image": "http://tong.visitkorea.or.kr/cms/resource/96/3538796_image2_1.jpg",
    "category": "호수"
  },
  {
    "id": "128065",
    "title": "시화호",
    "address": "경기도 시흥시 정왕동",
    "phone": "",
    "latitude": "37.2983521465",
    "longitude": "126.6713120459",
    "image": "http://tong.visitkorea.or.kr/cms/resource/46/3529446_image2_1.jpg",
    "category": "호수"
  },
  {
    "id": "2750859",
    "title": "아중호수",
    "address": "전북특별자치도 전주시 덕진구 아중호수길 131 (우아동1가)",
    "phone": "",
    "latitude": "35.8231887388",
    "longitude": "127.1744453107",
    "image": "http://tong.visitkorea.or.kr/cms/resource/54/3442254_image2_1.jpg",
    "category": "호수"
  },
  {
    "id": "2785613",
    "title": "연지못",
    "address": "경상남도 창녕군 영산면 서리 139-3",
    "phone": "",
    "latitude": "35.4546684338",
    "longitude": "128.5281772356",
    "image": "http://tong.visitkorea.or.kr/cms/resource/57/3339557_image2_1.jpg",
    "category": "호수"
  },
  {
    "id": "126473",
    "title": "연화못(하가못)",
    "address": "제주특별자치도 제주시 애월읍 하가로",
    "phone": "",
    "latitude": "33.4547464297",
    "longitude": "126.3475200185",
    "image": "http://tong.visitkorea.or.kr/cms/resource/92/3396892_image2_1.jpg",
    "category": "호수"
  },
  {
    "id": "127565",
    "title": "영랑호",
    "address": "강원특별자치도 속초시 영랑호반길 140",
    "phone": "",
    "latitude": "38.2142227476",
    "longitude": "128.5807503766",
    "image": "http://tong.visitkorea.or.kr/cms/resource/13/3449813_image2_1.jpg",
    "category": "호수"
  },
  {
    "id": "126741",
    "title": "영암호(철새도래지)",
    "address": "전라남도 영암군 삼호읍 용앙리",
    "phone": "061-470-6071",
    "latitude": "34.7239234840",
    "longitude": "126.4738683183",
    "image": "http://tong.visitkorea.or.kr/cms/resource/23/3379523_image2_1.JPG",
    "category": "호수"
  },
  {
    "id": "126551",
    "title": "옥정호",
    "address": "전북특별자치도 임실군 운암면 마암리",
    "phone": "",
    "latitude": "35.6369064628",
    "longitude": "127.1360202454",
    "image": "http://tong.visitkorea.or.kr/cms/resource/41/3372641_image2_1.jpg",
    "category": "호수"
  },
  {
    "id": "1627890",
    "title": "용담호",
    "address": "전북특별자치도 진안군 용담면 월계리",
    "phone": "",
    "latitude": "35.9345428625",
    "longitude": "127.4987190821",
    "image": "http://tong.visitkorea.or.kr/cms/resource/86/2656786_image2_1.jpg",
    "category": "호수"
  },
  {
    "id": "2656383",
    "title": "용지호수공원",
    "address": "경상남도 창원시 의창구 용지로169번길 26",
    "phone": "",
    "latitude": "35.2321184685",
    "longitude": "128.6810476727",
    "image": "http://tong.visitkorea.or.kr/cms/resource/46/3533646_image2_1.jpg",
    "category": "호수"
  },
  {
    "id": "649968",
    "title": "우화정(내장산)",
    "address": "전북특별자치도 정읍시 내장산로 936",
    "phone": "",
    "latitude": "35.4864779890",
    "longitude": "126.9102191565",
    "image": "http://tong.visitkorea.or.kr/cms/resource/78/3028378_image2_1.jpg",
    "category": "호수"
  },
  {
    "id": "127804",
    "title": "제천 의림지와 제림",
    "address": "충청북도 제천시 의림지로 33",
    "phone": "",
    "latitude": "37.1741582990",
    "longitude": "128.2080988180",
    "image": "http://tong.visitkorea.or.kr/cms/resource/09/3309809_image2_1.JPG",
    "category": "호수"
  },
  {
    "id": "127489",
    "title": "주암호와 상사호",
    "address": "전라남도 순천시 상사면 상사호길 555",
    "phone": "",
    "latitude": "34.9494389246",
    "longitude": "127.4147937937",
    "image": "http://tong.visitkorea.or.kr/cms/resource/25/1607825_image2_1.jpg",
    "category": "호수"
  },
  {
    "id": "126137",
    "title": "진양호",
    "address": "경상남도 진주시 판문동",
    "phone": "",
    "latitude": "35.1848891098",
    "longitude": "127.9881012653",
    "image": "http://tong.visitkorea.or.kr/cms/resource/68/3524868_image2_1.jpg",
    "category": "호수"
  },
  {
    "id": "2612900",
    "title": "진양호 일주도로",
    "address": "경상남도 진주시 남강로1번길 126",
    "phone": "",
    "latitude": "35.1762325817",
    "longitude": "128.0350390417",
    "image": "http://tong.visitkorea.or.kr/cms/resource/48/3069948_image2_1.JPG",
    "category": "호수"
  },
  {
    "id": "127563",
    "title": "천장호",
    "address": "충청남도 청양군 정산면 천장호길 24-23",
    "phone": "",
    "latitude": "36.4151666378",
    "longitude": "126.9166054894",
    "image": "http://tong.visitkorea.or.kr/cms/resource/16/3565116_image2_1.jpg",
    "category": "호수"
  },
  {
    "id": "1916338",
    "title": "천호지·단대호수",
    "address": "충청남도 천안시 동남구 단대로 119",
    "phone": "",
    "latitude": "36.8342868435",
    "longitude": "127.1710351280",
    "image": "http://tong.visitkorea.or.kr/cms/resource/15/3523215_image2_1.jpg",
    "category": "호수"
  },
  {
    "id": "2751301",
    "title": "청룡지",
    "address": "경기도 안성시 서운면 청용리",
    "phone": "",
    "latitude": "36.9043501788",
    "longitude": "127.2809177304",
    "image": "http://tong.visitkorea.or.kr/cms/resource/24/3559224_image2_1.jpg",
    "category": "호수"
  },
  {
    "id": "125750",
    "title": "청초호",
    "address": "강원특별자치도 속초시 엑스포로 140 (교동)",
    "phone": "",
    "latitude": "38.1967636936",
    "longitude": "128.5820341391",
    "image": "http://tong.visitkorea.or.kr/cms/resource/28/3566128_image2_1.jpg",
    "category": "호수"
  },
  {
    "id": "125517",
    "title": "청평호반",
    "address": "경기도 가평군 설악면 유명로 1906-15",
    "phone": "",
    "latitude": "37.6813137501",
    "longitude": "127.4715728354",
    "image": "http://tong.visitkorea.or.kr/cms/resource/89/3019089_image2_1.jpg",
    "category": "호수"
  },
  {
    "id": "125747",
    "title": "춘천호",
    "address": "강원특별자치도 춘천시 사북면 원평리",
    "phone": "",
    "latitude": "37.9825571544",
    "longitude": "127.6580192160",
    "image": "http://tong.visitkorea.or.kr/cms/resource/81/3538781_image2_1.jpg",
    "category": "호수"
  },
  {
    "id": "3112056",
    "title": "충주체험관광센터",
    "address": "충청북도 충주시 중앙탑길 150",
    "phone": "043 845 0245",
    "latitude": "37.0215361310",
    "longitude": "127.8627259391",
    "image": "",
    "category": "호수"
  },
  {
    "id": "125872",
    "title": "충주호",
    "address": "충청북도 충주시 동량면 함암리",
    "phone": "",
    "latitude": "36.9581494710",
    "longitude": "128.0400201677",
    "image": "http://tong.visitkorea.or.kr/cms/resource/95/3560695_image2_1.JPG",
    "category": "호수"
  },
  {
    "id": "126605",
    "title": "파로호(양구)",
    "address": "강원특별자치도 양구군 양구읍 하리",
    "phone": "",
    "latitude": "38.1191557431",
    "longitude": "127.9864212803",
    "image": "http://tong.visitkorea.or.kr/cms/resource/97/3514797_image2_1.jpg",
    "category": "호수"
  },
  {
    "id": "125801",
    "title": "파로호(화천)",
    "address": "강원특별자치도 화천군 간동면 배터길 36-8",
    "phone": "",
    "latitude": "38.0993652277",
    "longitude": "127.7779270055",
    "image": "http://tong.visitkorea.or.kr/cms/resource/25/2711025_image2_1.jpg",
    "category": "호수"
  },
  {
    "id": "2568709",
    "title": "파서탕",
    "address": "강원특별자치도 양구군 방산면 오미리",
    "phone": "",
    "latitude": "38.1790972003",
    "longitude": "127.9043575019",
    "image": "http://tong.visitkorea.or.kr/cms/resource/93/3514793_image2_1.jpg",
    "category": "호수"
  },
  {
    "id": "866810",
    "title": "팔당호",
    "address": "경기도 광주시 퇴촌면 광동리",
    "phone": "",
    "latitude": "37.5084528395",
    "longitude": "127.2963159763",
    "image": "http://tong.visitkorea.or.kr/cms/resource/94/3527294_image2_1.jpg",
    "category": "호수"
  },
  {
    "id": "2747061",
    "title": "평택호",
    "address": "경기도 평택시 현덕면 평택호길 159",
    "phone": "",
    "latitude": "36.9214918290",
    "longitude": "126.9222413036",
    "image": "http://tong.visitkorea.or.kr/cms/resource/13/3533913_image2_1.jpg",
    "category": "호수"
  },
  {
    "id": "1622215",
    "title": "풍암호수",
    "address": "광주광역시 서구 풍암동",
    "phone": "",
    "latitude": "35.1276401393",
    "longitude": "126.8705150584",
    "image": "http://tong.visitkorea.or.kr/cms/resource/72/3367472_image2_1.jpg",
    "category": "호수"
  },
  {
    "id": "126118",
    "title": "합천호",
    "address": "경상남도 합천군 봉산면 송림리",
    "phone": "",
    "latitude": "35.5953408686",
    "longitude": "128.0347223786",
    "image": "http://tong.visitkorea.or.kr/cms/resource/29/3527629_image2_1.jpg",
    "category": "호수"
  },
  {
    "id": "3083171",
    "title": "호수유원지",
    "address": "경기도 가평군 북면 도대리",
    "phone": "",
    "latitude": "37.9267633539",
    "longitude": "127.4921776626",
    "image": "http://tong.visitkorea.or.kr/cms/resource/67/3083167_image2_1.jpg",
    "category": "호수"
  },
  {
    "id": "127809",
    "title": "횡성호",
    "address": "강원특별자치도 횡성군 갑천면 중금리",
    "phone": "",
    "latitude": "37.5489984968",
    "longitude": "128.0676671126",
    "image": "http://tong.visitkorea.or.kr/cms/resource/83/2604883_image2_1.jpg",
    "category": "호수"
  },
  {
    "id": "2043017",
    "title": "[충주 풍경길] 종댕이길",
    "address": "충청북도 충주시 종민동",
    "phone": "",
    "latitude": "36.9786407554",
    "longitude": "127.9965540359",
    "image": "http://tong.visitkorea.or.kr/cms/resource/53/3560653_image2_1.JPG",
    "category": "호수"
  },
  {
    "id": "2751315",
    "title": "갈치저수지",
    "address": "경기도 군포시 속달동",
    "phone": "",
    "latitude": "37.3338521962",
    "longitude": "126.9067146508",
    "image": "http://tong.visitkorea.or.kr/cms/resource/70/3523670_image2_1.jpg",
    "category": "호수",
    "original_category": "강"
  },
  {
    "id": "3425419",
    "title": "건등저수지",
    "address": "강원특별자치도 원주시 문막읍 건등리",
    "phone": "",
    "latitude": "37.3145518522",
    "longitude": "127.8363198797",
    "image": "http://tong.visitkorea.or.kr/cms/resource/66/3425666_image2_1.jpeg",
    "category": "호수",
    "original_category": "강"
  },
  {
    "id": "2784663",
    "title": "경천저수지",
    "address": "전북특별자치도 완주군 화산면 성북리",
    "phone": "",
    "latitude": "36.0381431707",
    "longitude": "127.2395171794",
    "image": "http://tong.visitkorea.or.kr/cms/resource/41/3360041_image2_1.JPG",
    "category": "호수",
    "original_category": "강"
  },
  {
    "id": "2654766",
    "title": "계룡 입암저수지",
    "address": "충청남도 계룡시 두마면 입암리",
    "phone": "",
    "latitude": "36.2417451867",
    "longitude": "127.2543159801",
    "image": "http://tong.visitkorea.or.kr/cms/resource/12/2675812_image2_1.jpg",
    "category": "호수",
    "original_category": "강"
  },
  {
    "id": "3045925",
    "title": "고남 저수지",
    "address": "충청남도 서산시 성연면 고남리",
    "phone": "",
    "latitude": "36.8212558476",
    "longitude": "126.4253306449",
    "image": "http://tong.visitkorea.or.kr/cms/resource/16/3045916_image2_1.jpg",
    "category": "호수",
    "original_category": "강"
  },
  {
    "id": "125521",
    "title": "고모저수지",
    "address": "경기도 포천시 소흘읍 죽엽산로 452",
    "phone": "",
    "latitude": "37.7990722068",
    "longitude": "127.1638252451",
    "image": "http://tong.visitkorea.or.kr/cms/resource/66/3519766_image2_1.jpg",
    "category": "호수",
    "original_category": "강"
  },
  {
    "id": "2771911",
    "title": "고북저수지",
    "address": "충청남도 서산시 고북면 신송리 817-1",
    "phone": "",
    "latitude": "36.6529689932",
    "longitude": "126.5458158891",
    "image": "http://tong.visitkorea.or.kr/cms/resource/59/3560159_image2_1.jpg",
    "category": "호수",
    "original_category": "강"
  },
  {
    "id": "2746949",
    "title": "고잔저수지",
    "address": "경기도 평택시 청북읍 고잔리",
    "phone": "",
    "latitude": "37.0677497116",
    "longitude": "126.9093134591",
    "image": "http://tong.visitkorea.or.kr/cms/resource/68/3529268_image2_1.jpg",
    "category": "호수",
    "original_category": "강"
  },
  {
    "id": "3035208",
    "title": "골정 저수지",
    "address": "충청남도 당진시 면천면 성상리",
    "phone": "",
    "latitude": "36.8185187632",
    "longitude": "126.6717750779",
    "image": "http://tong.visitkorea.or.kr/cms/resource/02/3035202_image2_1.jpg",
    "category": "호수",
    "original_category": "강"
  },
  {
    "id": "2771931",
    "title": "공리저수지",
    "address": "충청남도 홍성군 구항면 오봉리",
    "phone": "",
    "latitude": "36.5957487538",
    "longitude": "126.6010124254",
    "image": "",
    "category": "호수",
    "original_category": "강"
  },
  {
    "id": "2717010",
    "title": "교동저수지(교동생태습지)",
    "address": "충청북도 옥천군 옥천읍 교동리",
    "phone": "",
    "latitude": "36.3201448735",
    "longitude": "127.5850176477",
    "image": "http://tong.visitkorea.or.kr/cms/resource/29/3336629_image2_1.jpg",
    "category": "호수",
    "original_category": "강"
  },
  {
    "id": "2769743",
    "title": "구암저수지",
    "address": "충청북도 진천군 광혜원면 회죽리",
    "phone": "",
    "latitude": "36.9789803949",
    "longitude": "127.4313382006",
    "image": "http://tong.visitkorea.or.kr/cms/resource/40/3560240_image2_1.jpg",
    "category": "호수",
    "original_category": "강"
  },
  {
    "id": "1582934",
    "title": "금마저수지",
    "address": "전북특별자치도 익산시 금마면 고도9길 41-64",
    "phone": "",
    "latitude": "36.0018246830",
    "longitude": "127.0568399915",
    "image": "http://tong.visitkorea.or.kr/cms/resource/68/3360768_image2_1.JPG",
    "category": "호수",
    "original_category": "강"
  },
  {
    "id": "2769996",
    "title": "금석저수지",
    "address": "충청북도 음성군 금왕읍 육령리 461-1",
    "phone": "",
    "latitude": "36.9906878948",
    "longitude": "127.6130992751",
    "image": "http://tong.visitkorea.or.kr/cms/resource/73/3573573_image2_1.jpg",
    "category": "호수",
    "original_category": "강"
  },
  {
    "id": "2778450",
    "title": "금오산저수지",
    "address": "경상북도 구미시 남통동",
    "phone": "",
    "latitude": "36.1178450814",
    "longitude": "128.3170220306",
    "image": "http://tong.visitkorea.or.kr/cms/resource/19/3566219_image2_1.jpg",
    "category": "호수",
    "original_category": "강"
  },
  {
    "id": "1598378",
    "title": "금평저수지",
    "address": "전북특별자치도 김제시 금산면 청도리",
    "phone": "",
    "latitude": "35.7212920752",
    "longitude": "127.0186146058",
    "image": "http://tong.visitkorea.or.kr/cms/resource/33/3536233_image2_1.jpg",
    "category": "호수",
    "original_category": "강"
  },
  {
    "id": "2753914",
    "title": "기산저수지(공주)",
    "address": "충청남도 공주시 계룡면 기산리",
    "phone": "",
    "latitude": "36.3831463229",
    "longitude": "127.1333146806",
    "image": "http://tong.visitkorea.or.kr/cms/resource/41/3534741_image2_1.jpg",
    "category": "호수",
    "original_category": "강"
  },
  {
    "id": "3407913",
    "title": "기산저수지(양주)",
    "address": "경기도 양주시 백석읍 기산리",
    "phone": "031-8082-5662",
    "latitude": "37.7778542211",
    "longitude": "126.9543144390",
    "image": "http://tong.visitkorea.or.kr/cms/resource/55/3516055_image2_1.jpg",
    "category": "호수",
    "original_category": "강"
  },
  {
    "id": "2747160",
    "title": "난정저수지",
    "address": "인천광역시 강화군 교동면 난정리",
    "phone": "",
    "latitude": "37.7823547295",
    "longitude": "126.2291113288",
    "image": "http://tong.visitkorea.or.kr/cms/resource/90/3352290_image2_1.jpg",
    "category": "호수",
    "original_category": "강"
  },
  {
    "id": "2771918",
    "title": "냉정저수지",
    "address": "충청남도 아산시 인주면 서해로548번길 158",
    "phone": "",
    "latitude": "36.8662894993",
    "longitude": "126.9016280072",
    "image": "http://tong.visitkorea.or.kr/cms/resource/41/3567641_image2_1.jpg",
    "category": "호수",
    "original_category": "강"
  },
  {
    "id": "3018384",
    "title": "노동 저수지",
    "address": "전북특별자치도 고창군 고창읍 노동로 252",
    "phone": "",
    "latitude": "35.4201904120",
    "longitude": "126.7080776734",
    "image": "http://tong.visitkorea.or.kr/cms/resource/17/3033717_image2_1.jpg",
    "category": "호수",
    "original_category": "강"
  },
  {
    "id": "2611142",
    "title": "단산 저수지",
    "address": "대구광역시 동구 팔공로50길 66",
    "phone": "",
    "latitude": "35.9220012197",
    "longitude": "128.6502036208",
    "image": "http://tong.visitkorea.or.kr/cms/resource/37/3376037_image2_1.jpg",
    "category": "호수",
    "original_category": "강"
  },
  {
    "id": "2742528",
    "title": "달창저수지",
    "address": "대구광역시 달성군 유가읍 본말리",
    "phone": "",
    "latitude": "35.6375830812",
    "longitude": "128.4825179191",
    "image": "http://tong.visitkorea.or.kr/cms/resource/50/3570050_image2_1.JPG",
    "category": "호수",
    "original_category": "강"
  },
  {
    "id": "3357475",
    "title": "대골제(대골저수지)",
    "address": "광주광역시 남구 원산동",
    "phone": "",
    "latitude": "35.0822393155",
    "longitude": "126.8472126953",
    "image": "http://tong.visitkorea.or.kr/cms/resource/26/3357326_image2_1.jpg",
    "category": "호수",
    "original_category": "강"
  },
  {
    "id": "2762701",
    "title": "대성저수지",
    "address": "경상북도 김천시 아포읍 대성리",
    "phone": "",
    "latitude": "36.1309459456",
    "longitude": "128.2939237113",
    "image": "http://tong.visitkorea.or.kr/cms/resource/70/3566470_image2_1.jpg",
    "category": "호수",
    "original_category": "강"
  },
  {
    "id": "126319",
    "title": "대아저수지(대아호)",
    "address": "전북특별자치도 완주군 동상면 대아리",
    "phone": "",
    "latitude": "35.9730817321",
    "longitude": "127.2732436768",
    "image": "http://tong.visitkorea.or.kr/cms/resource/04/3061404_image2_1.jpg",
    "category": "호수",
    "original_category": "강"
  },
  {
    "id": "2760156",
    "title": "대왕저수지",
    "address": "경기도 성남시 수정구 상적동",
    "phone": "",
    "latitude": "37.4316523501",
    "longitude": "127.0836152686",
    "image": "http://tong.visitkorea.or.kr/cms/resource/62/3541762_image2_1.jpg",
    "category": "호수",
    "original_category": "강"
  },
  {
    "id": "2737285",
    "title": "덕산저수지",
    "address": "경기도 안성시 삼죽면 배태리",
    "phone": "",
    "latitude": "37.0774511647",
    "longitude": "127.3644164739",
    "image": "http://tong.visitkorea.or.kr/cms/resource/57/3558757_image2_1.jpg",
    "category": "호수",
    "original_category": "강"
  },
  {
    "id": "2726478",
    "title": "동부저수지",
    "address": "경상남도 거제시 동부면 구천리",
    "phone": "",
    "latitude": "34.8110673523",
    "longitude": "128.6234195139",
    "image": "http://tong.visitkorea.or.kr/cms/resource/55/3519355_image2_1.jpg",
    "category": "호수",
    "original_category": "강"
  },
  {
    "id": "561874",
    "title": "동송저수지",
    "address": "강원특별자치도 철원군 동송읍 강산리",
    "phone": "",
    "latitude": "38.3064316009",
    "longitude": "127.2714921831",
    "image": "http://tong.visitkorea.or.kr/cms/resource/55/2567155_image2_1.jpg",
    "category": "호수",
    "original_category": "강"
  },
  {
    "id": "2733833",
    "title": "두창저수지",
    "address": "경기도 용인시 처인구 원삼면 두창리",
    "phone": "",
    "latitude": "37.1473509424",
    "longitude": "127.3375169386",
    "image": "http://tong.visitkorea.or.kr/cms/resource/27/3559927_image2_1.jpg",
    "category": "호수",
    "original_category": "강"
  },
  {
    "id": "2783760",
    "title": "두현저수지",
    "address": "울산광역시 울주군 청량읍 문죽리 1186",
    "phone": "",
    "latitude": "35.5251905511",
    "longitude": "129.2523369377",
    "image": "http://tong.visitkorea.or.kr/cms/resource/69/3523069_image2_1.jpg",
    "category": "호수",
    "original_category": "강"
  },
  {
    "id": "131354",
    "title": "뒷방울저수지",
    "address": "경기도 시흥시 정왕동",
    "phone": "",
    "latitude": "37.3719532431",
    "longitude": "126.7451144025",
    "image": "http://tong.visitkorea.or.kr/cms/resource/46/3513246_image2_1.jpg",
    "category": "호수",
    "original_category": "강"
  },
  {
    "id": "2783732",
    "title": "마근저수지",
    "address": "울산광역시 울주군 서생면 화산리",
    "phone": "",
    "latitude": "35.3750411922",
    "longitude": "129.2760279634",
    "image": "http://tong.visitkorea.or.kr/cms/resource/56/3534656_image2_1.jpg",
    "category": "호수",
    "original_category": "강"
  },
  {
    "id": "2747175",
    "title": "마둔저수지",
    "address": "경기도 안성시 금광면 장죽리",
    "phone": "",
    "latitude": "36.9705486434",
    "longitude": "127.3109159620",
    "image": "http://tong.visitkorea.or.kr/cms/resource/62/3558762_image2_1.jpg",
    "category": "호수",
    "original_category": "강"
  },
  {
    "id": "2758517",
    "title": "마정저수지",
    "address": "충청남도 천안시 서북구 직산읍 마정리",
    "phone": "",
    "latitude": "36.8731727178",
    "longitude": "127.0971768299",
    "image": "http://tong.visitkorea.or.kr/cms/resource/10/3523210_image2_1.jpg",
    "category": "호수",
    "original_category": "강"
  },
  {
    "id": "3056930",
    "title": "모암저수지",
    "address": "전라남도 장성군 서삼면 모암리",
    "phone": "",
    "latitude": "35.3740075062",
    "longitude": "126.7524637833",
    "image": "http://tong.visitkorea.or.kr/cms/resource/06/3056906_image2_1.jpg",
    "category": "호수",
    "original_category": "강"
  },
  {
    "id": "2761644",
    "title": "모월저수지",
    "address": "충청남도 서산시 인지면 산동리",
    "phone": "",
    "latitude": "36.7129491924",
    "longitude": "126.4425125231",
    "image": "http://tong.visitkorea.or.kr/cms/resource/00/3338000_image2_1.jpg",
    "category": "호수",
    "original_category": "강"
  },
  {
    "id": "2684648",
    "title": "문광저수지",
    "address": "충청북도 괴산군 문광면 양곡리 16",
    "phone": "",
    "latitude": "36.7676243492",
    "longitude": "127.7487961482",
    "image": "http://tong.visitkorea.or.kr/cms/resource/31/3558531_image2_1.jpg",
    "category": "호수",
    "original_category": "강"
  },
  {
    "id": "2775636",
    "title": "문방저수지",
    "address": "충청남도 아산시 인주면 문방리",
    "phone": "",
    "latitude": "36.8537875000",
    "longitude": "126.8639150884",
    "image": "http://tong.visitkorea.or.kr/cms/resource/53/3531453_image2_1.jpg",
    "category": "호수",
    "original_category": "강"
  },
  {
    "id": "2662927",
    "title": "물왕호수",
    "address": "경기도 시흥시 물왕동",
    "phone": "",
    "latitude": "37.3828312648",
    "longitude": "126.8301258058",
    "image": "http://tong.visitkorea.or.kr/cms/resource/03/3040903_image2_1.JPG",
    "category": "호수",
    "original_category": "강"
  },
  {
    "id": "2747133",
    "title": "미산저수지",
    "address": "경기도 안성시 양성면 미산리",
    "phone": "",
    "latitude": "37.1314513260",
    "longitude": "127.2568163482",
    "image": "http://tong.visitkorea.or.kr/cms/resource/68/3558768_image2_1.jpg",
    "category": "호수",
    "original_category": "강"
  },
  {
    "id": "750812",
    "title": "발랑저수지",
    "address": "경기도 파주시 광탄면 발랑리",
    "phone": "",
    "latitude": "37.8071888175",
    "longitude": "126.9057597076",
    "image": "http://tong.visitkorea.or.kr/cms/resource/23/3541023_image2_1.jpg",
    "category": "호수",
    "original_category": "강"
  },
  {
    "id": "2766470",
    "title": "방동저수지",
    "address": "대전광역시 유성구 성북로 80-5 (방동)",
    "phone": "",
    "latitude": "36.2894184100",
    "longitude": "127.3051157117",
    "image": "http://tong.visitkorea.or.kr/cms/resource/77/3374777_image2_1.jpg",
    "category": "호수",
    "original_category": "강"
  },
  {
    "id": "127789",
    "title": "백곡저수지",
    "address": "충청북도 진천군 진천읍 백곡로 1504-48",
    "phone": "",
    "latitude": "36.8695620983",
    "longitude": "127.4123207495",
    "image": "http://tong.visitkorea.or.kr/cms/resource/74/3064574_image2_1.JPG",
    "category": "호수",
    "original_category": "강"
  },
  {
    "id": "1599383",
    "title": "백산저수지",
    "address": "전북특별자치도 김제시 백산면 하정로 163-73",
    "phone": "",
    "latitude": "35.8459840763",
    "longitude": "126.8939558126",
    "image": "http://tong.visitkorea.or.kr/cms/resource/41/3536241_image2_1.jpg",
    "category": "호수",
    "original_category": "강"
  },
  {
    "id": "2737282",
    "title": "보통저수지",
    "address": "경기도 화성시 정남면 보통리",
    "phone": "",
    "latitude": "37.1933502371",
    "longitude": "126.9748151577",
    "image": "http://tong.visitkorea.or.kr/cms/resource/24/3538724_image2_1.jpg",
    "category": "호수",
    "original_category": "강"
  },
  {
    "id": "2539574",
    "title": "봉선저수지",
    "address": "충청남도 서천군 시초면 봉선리 226",
    "phone": "",
    "latitude": "36.1192897603",
    "longitude": "126.7766258548",
    "image": "http://tong.visitkorea.or.kr/cms/resource/38/3560138_image2_1.jpg",
    "category": "호수",
    "original_category": "강"
  },
  {
    "id": "2754715",
    "title": "봉성저수지",
    "address": "경상남도 함안군 여항면 주서리",
    "phone": "",
    "latitude": "35.2065389706",
    "longitude": "128.4276232920",
    "image": "http://tong.visitkorea.or.kr/cms/resource/39/3538239_image2_1.jpg",
    "category": "호수",
    "original_category": "강"
  },
  {
    "id": "2757471",
    "title": "분지섬저수지",
    "address": "경기도 화성시 남양읍 문호리",
    "phone": "",
    "latitude": "37.2473518917",
    "longitude": "126.7941133982",
    "image": "http://tong.visitkorea.or.kr/cms/resource/52/3539852_image2_1.jpg",
    "category": "호수",
    "original_category": "강"
  },
  {
    "id": "3038456",
    "title": "불장골 저수지",
    "address": "충청남도 공주시 반포면 송곡리",
    "phone": "",
    "latitude": "36.3981358111",
    "longitude": "127.2647163914",
    "image": "http://tong.visitkorea.or.kr/cms/resource/50/3038450_image2_1.JPG",
    "category": "호수",
    "original_category": "강"
  },
  {
    "id": "3025007",
    "title": "비룡담 저수지",
    "address": "충청북도 제천시 모산동",
    "phone": "",
    "latitude": "37.1874511116",
    "longitude": "128.2027239128",
    "image": "http://tong.visitkorea.or.kr/cms/resource/84/3024984_image2_1.JPG",
    "category": "호수",
    "original_category": "강"
  },
  {
    "id": "2770010",
    "title": "사정저수지",
    "address": "충청북도 음성군 음성읍 사정리 1223-29",
    "phone": "",
    "latitude": "36.9778949243",
    "longitude": "127.6131190792",
    "image": "http://tong.visitkorea.or.kr/cms/resource/81/3576381_image2_1.jpg",
    "category": "호수",
    "original_category": "강"
  },
  {
    "id": "129662",
    "title": "삼가저수지",
    "address": "충청북도 보은군 속리산면 삼가리",
    "phone": "",
    "latitude": "36.4921466435",
    "longitude": "127.8496198344",
    "image": "http://tong.visitkorea.or.kr/cms/resource/93/3339693_image2_1.JPG",
    "category": "호수",
    "original_category": "강"
  },
  {
    "id": "750936",
    "title": "삼산저수지",
    "address": "인천광역시 강화군 삼산면 삼산서로310번길 21",
    "phone": "",
    "latitude": "37.7061924067",
    "longitude": "126.2868942424",
    "image": "http://tong.visitkorea.or.kr/cms/resource/41/3040841_image2_1.jpg",
    "category": "호수",
    "original_category": "강"
  },
  {
    "id": "125995",
    "title": "삼형제 저수지",
    "address": "충청북도 음성군 음성읍 사정리",
    "phone": "",
    "latitude": "36.9720596210",
    "longitude": "127.6205907936",
    "image": "http://tong.visitkorea.or.kr/cms/resource/56/3335356_image2_1.JPG",
    "category": "호수",
    "original_category": "강"
  },
  {
    "id": "2758220",
    "title": "상궁저수지",
    "address": "충청북도 보은군 내북면 상궁리",
    "phone": "",
    "latitude": "36.5290473459",
    "longitude": "127.6613189737",
    "image": "http://tong.visitkorea.or.kr/cms/resource/92/3571692_image2_1.jpg",
    "category": "호수",
    "original_category": "강"
  },
  {
    "id": "2752932",
    "title": "서랑저수지",
    "address": "경기도 오산시 서랑동",
    "phone": "",
    "latitude": "37.1725505756",
    "longitude": "127.0147148968",
    "image": "http://tong.visitkorea.or.kr/cms/resource/73/2753373_image2_1.jpg",
    "category": "호수",
    "original_category": "강"
  },
  {
    "id": "2763828",
    "title": "설봉저수지",
    "address": "경기도 이천시 관고동",
    "phone": "",
    "latitude": "37.2775514727",
    "longitude": "127.4308187028",
    "image": "http://tong.visitkorea.or.kr/cms/resource/91/3541391_image2_1.jpg",
    "category": "호수",
    "original_category": "강"
  },
  {
    "id": "3034172",
    "title": "성내저수지",
    "address": "충청남도 아산시 영인면 성내리",
    "phone": "",
    "latitude": "36.8776868748",
    "longitude": "126.9848340691",
    "image": "http://tong.visitkorea.or.kr/cms/resource/66/3034166_image2_1.jpg",
    "category": "호수",
    "original_category": "강"
  },
  {
    "id": "2761505",
    "title": "성암저수지",
    "address": "충청남도 서산시 음암면 탑곡리",
    "phone": "",
    "latitude": "36.8045486785",
    "longitude": "126.5420121925",
    "image": "http://tong.visitkorea.or.kr/cms/resource/54/3560154_image2_1.jpg",
    "category": "호수",
    "original_category": "강"
  },
  {
    "id": "131426",
    "title": "송라저수지",
    "address": "경기도 화성시 매송면 송라리",
    "phone": "",
    "latitude": "37.2828525011",
    "longitude": "126.9039135487",
    "image": "http://tong.visitkorea.or.kr/cms/resource/06/3539806_image2_1.jpg",
    "category": "호수",
    "original_category": "강"
  },
  {
    "id": "131240",
    "title": "수청저수지",
    "address": "전북특별자치도 정읍시 칠보면 수청리",
    "phone": "",
    "latitude": "35.5546348479",
    "longitude": "126.9512887698",
    "image": "http://tong.visitkorea.or.kr/cms/resource/53/3529553_image2_1.jpg",
    "category": "호수",
    "original_category": "강"
  },
  {
    "id": "2756168",
    "title": "숭암저수지",
    "address": "충청남도 금산군 추부면 장대리 349-10",
    "phone": "",
    "latitude": "36.1847309095",
    "longitude": "127.4924490310",
    "image": "",
    "category": "호수",
    "original_category": "강"
  },
  {
    "id": "2762886",
    "title": "시장저수지(시장지)",
    "address": "충청남도 천안시 서북구 입장면 도장골2길 28-11",
    "phone": "",
    "latitude": "36.8952808061",
    "longitude": "127.2264895559",
    "image": "http://tong.visitkorea.or.kr/cms/resource/53/2762953_image2_1.jpg",
    "category": "호수",
    "original_category": "강"
  },
  {
    "id": "1597387",
    "title": "신림저수지",
    "address": "전북특별자치도 고창군 신림면 왕림로 130",
    "phone": "",
    "latitude": "35.4694682423",
    "longitude": "126.7131509810",
    "image": "http://tong.visitkorea.or.kr/cms/resource/03/3347503_image2_1.jpg",
    "category": "호수",
    "original_category": "강"
  },
  {
    "id": "131053",
    "title": "양화저수지",
    "address": "충청남도 공주시 계룡면 양화리",
    "phone": "",
    "latitude": "36.3280448346",
    "longitude": "127.1638162056",
    "image": "http://tong.visitkorea.or.kr/cms/resource/49/3534749_image2_1.jpg",
    "category": "호수",
    "original_category": "강"
  },
  {
    "id": "131427",
    "title": "어천저수지",
    "address": "경기도 화성시 매송면 어천리",
    "phone": "",
    "latitude": "37.2553503648",
    "longitude": "126.9170131241",
    "image": "http://tong.visitkorea.or.kr/cms/resource/30/3539830_image2_1.jpg",
    "category": "호수",
    "original_category": "강"
  },
  {
    "id": "127791",
    "title": "연곡저수지",
    "address": "충청북도 진천군 진천읍 연곡리",
    "phone": "",
    "latitude": "36.8445001714",
    "longitude": "127.3609677364",
    "image": "http://tong.visitkorea.or.kr/cms/resource/86/3341286_image2_1.JPG",
    "category": "호수",
    "original_category": "강"
  },
  {
    "id": "2758507",
    "title": "염치저수지",
    "address": "충청남도 아산시 염치읍 동정리",
    "phone": "",
    "latitude": "36.8240488128",
    "longitude": "126.9962150639",
    "image": "http://tong.visitkorea.or.kr/cms/resource/99/3523199_image2_1.jpg",
    "category": "호수",
    "original_category": "강"
  },
  {
    "id": "2762707",
    "title": "오로저수지",
    "address": "경상북도 구미시 장천면 장천오로3길 7",
    "phone": "",
    "latitude": "36.1771061043",
    "longitude": "128.5269573411",
    "image": "",
    "category": "호수",
    "original_category": "강"
  },
  {
    "id": "131231",
    "title": "오봉저수지",
    "address": "전북특별자치도 임실군 성수면 왕방리",
    "phone": "",
    "latitude": "35.6211899020",
    "longitude": "127.3595952643",
    "image": "http://tong.visitkorea.or.kr/cms/resource/05/3550305_image2_1.jpg",
    "category": "호수",
    "original_category": "강"
  },
  {
    "id": "2753954",
    "title": "오봉저수지(김천)",
    "address": "경상북도 김천시 남면 오봉리 1218",
    "phone": "",
    "latitude": "36.1223542023",
    "longitude": "128.2363568292",
    "image": "http://tong.visitkorea.or.kr/cms/resource/95/2754095_image2_1.jpg",
    "category": "호수",
    "original_category": "강"
  },
  {
    "id": "2637673",
    "title": "오성제 저수지",
    "address": "전북특별자치도 완주군 소양면 대흥리",
    "phone": "",
    "latitude": "35.9039168012",
    "longitude": "127.2397790409",
    "image": "http://tong.visitkorea.or.kr/cms/resource/16/3583616_image2_1.jpg",
    "category": "호수",
    "original_category": "강"
  },
  {
    "id": "2761688",
    "title": "옥성저수지",
    "address": "충청북도 진천군 문백면 옥성리",
    "phone": "",
    "latitude": "36.7971488788",
    "longitude": "127.4497166232",
    "image": "http://tong.visitkorea.or.kr/cms/resource/64/3355464_image2_1.JPG",
    "category": "호수",
    "original_category": "강"
  },
  {
    "id": "1621014",
    "title": "왕동저수지",
    "address": "광주광역시 광산구 본량동서로 259",
    "phone": "",
    "latitude": "35.1950132321",
    "longitude": "126.7142160986",
    "image": "http://tong.visitkorea.or.kr/cms/resource/63/3367363_image2_1.jpg",
    "category": "호수",
    "original_category": "강"
  },
  {
    "id": "2770018",
    "title": "용계저수지",
    "address": "충청북도 음성군 금왕읍 백야리 18",
    "phone": "",
    "latitude": "36.9722120785",
    "longitude": "127.6039395107",
    "image": "http://tong.visitkorea.or.kr/cms/resource/64/2770164_image2_1.jpg",
    "category": "호수",
    "original_category": "강"
  },
  {
    "id": "2653122",
    "title": "용담저수지",
    "address": "경기도 용인시 처인구 원삼면 사암리",
    "phone": "",
    "latitude": "37.1883512177",
    "longitude": "127.3074157277",
    "image": "http://tong.visitkorea.or.kr/cms/resource/33/3559933_image2_1.jpg",
    "category": "호수",
    "original_category": "강"
  },
  {
    "id": "2751828",
    "title": "용덕저수지",
    "address": "경기도 용인시 처인구 이동읍 묵리",
    "phone": "",
    "latitude": "37.1848501404",
    "longitude": "127.2251177180",
    "image": "http://tong.visitkorea.or.kr/cms/resource/22/3559922_image2_1.jpg",
    "category": "호수",
    "original_category": "강"
  },
  {
    "id": "1627447",
    "title": "용산저수지",
    "address": "전북특별자치도 정읍시 용산동",
    "phone": "",
    "latitude": "35.5097133098",
    "longitude": "126.8554206536",
    "image": "http://tong.visitkorea.or.kr/cms/resource/62/3529562_image2_1.jpg",
    "category": "호수",
    "original_category": "강"
  },
  {
    "id": "2569485",
    "title": "용화저수지",
    "address": "강원특별자치도 철원군 갈말읍 신철원리",
    "phone": "",
    "latitude": "38.1327449697",
    "longitude": "127.3466626626",
    "image": "http://tong.visitkorea.or.kr/cms/resource/68/3558068_image2_1.jpg",
    "category": "호수",
    "original_category": "강"
  },
  {
    "id": "2784207",
    "title": "우곡저수지",
    "address": "경상남도 김해시 진영읍 하계로96번안길 117",
    "phone": "",
    "latitude": "35.2685899558",
    "longitude": "128.7129661188",
    "image": "http://tong.visitkorea.or.kr/cms/resource/24/3521924_image2_1.jpg",
    "category": "호수",
    "original_category": "강"
  },
  {
    "id": "1621652",
    "title": "운천저수지",
    "address": "광주광역시 서구 운천로 165",
    "phone": "",
    "latitude": "35.1471654718",
    "longitude": "126.8562352777",
    "image": "http://tong.visitkorea.or.kr/cms/resource/13/3367313_image2_1.jpg",
    "category": "호수",
    "original_category": "강"
  },
  {
    "id": "2770027",
    "title": "원남저수지(원남제)",
    "address": "충청북도 음성군 원남면 조촌리 1388-1",
    "phone": "",
    "latitude": "36.8707126852",
    "longitude": "127.6059449662",
    "image": "",
    "category": "호수",
    "original_category": "강"
  },
  {
    "id": "2758512",
    "title": "월랑저수지",
    "address": "충청남도 아산시 음봉면 월암로 89",
    "phone": "",
    "latitude": "36.8451367237",
    "longitude": "127.0782404194",
    "image": "http://tong.visitkorea.or.kr/cms/resource/04/3523204_image2_1.jpg",
    "category": "호수",
    "original_category": "강"
  },
  {
    "id": "129025",
    "title": "임하댐",
    "address": "경상북도 안동시 임하면",
    "phone": "",
    "latitude": "36.5314557473",
    "longitude": "128.8817407739",
    "image": "http://tong.visitkorea.or.kr/cms/resource/14/3402514_image2_1.jpg",
    "category": "호수",
    "original_category": "강"
  },
  {
    "id": "2569480",
    "title": "잠곡저수지",
    "address": "강원특별자치도 철원군 근남면 잠곡리",
    "phone": "",
    "latitude": "38.1585329671",
    "longitude": "127.4612930669",
    "image": "http://tong.visitkorea.or.kr/cms/resource/73/2567273_image2_1.jpg",
    "category": "호수",
    "original_category": "강"
  },
  {
    "id": "2759592",
    "title": "장지저수지",
    "address": "경기도 화성시 경기동로 378",
    "phone": "",
    "latitude": "37.1518713136",
    "longitude": "127.1088569437",
    "image": "http://tong.visitkorea.or.kr/cms/resource/08/3396608_image2_1.JPG",
    "category": "호수",
    "original_category": "강"
  },
  {
    "id": "2781615",
    "title": "조강저수지",
    "address": "경기도 김포시 월곶면 조강리",
    "phone": "",
    "latitude": "37.7518866487",
    "longitude": "126.5785134547",
    "image": "http://tong.visitkorea.or.kr/cms/resource/47/2781947_image2_1.jpg",
    "category": "호수",
    "original_category": "강"
  },
  {
    "id": "126117",
    "title": "주남저수지 철새도래지",
    "address": "경상남도 창원시 의창구 동읍 월잠리",
    "phone": "",
    "latitude": "35.3138480725",
    "longitude": "128.6753431778",
    "image": "http://tong.visitkorea.or.kr/cms/resource/91/3565391_image2_1.JPG",
    "category": "호수",
    "original_category": "강"
  },
  {
    "id": "2746373",
    "title": "주암산가창저수지",
    "address": "경상북도 청도군 각북면 오산리",
    "phone": "",
    "latitude": "35.7996421023",
    "longitude": "128.6099244660",
    "image": "http://tong.visitkorea.or.kr/cms/resource/29/2746429_image2_1.jpg",
    "category": "호수",
    "original_category": "강"
  },
  {
    "id": "2784205",
    "title": "진례저수지",
    "address": "경상남도 김해시 진례면 평지길 239",
    "phone": "",
    "latitude": "35.2254201761",
    "longitude": "128.7334627219",
    "image": "http://tong.visitkorea.or.kr/cms/resource/26/3521926_image2_1.jpg",
    "category": "호수",
    "original_category": "강"
  },
  {
    "id": "2746700",
    "title": "창리저수지",
    "address": "경기도 용인시 처인구 남사읍 경기동로518번길 58",
    "phone": "",
    "latitude": "37.1270141543",
    "longitude": "127.1691577355",
    "image": "http://tong.visitkorea.or.kr/cms/resource/75/3566775_image2_1.jpg",
    "category": "호수",
    "original_category": "강"
  },
  {
    "id": "2751299",
    "title": "천덕제(동항저수지)",
    "address": "경기도 안성시 양성면 교동길 19-68",
    "phone": "",
    "latitude": "37.0653493761",
    "longitude": "127.1871161650",
    "image": "http://tong.visitkorea.or.kr/cms/resource/41/2782441_image2_1.jpg",
    "category": "호수",
    "original_category": "강"
  },
  {
    "id": "125527",
    "title": "청계호수",
    "address": "경기도 포천시 일동면 기산리",
    "phone": "031-832-2181",
    "latitude": "37.9416560415",
    "longitude": "127.3403160901",
    "image": "http://tong.visitkorea.or.kr/cms/resource/83/3519783_image2_1.jpg",
    "category": "호수",
    "original_category": "강"
  },
  {
    "id": "1610389",
    "title": "청호저수지",
    "address": "전북특별자치도 부안군 하서면 청호리",
    "phone": "",
    "latitude": "35.7411421025",
    "longitude": "126.6647122890",
    "image": "http://tong.visitkorea.or.kr/cms/resource/00/3520000_image2_1.jpg",
    "category": "호수",
    "original_category": "강"
  },
  {
    "id": "2744509",
    "title": "초동저수지",
    "address": "경상남도 밀양시 초동면 신호1길 93",
    "phone": "",
    "latitude": "35.4042713763",
    "longitude": "128.6829039428",
    "image": "http://tong.visitkorea.or.kr/cms/resource/80/3519380_image2_1.jpg",
    "category": "호수",
    "original_category": "강"
  },
  {
    "id": "2758226",
    "title": "충도저수지",
    "address": "충청북도 음성군 소이면 충도리",
    "phone": "",
    "latitude": "36.9063496627",
    "longitude": "127.7262192626",
    "image": "http://tong.visitkorea.or.kr/cms/resource/88/3573688_image2_1.jpg",
    "category": "호수",
    "original_category": "강"
  },
  {
    "id": "2772184",
    "title": "칠곡저수지",
    "address": "경기도 안성시 원곡면 칠곡리",
    "phone": "",
    "latitude": "37.0474508439",
    "longitude": "127.1536169135",
    "image": "http://tong.visitkorea.or.kr/cms/resource/50/3558750_image2_1.jpg",
    "category": "호수",
    "original_category": "강"
  },
  {
    "id": "1626523",
    "title": "탑정저수지",
    "address": "충청남도 논산시 부적면 신풍리",
    "phone": "",
    "latitude": "36.1787509400",
    "longitude": "127.1720139100",
    "image": "http://tong.visitkorea.or.kr/cms/resource/42/3050142_image2_1.JPG",
    "category": "호수",
    "original_category": "강"
  },
  {
    "id": "561016",
    "title": "토교저수지(철새도래지)",
    "address": "강원특별자치도 철원군 동송읍 양지길 117",
    "phone": "",
    "latitude": "38.2842206514",
    "longitude": "127.2898717112",
    "image": "http://tong.visitkorea.or.kr/cms/resource/86/2567786_image2_1.jpg",
    "category": "호수",
    "original_category": "강"
  },
  {
    "id": "131637",
    "title": "하눌저수지",
    "address": "경상북도 봉화군 상운면 하눌리",
    "phone": "",
    "latitude": "36.8822499508",
    "longitude": "128.7857251454",
    "image": "http://tong.visitkorea.or.kr/cms/resource/80/3528580_image2_1.jpg",
    "category": "호수",
    "original_category": "강"
  },
  {
    "id": "2568557",
    "title": "학저수지",
    "address": "강원특별자치도 철원군 동송읍 학마을길 68",
    "phone": "",
    "latitude": "38.2300313019",
    "longitude": "127.2222295280",
    "image": "http://tong.visitkorea.or.kr/cms/resource/33/3494033_image2_1.jpg",
    "category": "호수",
    "original_category": "강"
  },
  {
    "id": "2738732",
    "title": "한천저수지",
    "address": "충청남도 공주시 우성면 한천리",
    "phone": "",
    "latitude": "36.5199464907",
    "longitude": "127.0870151488",
    "image": "http://tong.visitkorea.or.kr/cms/resource/64/3534764_image2_1.jpg",
    "category": "호수",
    "original_category": "강"
  },
  {
    "id": "3061700",
    "title": "해평저수지",
    "address": "전라남도 보성군 득량면 공룡로 1147",
    "phone": "",
    "latitude": "34.7292768285",
    "longitude": "127.2103339410",
    "image": "http://tong.visitkorea.or.kr/cms/resource/71/3061671_image2_1.jpg",
    "category": "호수",
    "original_category": "강"
  },
  {
    "id": "2755853",
    "title": "향리저수지",
    "address": "경기도 양평군 개군면 아랫상골길 45",
    "phone": "",
    "latitude": "37.4348413074",
    "longitude": "127.5667546671",
    "image": "http://tong.visitkorea.or.kr/cms/resource/88/3507088_image2_1.jpg",
    "category": "호수",
    "original_category": "강"
  },
  {
    "id": "2773400",
    "title": "회암저수지",
    "address": "경기도 안성시 삼죽면 내강리",
    "phone": "",
    "latitude": "37.0624500944",
    "longitude": "127.3631170125",
    "image": "http://tong.visitkorea.or.kr/cms/resource/51/3558751_image2_1.jpg",
    "category": "호수",
    "original_category": "강"
  },
  {
    "id": "231894",
    "title": "주암댐지석묘군",
    "address": "전라남도 순천시 송광면 우산리",
    "phone": "",
    "latitude": "34.9804210872",
    "longitude": "127.2254291094",
    "image": "",
    "category": "호수",
    "original_category": "유적지사적지"
  }
]