[
  {
    "id": "130986",
    "title": "가야컨트리클럽",
    "address": "경상남도 김해시 인제로 502",
    "phone": "055-337-0091",
    "latitude": "35.2811835601",
    "longitude": "128.8958636958",
    "image": "",
    "category": "골프"
  },
  {
    "id": "131810",
    "title": "가평베네스트 골프클럽",
    "address": "경기도 가평군 상면 둔덕말길 232",
    "phone": "",
    "latitude": "37.7976999779",
    "longitude": "127.3070427718",
    "image": "",
    "category": "골프"
  },
  {
    "id": "131557",
    "title": "경주컨트리클럽",
    "address": "경상북도 경주시 보문로 182-98",
    "phone": "054-778-8900",
    "latitude": "35.8644775271",
    "longitude": "129.2630291720",
    "image": "",
    "category": "골프"
  },
  {
    "id": "2772297",
    "title": "고령오펠GC",
    "address": "경상북도 고령군 다산면 벌지로 175-115",
    "phone": "",
    "latitude": "35.8145223597",
    "longitude": "128.3825663055",
    "image": "http://tong.visitkorea.or.kr/cms/resource/44/2772544_image2_1.jpg",
    "category": "골프"
  },
  {
    "id": "2736399",
    "title": "고양CC(고양 컨트리클럽)",
    "address": "경기도 고양시 덕양구 흥도로 304-23 (도내동)",
    "phone": "",
    "latitude": "37.6369327991",
    "longitude": "126.8584772000",
    "image": "http://tong.visitkorea.or.kr/cms/resource/07/2736607_image2_1.jpg",
    "category": "골프"
  },
  {
    "id": "2737270",
    "title": "고창CC",
    "address": "전북특별자치도 고창군 심원면 애향갯벌로 70",
    "phone": "",
    "latitude": "35.5160399637",
    "longitude": "126.5022685709",
    "image": "http://tong.visitkorea.or.kr/cms/resource/33/2737433_image2_1.jpg",
    "category": "골프"
  },
  {
    "id": "777164",
    "title": "고창컨트리클럽",
    "address": "전북특별자치도 고창군 심원면 애향갯벌로 70",
    "phone": "",
    "latitude": "35.5160566287",
    "longitude": "126.5022602380",
    "image": "http://tong.visitkorea.or.kr/cms/resource/85/2733985_image2_1.png",
    "category": "골프"
  },
  {
    "id": "130991",
    "title": "곤지암 골프클럽",
    "address": "경기도 광주시 도척면 도척윗로 280",
    "phone": "",
    "latitude": "37.3331870228",
    "longitude": "127.2953266164",
    "image": "http://tong.visitkorea.or.kr/cms/resource/70/1956870_image2_1.jpg",
    "category": "골프"
  },
  {
    "id": "131761",
    "title": "골드컨트리클럽",
    "address": "경기도 용인시 기흥구 기흥단지로 398",
    "phone": "",
    "latitude": "37.2174837025",
    "longitude": "127.1386051932",
    "image": "http://tong.visitkorea.or.kr/cms/resource/12/1939912_image2_1.jpg",
    "category": "골프"
  },
  {
    "id": "2779274",
    "title": "골프존카운티 드래곤",
    "address": "전북특별자치도 남원시 대산면 대사로 500",
    "phone": "",
    "latitude": "35.4344857275",
    "longitude": "127.3411128680",
    "image": "http://tong.visitkorea.or.kr/cms/resource/11/2781311_image2_1.jpg",
    "category": "골프"
  },
  {
    "id": "2750335",
    "title": "골프존카운티 안성H",
    "address": "경기도 안성시 보개면 보삼로 302",
    "phone": "",
    "latitude": "37.0953959184",
    "longitude": "127.3424040690",
    "image": "http://tong.visitkorea.or.kr/cms/resource/79/2750379_image2_1.png",
    "category": "골프"
  },
  {
    "id": "2750339",
    "title": "골프존카운티 안성W",
    "address": "경기도 안성시 양성면 교동길 19-70",
    "phone": "",
    "latitude": "37.0709127243",
    "longitude": "127.1927932746",
    "image": "http://tong.visitkorea.or.kr/cms/resource/73/2750373_image2_1.png",
    "category": "골프"
  },
  {
    "id": "2769735",
    "title": "골프존카운티 화랑",
    "address": "충청북도 진천군 문백면 농다리로 809",
    "phone": "",
    "latitude": "36.8161110534",
    "longitude": "127.4756082123",
    "image": "http://tong.visitkorea.or.kr/cms/resource/52/2769752_image2_1.jpg",
    "category": "골프"
  },
  {
    "id": "2750337",
    "title": "골프클럽 Q",
    "address": "경기도 안성시 죽산면 장계길 20-229",
    "phone": "",
    "latitude": "37.0468745918",
    "longitude": "127.3896011710",
    "image": "http://tong.visitkorea.or.kr/cms/resource/62/2750362_image2_1.png",
    "category": "골프"
  },
  {
    "id": "2788193",
    "title": "공무원연금공단 김해상록골프클럽",
    "address": "경상남도 김해시 한림면 김해대로974번길 198",
    "phone": "",
    "latitude": "35.2763628496",
    "longitude": "128.7974335305",
    "image": "http://tong.visitkorea.or.kr/cms/resource/69/2788269_image2_1.JPG",
    "category": "골프"
  },
  {
    "id": "2770827",
    "title": "구니CC",
    "address": "대구광역시 군위군 군위읍 도군로 2450",
    "phone": "",
    "latitude": "36.2539726577",
    "longitude": "128.5428454310",
    "image": "http://tong.visitkorea.or.kr/cms/resource/94/2771494_image2_1.jpg",
    "category": "골프"
  },
  {
    "id": "2772306",
    "title": "구미CC",
    "address": "경상북도 구미시 장천면 송백로 229",
    "phone": "",
    "latitude": "36.1697756403",
    "longitude": "128.4868999815",
    "image": "http://tong.visitkorea.or.kr/cms/resource/83/2772583_image2_1.jpg",
    "category": "골프"
  },
  {
    "id": "776717",
    "title": "군산컨트리클럽",
    "address": "전북특별자치도 군산시 옥구읍 남군산로 1685",
    "phone": "",
    "latitude": "35.8972770194",
    "longitude": "126.6606864273",
    "image": "",
    "category": "골프"
  },
  {
    "id": "2770774",
    "title": "군위오펠GC",
    "address": "대구광역시 군위군 산성면 부흥로 227",
    "phone": "",
    "latitude": "36.1120302277",
    "longitude": "128.6800428682",
    "image": "http://tong.visitkorea.or.kr/cms/resource/01/2771501_image2_1.jpg",
    "category": "골프"
  },
  {
    "id": "2769560",
    "title": "그랜드CC",
    "address": "충청북도 청주시 청원구 오창읍 꽃화산길 51-20",
    "phone": "",
    "latitude": "36.7220091028",
    "longitude": "127.3833330064",
    "image": "http://tong.visitkorea.or.kr/cms/resource/28/2769628_image2_1.jpg",
    "category": "골프"
  },
  {
    "id": "131573",
    "title": "그랜드컨트리클럽",
    "address": "충청북도 청주시 청원구 오창읍 꽃화산길 51-20",
    "phone": "043-212-7111",
    "latitude": "36.7221646301",
    "longitude": "127.3827441662",
    "image": "http://tong.visitkorea.or.kr/cms/resource/88/1597088_image2_1.jpg",
    "category": "골프"
  },
  {
    "id": "2770759",
    "title": "그레이스CC",
    "address": "경상북도 청도군 이서면 서녁길 91",
    "phone": "",
    "latitude": "35.6642636516",
    "longitude": "128.6477776634",
    "image": "http://tong.visitkorea.or.kr/cms/resource/28/2770828_image2_1.jpg",
    "category": "골프"
  },
  {
    "id": "577646",
    "title": "그린힐 컨트리클럽",
    "address": "경기도 광주시 곤지암읍 내선길 176",
    "phone": "",
    "latitude": "37.3595779823",
    "longitude": "127.4247252493",
    "image": "http://tong.visitkorea.or.kr/cms/resource/74/1956874_image2_1.jpg",
    "category": "골프"
  },
  {
    "id": "780311",
    "title": "글렌로스 골프클럽",
    "address": "경기도 용인시 처인구 포곡읍 에버랜드로562번길 69",
    "phone": "",
    "latitude": "37.2945173010",
    "longitude": "127.1857543098",
    "image": "",
    "category": "골프"
  },
  {
    "id": "131416",
    "title": "기흥컨트리클럽",
    "address": "경기도 화성시 동탄면 풀무골로106번길 244",
    "phone": "",
    "latitude": "37.1914118485",
    "longitude": "127.1458941519",
    "image": "http://tong.visitkorea.or.kr/cms/resource/19/1939919_image2_1.jpg",
    "category": "골프"
  },
  {
    "id": "2758271",
    "title": "김천포도CC",
    "address": "경상북도 김천시 구성면 남김천대로 2532",
    "phone": "",
    "latitude": "36.0421433855",
    "longitude": "128.0567194108",
    "image": "http://tong.visitkorea.or.kr/cms/resource/29/2772629_image2_1.jpg",
    "category": "골프"
  },
  {
    "id": "131336",
    "title": "김포 SEASIDE 컨트리클럽",
    "address": "경기도 김포시 월곶면 김포대로2801번길 219",
    "phone": "",
    "latitude": "37.7100518536",
    "longitude": "126.5341520243",
    "image": "http://tong.visitkorea.or.kr/cms/resource/35/1939935_image2_1.jpg",
    "category": "골프"
  },
  {
    "id": "2742125",
    "title": "남부CC",
    "address": "경기도 용인시 기흥구 사은로 163 (보라동)",
    "phone": "",
    "latitude": "37.2570427615",
    "longitude": "127.1245248045",
    "image": "http://tong.visitkorea.or.kr/cms/resource/30/2750730_image2_1.jpg",
    "category": "골프"
  },
  {
    "id": "130985",
    "title": "남서울컨트리클럽",
    "address": "경기도 성남시 분당구 판교백현로 161 (백현동)",
    "phone": "",
    "latitude": "37.3819358701",
    "longitude": "127.0823306773",
    "image": "http://tong.visitkorea.or.kr/cms/resource/68/3549168_image2_1.jpg",
    "category": "골프"
  },
  {
    "id": "1030473",
    "title": "남양주컨트리클럽",
    "address": "경기도 남양주시 오남읍 진건오남로 516-31",
    "phone": "031-529-6060",
    "latitude": "37.6790454598",
    "longitude": "127.2161989273",
    "image": "",
    "category": "골프"
  },
  {
    "id": "2764887",
    "title": "남여주GC(남여주골프클럽)",
    "address": "경기도 여주시 가여로 532 (하거동)",
    "phone": "",
    "latitude": "37.2282969200",
    "longitude": "127.6306214920",
    "image": "http://tong.visitkorea.or.kr/cms/resource/51/2764951_image2_1.jpeg",
    "category": "골프"
  },
  {
    "id": "2750699",
    "title": "남촌CC",
    "address": "경기도 광주시 곤지암읍 부항길 135-38",
    "phone": "",
    "latitude": "37.3527063364",
    "longitude": "127.4126793148",
    "image": "http://tong.visitkorea.or.kr/cms/resource/99/2750899_image2_1.jpg",
    "category": "골프"
  },
  {
    "id": "2778936",
    "title": "내장산골프앤리조트",
    "address": "전북특별자치도 정읍시 첨단과학로 476 (신정동)",
    "phone": "",
    "latitude": "35.5028920291",
    "longitude": "126.8653032828",
    "image": "http://tong.visitkorea.or.kr/cms/resource/22/2779622_image2_1.jpg",
    "category": "골프"
  },
  {
    "id": "2755374",
    "title": "노벨CC(고성노벨컨트리클럽)",
    "address": "경상남도 고성군 회화면 회진로 567",
    "phone": "",
    "latitude": "35.0698261390",
    "longitude": "128.4053705482",
    "image": "http://tong.visitkorea.or.kr/cms/resource/65/2755365_image2_1.jpg",
    "category": "골프"
  },
  {
    "id": "2756052",
    "title": "노스팜CC",
    "address": "경기도 파주시 광탄면 쇠장이길 265",
    "phone": "",
    "latitude": "37.7889132646",
    "longitude": "126.9110291923",
    "image": "http://tong.visitkorea.or.kr/cms/resource/86/2756486_image2_1.jpg",
    "category": "골프"
  },
  {
    "id": "130984",
    "title": "뉴서울컨트리클럽",
    "address": "경기도 광주시 삼지곡길 95 (삼동)",
    "phone": "",
    "latitude": "37.4189754793",
    "longitude": "127.2065322379",
    "image": "http://tong.visitkorea.or.kr/cms/resource/81/1956881_image2_1.jpg",
    "category": "골프"
  },
  {
    "id": "131544",
    "title": "뉴스프링빌 컨트리클럽",
    "address": "경기도 이천시 사실로527번길 158 뉴스프링C.C",
    "phone": "",
    "latitude": "37.1543185026",
    "longitude": "127.4314221445",
    "image": "",
    "category": "골프"
  },
  {
    "id": "715953",
    "title": "담양레이나 CC",
    "address": "전라남도 담양군 담양읍 깊은실길 169",
    "phone": "",
    "latitude": "35.3100775539",
    "longitude": "127.0164836657",
    "image": "",
    "category": "골프"
  },
  {
    "id": "2769524",
    "title": "대영베이스CC",
    "address": "충청북도 충주시 대소원면 성종두담길 113",
    "phone": "",
    "latitude": "36.9469081747",
    "longitude": "127.8391579650",
    "image": "http://tong.visitkorea.or.kr/cms/resource/84/2771084_image2_1.jpg",
    "category": "골프"
  },
  {
    "id": "2769551",
    "title": "대영힐스CC",
    "address": "충청북도 충주시 대소원면 성종두담길 114",
    "phone": "",
    "latitude": "36.9504579596",
    "longitude": "127.8497069165",
    "image": "http://tong.visitkorea.or.kr/cms/resource/86/2771086_image2_1.jpg",
    "category": "골프"
  },
  {
    "id": "2769886",
    "title": "대호단양CC",
    "address": "충청북도 단양군 매포읍 고양5길 43",
    "phone": "",
    "latitude": "37.0911108389",
    "longitude": "128.2782560572",
    "image": "http://tong.visitkorea.or.kr/cms/resource/31/2770831_image2_1.jpg",
    "category": "골프"
  },
  {
    "id": "131262",
    "title": "더 시에나 서울 컨트리클럽",
    "address": "경기도 광주시 곤지암읍 경충대로 451",
    "phone": "",
    "latitude": "37.3423620517",
    "longitude": "127.3555458977",
    "image": "http://tong.visitkorea.or.kr/cms/resource/64/3548964_image2_1.jpg",
    "category": "골프"
  },
  {
    "id": "2763728",
    "title": "더반GC",
    "address": "경기도 이천시 대월면 대월로 627-141",
    "phone": "",
    "latitude": "37.2100020376",
    "longitude": "127.4907790914",
    "image": "http://tong.visitkorea.or.kr/cms/resource/34/2763934_image2_1.png",
    "category": "골프"
  },
  {
    "id": "2763719",
    "title": "더크로스비GC",
    "address": "경기도 이천시 호법면 중부대로798번길 177",
    "phone": "",
    "latitude": "37.2339644877",
    "longitude": "127.4111106133",
    "image": "http://tong.visitkorea.or.kr/cms/resource/26/2763926_image2_1.png",
    "category": "골프"
  },
  {
    "id": "2773729",
    "title": "더헤븐cc",
    "address": "경기도 안산시 단원구 대선로 466 (대부남동)",
    "phone": "",
    "latitude": "37.2290749906",
    "longitude": "126.5654902448",
    "image": "http://tong.visitkorea.or.kr/cms/resource/19/2773919_image2_1.jpg",
    "category": "골프"
  },
  {
    "id": "131517",
    "title": "델피노 CC (대명 델피노)",
    "address": "강원특별자치도 고성군 토성면 미시령옛길 1153",
    "phone": "",
    "latitude": "38.2075246860",
    "longitude": "128.4973942731",
    "image": "http://tong.visitkorea.or.kr/cms/resource/29/1813429_image2_1.jpg",
    "category": "골프"
  },
  {
    "id": "2769768",
    "title": "도고CC",
    "address": "충청남도 아산시 선장면 삼봉산길 188",
    "phone": "",
    "latitude": "36.7777495055",
    "longitude": "126.8903564323",
    "image": "http://tong.visitkorea.or.kr/cms/resource/19/2770519_image2_1.jpg",
    "category": "골프"
  },
  {
    "id": "2702454",
    "title": "동강시스타CC",
    "address": "강원특별자치도 영월군 영월읍 사지막길 160",
    "phone": "",
    "latitude": "37.2183923754",
    "longitude": "128.5177752708",
    "image": "",
    "category": "골프"
  },
  {
    "id": "2736435",
    "title": "동래 베네스트 골프클럽",
    "address": "부산광역시 금정구 하정로 66 (선동)",
    "phone": "",
    "latitude": "35.2649113679",
    "longitude": "129.0994575060",
    "image": "http://tong.visitkorea.or.kr/cms/resource/45/2736445_image2_1.jpg",
    "category": "골프"
  },
  {
    "id": "131577",
    "title": "동서울레스피아 골프장",
    "address": "강원특별자치도 원주시 지정면 신평석화로 236",
    "phone": "",
    "latitude": "37.4007621316",
    "longitude": "127.8793829286",
    "image": "",
    "category": "골프"
  },
  {
    "id": "2769559",
    "title": "동촌GC",
    "address": "충청북도 충주시 노은면 감노로 1327",
    "phone": "",
    "latitude": "37.0568271219",
    "longitude": "127.7446716631",
    "image": "http://tong.visitkorea.or.kr/cms/resource/11/2771111_image2_1.jpg",
    "category": "골프"
  },
  {
    "id": "2768223",
    "title": "드림파크CC",
    "address": "인천광역시 서구 자원순환로260번길 46 (백석동)",
    "phone": "",
    "latitude": "37.5726864531",
    "longitude": "126.6435403004",
    "image": "http://tong.visitkorea.or.kr/cms/resource/82/3528882_image2_1.jpg",
    "category": "골프"
  },
  {
    "id": "2755481",
    "title": "드비치골프클럽",
    "address": "경상남도 거제시 장목면 거제북로 1573",
    "phone": "",
    "latitude": "35.0176424489",
    "longitude": "128.6774370941",
    "image": "http://tong.visitkorea.or.kr/cms/resource/59/2755959_image2_1.jpg",
    "category": "골프"
  },
  {
    "id": "131417",
    "title": "라비돌컨트리클럽",
    "address": "경기도 화성시 정남면 세자로 286",
    "phone": "",
    "latitude": "37.1906479030",
    "longitude": "126.9821951196",
    "image": "http://tong.visitkorea.or.kr/cms/resource/22/3567522_image2_1.jpg",
    "category": "골프"
  },
  {
    "id": "2751297",
    "title": "라싸CC",
    "address": "경기도 포천시 이동면 제비울2길 161",
    "phone": "",
    "latitude": "37.9977475427",
    "longitude": "127.3848575956",
    "image": "http://tong.visitkorea.or.kr/cms/resource/89/2751289_image2_1.jpg",
    "category": "골프"
  },
  {
    "id": "989025",
    "title": "라온골프클럽",
    "address": "제주특별자치도 제주시 한경면 용금로 998",
    "phone": "",
    "latitude": "33.3394969174",
    "longitude": "126.2742984087",
    "image": "http://tong.visitkorea.or.kr/cms/resource/90/1950490_image2_1.jpg",
    "category": "골프"
  },
  {
    "id": "2751453",
    "title": "락가든GC",
    "address": "경기도 포천시 일동면 화동로 738",
    "phone": "",
    "latitude": "37.9315844536",
    "longitude": "127.3109218488",
    "image": "http://tong.visitkorea.or.kr/cms/resource/38/2751438_image2_1.jpg",
    "category": "골프"
  },
  {
    "id": "2770237",
    "title": "레이캐슬CC",
    "address": "세종특별자치시 전의면 의당전의로 252",
    "phone": "",
    "latitude": "36.6182731503",
    "longitude": "127.1910170250",
    "image": "http://tong.visitkorea.or.kr/cms/resource/94/2771694_image2_1.jpg",
    "category": "골프"
  },
  {
    "id": "2769845",
    "title": "로얄링스CC",
    "address": "충청남도 태안군 태안읍 기업도시6길 43",
    "phone": "",
    "latitude": "36.7224490956",
    "longitude": "126.3387438841",
    "image": "http://tong.visitkorea.or.kr/cms/resource/49/2770749_image2_1.jpg",
    "category": "골프"
  },
  {
    "id": "2769561",
    "title": "로얄포레CC",
    "address": "충청북도 충주시 신니면 화치3길 35",
    "phone": "",
    "latitude": "36.9945053046",
    "longitude": "127.6780349890",
    "image": "http://tong.visitkorea.or.kr/cms/resource/22/2771122_image2_1.jpg",
    "category": "골프"
  },
  {
    "id": "2750959",
    "title": "로제비앙CC",
    "address": "경기도 광주시 곤지암읍 오향길 180",
    "phone": "",
    "latitude": "37.3777832560",
    "longitude": "127.3723989167",
    "image": "http://tong.visitkorea.or.kr/cms/resource/46/2750946_image2_1.png",
    "category": "골프"
  },
  {
    "id": "2748389",
    "title": "루이힐스CC",
    "address": "경기도 양주시 어하고개로 186-54 (삼숭동)",
    "phone": "",
    "latitude": "37.8119947829",
    "longitude": "127.1131989400",
    "image": "http://tong.visitkorea.or.kr/cms/resource/68/2748368_image2_1.jpg",
    "category": "골프"
  },
  {
    "id": "131415",
    "title": "리베라컨트리클럽",
    "address": "경기도 화성시 중리길 183",
    "phone": "",
    "latitude": "37.1902586109",
    "longitude": "127.1127582970",
    "image": "http://tong.visitkorea.or.kr/cms/resource/67/1939967_image2_1.jpg",
    "category": "골프"
  },
  {
    "id": "2759826",
    "title": "리앤리CC",
    "address": "경기도 가평군 조종면 운악청계로 702-24",
    "phone": "",
    "latitude": "37.8729810461",
    "longitude": "127.3585719883",
    "image": "http://tong.visitkorea.or.kr/cms/resource/27/2932227_image2_1.jpg",
    "category": "골프"
  },
  {
    "id": "2747383",
    "title": "링크나인GC",
    "address": "경기도 화성시 마도면 해운로630번길 49",
    "phone": "",
    "latitude": "37.1718210294",
    "longitude": "126.7532330829",
    "image": "http://tong.visitkorea.or.kr/cms/resource/09/2747409_image2_1.jpg",
    "category": "골프"
  },
  {
    "id": "2772300",
    "title": "마스터피스CC",
    "address": "경상북도 고령군 쌍림면 산막길 47-80",
    "phone": "",
    "latitude": "35.7044179095",
    "longitude": "128.2162339837",
    "image": "http://tong.visitkorea.or.kr/cms/resource/72/2772572_image2_1.jpg",
    "category": "골프"
  },
  {
    "id": "2750418",
    "title": "마에스트로CC",
    "address": "경기도 안성시 양성면 안성맞춤대로 2134-36",
    "phone": "",
    "latitude": "37.1042434225",
    "longitude": "127.2604556712",
    "image": "http://tong.visitkorea.or.kr/cms/resource/85/2750385_image2_1.png",
    "category": "골프"
  },
  {
    "id": "131760",
    "title": "마우나오션 컨트리클럽",
    "address": "경상북도 경주시 양남면 동남로 982",
    "phone": "",
    "latitude": "35.6909714418",
    "longitude": "129.3754937212",
    "image": "",
    "category": "골프"
  },
  {
    "id": "2764370",
    "title": "마이다스레이크 이천 골프앤리조트",
    "address": "경기도 이천시 설성면 설가로 602",
    "phone": "",
    "latitude": "37.1771175599",
    "longitude": "127.5244880912",
    "image": "http://tong.visitkorea.or.kr/cms/resource/75/3549275_image2_1.jpg",
    "category": "골프"
  },
  {
    "id": "577738",
    "title": "마이다스밸리 청평 골프클럽",
    "address": "경기도 가평군 설악면 다락재로 73-111",
    "phone": "",
    "latitude": "37.6658292017",
    "longitude": "127.4587161211",
    "image": "http://tong.visitkorea.or.kr/cms/resource/59/3548059_image2_1.jpg",
    "category": "골프"
  },
  {
    "id": "637398",
    "title": "말 테마파크 골프장 (렛츠런파크 제주)",
    "address": "제주특별자치도 제주시 애월읍 평화로 2144",
    "phone": "",
    "latitude": "33.4042417055",
    "longitude": "126.3980250961",
    "image": "http://tong.visitkorea.or.kr/cms/resource/27/1950527_image2_1.jpg",
    "category": "골프"
  },
  {
    "id": "131651",
    "title": "무주컨트리클럽",
    "address": "전북특별자치도 무주군 설천면 만선로 185",
    "phone": "063-322-9000",
    "latitude": "35.8838998494",
    "longitude": "127.7247170392",
    "image": "",
    "category": "골프"
  },
  {
    "id": "2770832",
    "title": "문경GC",
    "address": "경상북도 문경시 마성면 문경골프장길 240",
    "phone": "",
    "latitude": "36.7154740192",
    "longitude": "128.1618300970",
    "image": "http://tong.visitkorea.or.kr/cms/resource/10/2771510_image2_1.jpg",
    "category": "골프"
  },
  {
    "id": "577302",
    "title": "발리오스 컨트리클럽",
    "address": "경기도 화성시 팔탄면 3.1만세로 641-28",
    "phone": "",
    "latitude": "37.1165987553",
    "longitude": "126.8604220997",
    "image": "",
    "category": "골프"
  },
  {
    "id": "2769576",
    "title": "백제CC",
    "address": "충청남도 부여군 은산면 충절로 3734-82",
    "phone": "",
    "latitude": "36.3475860889",
    "longitude": "126.7907074806",
    "image": "http://tong.visitkorea.or.kr/cms/resource/25/2770425_image2_1.jpg",
    "category": "골프"
  },
  {
    "id": "131725",
    "title": "버치힐컨트리클럽",
    "address": "강원특별자치도 평창군 대관령면 올림픽로 715",
    "phone": "1522-3111",
    "latitude": "37.6575758468",
    "longitude": "128.7049146731",
    "image": "http://tong.visitkorea.or.kr/cms/resource/89/1846789_image2_1.jpg",
    "category": "골프"
  },
  {
    "id": "2763737",
    "title": "베뉴지CC",
    "address": "경기도 가평군 가평읍 용추로171번길 100",
    "phone": "",
    "latitude": "37.8468195069",
    "longitude": "127.4717179897",
    "image": "http://tong.visitkorea.or.kr/cms/resource/69/2763969_image2_1.jpg",
    "category": "골프"
  },
  {
    "id": "2756065",
    "title": "베스트밸리GC",
    "address": "경기도 파주시 광탄면 장지산로200번길 32-41",
    "phone": "",
    "latitude": "37.7550417384",
    "longitude": "126.8846853438",
    "image": "http://tong.visitkorea.or.kr/cms/resource/03/2756503_image2_1.jpg",
    "category": "골프"
  },
  {
    "id": "2781467",
    "title": "베어즈베스트청라GC",
    "address": "인천광역시 서구 청라대로316번길 45 (청라동)",
    "phone": "",
    "latitude": "37.5486780015",
    "longitude": "126.6359444422",
    "image": "http://tong.visitkorea.or.kr/cms/resource/09/2781709_image2_1.jpg",
    "category": "골프"
  },
  {
    "id": "2752723",
    "title": "베어크리크GC",
    "address": "경기도 포천시 화현면 달인동로 35",
    "phone": "",
    "latitude": "37.9000569977",
    "longitude": "127.2795173053",
    "image": "http://tong.visitkorea.or.kr/cms/resource/95/2752895_image2_1.png",
    "category": "골프"
  },
  {
    "id": "2710899",
    "title": "보광미니골프장",
    "address": "강원특별자치도 속초시 영랑호반길 69-4 (동명동)",
    "phone": "",
    "latitude": "38.2141839403",
    "longitude": "128.5847583476",
    "image": "http://tong.visitkorea.or.kr/cms/resource/91/2732791_image2_1.jpg",
    "category": "골프"
  },
  {
    "id": "131131",
    "title": "보문골프클럽",
    "address": "경상북도 경주시 보문로 182-14 (북군동)",
    "phone": "",
    "latitude": "35.8613002651",
    "longitude": "129.2713035374",
    "image": "http://tong.visitkorea.or.kr/cms/resource/33/3565533_image2_1.jpg",
    "category": "골프"
  },
  {
    "id": "776427",
    "title": "블랙밸리 컨트리클럽",
    "address": "강원특별자치도 삼척시 도계읍 도상로 307-84",
    "phone": "",
    "latitude": "37.2182336089",
    "longitude": "129.0734616519",
    "image": "http://tong.visitkorea.or.kr/cms/resource/57/3569657_image2_1.jpg",
    "category": "골프"
  },
  {
    "id": "988238",
    "title": "블랙스톤 골프클럽",
    "address": "제주특별자치도 제주시 한림읍 한창로 925-122",
    "phone": "",
    "latitude": "33.3377949264",
    "longitude": "126.3124118005",
    "image": "http://tong.visitkorea.or.kr/cms/resource/46/1950546_image2_1.jpg",
    "category": "골프"
  },
  {
    "id": "2763830",
    "title": "블랙스톤리조트이천",
    "address": "경기도 이천시 장호원읍 장여로 459-160",
    "phone": "",
    "latitude": "37.1616043876",
    "longitude": "127.6178967680",
    "image": "http://tong.visitkorea.or.kr/cms/resource/15/2763915_image2_1.png",
    "category": "골프"
  },
  {
    "id": "2761783",
    "title": "블랙스톤벨포레CC",
    "address": "충청북도 증평군 도안면 벨포레길 346",
    "phone": "",
    "latitude": "36.8451985215",
    "longitude": "127.5821367111",
    "image": "http://tong.visitkorea.or.kr/cms/resource/99/2761999_image2_1.jpg",
    "category": "골프"
  },
  {
    "id": "2756614",
    "title": "블루원상주골프리조트",
    "address": "경상북도 상주시 모서면 화현3길 127",
    "phone": "",
    "latitude": "36.3340553187",
    "longitude": "127.9444018878",
    "image": "http://tong.visitkorea.or.kr/cms/resource/60/2756760_image2_1.jpg",
    "category": "골프"
  },
  {
    "id": "131120",
    "title": "블루헤런 골프클럽",
    "address": "경기도 여주시 대신면 고달사로 67",
    "phone": "031-880-0700",
    "latitude": "37.3833986772",
    "longitude": "127.6438047312",
    "image": "",
    "category": "골프"
  },
  {
    "id": "131893",
    "title": "비에이비스타 컨트리클럽",
    "address": "경기도 이천시 모가면 어농로 272",
    "phone": "",
    "latitude": "37.1805707574",
    "longitude": "127.4165699661",
    "image": "",
    "category": "골프"
  },
  {
    "id": "131671",
    "title": "비전힐스 컨트리클럽",
    "address": "경기도 남양주시 화도읍 마치로 226-220",
    "phone": "",
    "latitude": "37.6480167041",
    "longitude": "127.2695977344",
    "image": "",
    "category": "골프"
  },
  {
    "id": "2760195",
    "title": "빅토리아 골프클럽",
    "address": "경기도 여주시 가남읍 송삼로 191",
    "phone": "",
    "latitude": "37.1790665545",
    "longitude": "127.6339448215",
    "image": "http://tong.visitkorea.or.kr/cms/resource/64/2760164_image2_1.jpeg",
    "category": "골프"
  },
  {
    "id": "2763814",
    "title": "사우스스프링스CC",
    "address": "경기도 이천시 모가면 공원로 64",
    "phone": "",
    "latitude": "37.1796075501",
    "longitude": "127.4480421491",
    "image": "http://tong.visitkorea.or.kr/cms/resource/82/2763882_image2_1.png",
    "category": "골프"
  },
  {
    "id": "131566",
    "title": "사이언스대덕골프장",
    "address": "대전광역시 유성구 유성대로1689번길 69",
    "phone": "",
    "latitude": "36.4033458261",
    "longitude": "127.3932047466",
    "image": "http://tong.visitkorea.or.kr/cms/resource/00/1946500_image2_1.jpg",
    "category": "골프"
  },
  {
    "id": "2704780",
    "title": "샌드파인골프클럽(샌드파인GC)",
    "address": "강원특별자치도 강릉시 저동등길 53",
    "phone": "",
    "latitude": "37.7962798865",
    "longitude": "128.8810417584",
    "image": "",
    "category": "골프"
  },
  {
    "id": "2753729",
    "title": "샴발라CC",
    "address": "경기도 포천시 군내면 청군로 2856-93",
    "phone": "",
    "latitude": "37.8715570981",
    "longitude": "127.2553231228",
    "image": "http://tong.visitkorea.or.kr/cms/resource/12/2753712_image2_1.jpg",
    "category": "골프"
  },
  {
    "id": "2771006",
    "title": "서라벌CC",
    "address": "경상북도 경주시 외동읍 내외로 577-189",
    "phone": "",
    "latitude": "35.6945886155",
    "longitude": "129.2768939036",
    "image": "http://tong.visitkorea.or.kr/cms/resource/56/2771256_image2_1.jpg",
    "category": "골프"
  },
  {
    "id": "2769608",
    "title": "서산수골프앤리조트",
    "address": "충청남도 서산시 대산읍 삼길포7로 6",
    "phone": "",
    "latitude": "36.9921280808",
    "longitude": "126.4433161079",
    "image": "http://tong.visitkorea.or.kr/cms/resource/48/2770448_image2_1.jpg",
    "category": "골프"
  },
  {
    "id": "130987",
    "title": "서서울컨트리클럽",
    "address": "경기도 파주시 광탄면 혜음로 324",
    "phone": "",
    "latitude": "37.7262952313",
    "longitude": "126.8927104279",
    "image": "http://tong.visitkorea.or.kr/cms/resource/82/3528082_image2_1.jpg",
    "category": "골프"
  },
  {
    "id": "131666",
    "title": "서원밸리 컨트리클럽",
    "address": "경기도 파주시 광탄면 서원길 333",
    "phone": "",
    "latitude": "37.8165791919",
    "longitude": "126.8947965531",
    "image": "http://tong.visitkorea.or.kr/cms/resource/27/3549027_image2_1.jpg",
    "category": "골프"
  },
  {
    "id": "2750958",
    "title": "서창퍼블릭GC",
    "address": "경기도 광주시 문형산길 56 (신현동)",
    "phone": "",
    "latitude": "37.3626118055",
    "longitude": "127.1642765595",
    "image": "http://tong.visitkorea.or.kr/cms/resource/51/2750951_image2_1.png",
    "category": "골프"
  },
  {
    "id": "3083557",
    "title": "석문체육공원",
    "address": "충청남도 당진시 석문면 교로길 30",
    "phone": "",
    "latitude": "37.0513224604",
    "longitude": "126.5141025280",
    "image": "http://tong.visitkorea.or.kr/cms/resource/51/3083551_image2_1.JPG",
    "category": "골프"
  },
  {
    "id": "2778925",
    "title": "석정힐 CC",
    "address": "전북특별자치도 고창군 고창읍 석정2로 192",
    "phone": "",
    "latitude": "35.4301065205",
    "longitude": "126.7416299989",
    "image": "http://tong.visitkorea.or.kr/cms/resource/15/2781515_image2_1.jpg",
    "category": "골프"
  },
  {
    "id": "131736",
    "title": "선산골프장",
    "address": "경상북도 구미시 산동면 강동로 953-73",
    "phone": "054-473-6200",
    "latitude": "36.1584706056",
    "longitude": "128.4455206290",
    "image": "",
    "category": "골프"
  },
  {
    "id": "131264",
    "title": "설악프라자컨트리클럽",
    "address": "강원특별자치도 속초시 미시령로2983번길 111",
    "phone": "",
    "latitude": "38.2098694575",
    "longitude": "128.5283247210",
    "image": "http://tong.visitkorea.or.kr/cms/resource/08/1947408_image2_1.jpg",
    "category": "골프"
  },
  {
    "id": "2781724",
    "title": "세라지오 컨트리클럽",
    "address": "경기도 여주시 여양로 530 (오금동)",
    "phone": "",
    "latitude": "37.3272691766",
    "longitude": "127.6502807633",
    "image": "http://tong.visitkorea.or.kr/cms/resource/07/2781907_image2_1.jpeg",
    "category": "골프"
  },
  {
    "id": "131979",
    "title": "세레니티CC (구, 실크리버 컨트리클럽)",
    "address": "충청북도 청주시 서원구 남이면 문곡구절골길 235",
    "phone": "043-277-5000",
    "latitude": "36.5456711394",
    "longitude": "127.3905205455",
    "image": "http://tong.visitkorea.or.kr/cms/resource/44/1960744_image2_1.JPG",
    "category": "골프"
  },
  {
    "id": "1031073",
    "title": "세븐밸리 컨트리클럽",
    "address": "경상북도 칠곡군 왜관읍 봉계3길 180",
    "phone": "",
    "latitude": "36.0168731492",
    "longitude": "128.4645367974",
    "image": "http://tong.visitkorea.or.kr/cms/resource/93/2775893_image2_1.jpg",
    "category": "골프"
  },
  {
    "id": "2761694",
    "title": "세일 컨트리클럽",
    "address": "충청북도 충주시 신니면 동락길 207",
    "phone": "",
    "latitude": "37.0199467788",
    "longitude": "127.6758344648",
    "image": "http://tong.visitkorea.or.kr/cms/resource/82/2761682_image2_1.jpg",
    "category": "골프"
  },
  {
    "id": "2758508",
    "title": "세종필드 골프클럽",
    "address": "세종특별자치시 정안세종로 1569",
    "phone": "",
    "latitude": "36.5386335482",
    "longitude": "127.2619294946",
    "image": "http://tong.visitkorea.or.kr/cms/resource/83/2758483_image2_1.jpg",
    "category": "골프"
  },
  {
    "id": "2742113",
    "title": "세현CC",
    "address": "경기도 용인시 처인구 이동읍 백자로 450",
    "phone": "",
    "latitude": "37.1926681258",
    "longitude": "127.1942230734",
    "image": "http://tong.visitkorea.or.kr/cms/resource/68/2786968_image2_1.png",
    "category": "골프"
  },
  {
    "id": "1626128",
    "title": "소노펠리체 컨트리클럽",
    "address": "강원특별자치도 홍천군 서면 한치골길 262",
    "phone": "",
    "latitude": "37.6407750399",
    "longitude": "127.6779191584",
    "image": "http://tong.visitkorea.or.kr/cms/resource/15/1583715_image2_1.jpg",
    "category": "골프"
  },
  {
    "id": "2766469",
    "title": "소피아그린 컨트리클럽",
    "address": "경기도 여주시 점동면 소피아그린길 84",
    "phone": "",
    "latitude": "37.1718214043",
    "longitude": "127.7014611600",
    "image": "http://tong.visitkorea.or.kr/cms/resource/62/2765762_image2_1.jpeg",
    "category": "골프"
  },
  {
    "id": "2769826",
    "title": "솔라고CC",
    "address": "충청남도 태안군 태안읍 기업도시9길 176",
    "phone": "",
    "latitude": "36.6973906244",
    "longitude": "126.3241403116",
    "image": "http://tong.visitkorea.or.kr/cms/resource/08/2770708_image2_1.jpg",
    "category": "골프"
  },
  {
    "id": "130992",
    "title": "솔모로 컨트리클럽",
    "address": "경기도 여주시 가남읍 솔모로그린길 171",
    "phone": "",
    "latitude": "37.1920031159",
    "longitude": "127.5883263478",
    "image": "",
    "category": "골프"
  },
  {
    "id": "2773721",
    "title": "솔트베이GC",
    "address": "경기도 시흥시 마유로 987 (장곡동)",
    "phone": "",
    "latitude": "37.3894823779",
    "longitude": "126.7797885361",
    "image": "http://tong.visitkorea.or.kr/cms/resource/73/2773873_image2_1.jpg",
    "category": "골프"
  },
  {
    "id": "2767803",
    "title": "송도골프클럽",
    "address": "인천광역시 연수구 능허대로 236 (옥련동)",
    "phone": "",
    "latitude": "37.4148632677",
    "longitude": "126.6510828905",
    "image": "http://tong.visitkorea.or.kr/cms/resource/89/2781389_image2_1.jpg",
    "category": "골프"
  },
  {
    "id": "2748835",
    "title": "송추CC",
    "address": "경기도 양주시 광적면 쇠장이길 435",
    "phone": "",
    "latitude": "37.7915296993",
    "longitude": "126.9150898568",
    "image": "http://tong.visitkorea.or.kr/cms/resource/17/2748917_image2_1.jpg",
    "category": "골프"
  },
  {
    "id": "3078246",
    "title": "수원체력단련장",
    "address": "경기도 수원시 권선구 경수대로168번길 77 (권선동)",
    "phone": "",
    "latitude": "37.2455117318",
    "longitude": "127.0234287404",
    "image": "http://tong.visitkorea.or.kr/cms/resource/51/3549151_image2_1.jpg",
    "category": "골프"
  },
  {
    "id": "131662",
    "title": "수원컨트리클럽",
    "address": "경기도 용인시 기흥구 중부대로 495",
    "phone": "",
    "latitude": "37.2813176542",
    "longitude": "127.1203217261",
    "image": "http://tong.visitkorea.or.kr/cms/resource/92/1939992_image2_1.jpg",
    "category": "골프"
  },
  {
    "id": "2756056",
    "title": "스마트KU골프파빌리온",
    "address": "경기도 파주시 법원읍 보광로 1616",
    "phone": "",
    "latitude": "37.8216893024",
    "longitude": "126.8722484704",
    "image": "http://tong.visitkorea.or.kr/cms/resource/42/2756042_image2_1.png",
    "category": "골프"
  },
  {
    "id": "2769569",
    "title": "스타CC",
    "address": "충청북도 충주시 앙성면 상대촌1길 198",
    "phone": "",
    "latitude": "37.0828983763",
    "longitude": "127.7041662340",
    "image": "http://tong.visitkorea.or.kr/cms/resource/66/2771166_image2_1.jpg",
    "category": "골프"
  },
  {
    "id": "2736385",
    "title": "스프링힐스CC",
    "address": "경기도 고양시 일산동구 산황로 108 (산황동)",
    "phone": "",
    "latitude": "37.6562825070",
    "longitude": "126.8126947227",
    "image": "http://tong.visitkorea.or.kr/cms/resource/01/2736501_image2_1.jpg",
    "category": "골프"
  },
  {
    "id": "2769583",
    "title": "시그너스CC",
    "address": "충청북도 충주시 앙성면 중방곡길 57-44",
    "phone": "",
    "latitude": "37.1741968602",
    "longitude": "127.7412408379",
    "image": "http://tong.visitkorea.or.kr/cms/resource/96/2771196_image2_1.jpg",
    "category": "골프"
  },
  {
    "id": "3064991",
    "title": "신동파인힐스",
    "address": "경상북도 칠곡군 지천면 송정원곡길 8",
    "phone": "",
    "latitude": "35.9619351388",
    "longitude": "128.4755817973",
    "image": "http://tong.visitkorea.or.kr/cms/resource/62/3064962_image2_1.jpg",
    "category": "골프"
  },
  {
    "id": "131737",
    "title": "신라컨트리클럽",
    "address": "경기도 여주시 북내면 신라그린길 84",
    "phone": "",
    "latitude": "37.3581524820",
    "longitude": "127.6919149973",
    "image": "",
    "category": "골프"
  },
  {
    "id": "2742078",
    "title": "써닝포인트CC",
    "address": "경기도 용인시 처인구 백암면 고안로51번길 205",
    "phone": "",
    "latitude": "37.1474913021",
    "longitude": "127.4197761674",
    "image": "http://tong.visitkorea.or.kr/cms/resource/71/2750771_image2_1.jpg",
    "category": "골프"
  },
  {
    "id": "231991",
    "title": "썬밸리컨트리클럽",
    "address": "충청북도 음성군 삼성면 범말길 49",
    "phone": "043-881-5307",
    "latitude": "37.0360410918",
    "longitude": "127.4649918965",
    "image": "http://tong.visitkorea.or.kr/cms/resource/42/1847542_image2_1.jpg",
    "category": "골프"
  },
  {
    "id": "577443",
    "title": "썬힐 골프클럽",
    "address": "경기도 가평군 조종면 운악청계로 809",
    "phone": "",
    "latitude": "37.8827159681",
    "longitude": "127.3555914204",
    "image": "http://tong.visitkorea.or.kr/cms/resource/54/3548054_image2_1.jpg",
    "category": "골프"
  },
  {
    "id": "131392",
    "title": "아난티 중앙 골프클럽",
    "address": "충청북도 진천군 백곡면 배티로 818-105",
    "phone": "",
    "latitude": "36.9394277006",
    "longitude": "127.3371144669",
    "image": "http://tong.visitkorea.or.kr/cms/resource/66/1596966_image2_1.jpg",
    "category": "골프"
  },
  {
    "id": "989206",
    "title": "아난티 클럽 제주",
    "address": "제주특별자치도 제주시 구좌읍 선유로 445-55",
    "phone": "",
    "latitude": "33.5205787121",
    "longitude": "126.7386206485",
    "image": "",
    "category": "골프"
  },
  {
    "id": "989722",
    "title": "아델스코트 컨트리클럽",
    "address": "경상남도 합천군 가야면 가조가야로 1916-10",
    "phone": "",
    "latitude": "35.6966552371",
    "longitude": "128.0809600151",
    "image": "",
    "category": "골프"
  },
  {
    "id": "2770228",
    "title": "아리스타CC",
    "address": "충청남도 논산시 연무읍 연무로 810",
    "phone": "",
    "latitude": "36.0876661740",
    "longitude": "127.1306866892",
    "image": "http://tong.visitkorea.or.kr/cms/resource/17/2772017_image2_1.jpg",
    "category": "골프"
  },
  {
    "id": "2766482",
    "title": "아리지CC",
    "address": "경기도 여주시 가남읍 아리지그린길 68",
    "phone": "",
    "latitude": "37.2145256090",
    "longitude": "127.5934724628",
    "image": "http://tong.visitkorea.or.kr/cms/resource/29/2765729_image2_1.jpeg",
    "category": "골프"
  },
  {
    "id": "2756487",
    "title": "아미가골프장",
    "address": "경기도 파주시 동서대로 700",
    "phone": "",
    "latitude": "37.7061034520",
    "longitude": "126.7548902663",
    "image": "http://tong.visitkorea.or.kr/cms/resource/74/2756474_image2_1.jpg",
    "category": "골프"
  },
  {
    "id": "576732",
    "title": "아시아드 컨트리클럽",
    "address": "부산광역시 기장군 일광면 차양길 26",
    "phone": "",
    "latitude": "35.2872281487",
    "longitude": "129.2401863043",
    "image": "http://tong.visitkorea.or.kr/cms/resource/78/2444978_image2_1.jpg",
    "category": "골프"
  },
  {
    "id": "131895",
    "title": "안성베네스트 골프클럽",
    "address": "경기도 안성시 금광면 삼흥로 660",
    "phone": "",
    "latitude": "37.0271017705",
    "longitude": "127.3839633457",
    "image": "http://tong.visitkorea.or.kr/cms/resource/13/1940013_image2_1.jpg",
    "category": "골프"
  },
  {
    "id": "131263",
    "title": "안양컨트리클럽",
    "address": "경기도 군포시 군포로 364",
    "phone": "",
    "latitude": "37.3278062415",
    "longitude": "126.9385813677",
    "image": "http://tong.visitkorea.or.kr/cms/resource/89/1941189_image2_1.jpg",
    "category": "골프"
  },
  {
    "id": "131563",
    "title": "양지 파인골프클럽",
    "address": "경기도 용인시 처인구 남평로 112 양지파인리조트",
    "phone": "",
    "latitude": "37.2263160463",
    "longitude": "127.2948241303",
    "image": "http://tong.visitkorea.or.kr/cms/resource/00/1941200_image2_1.jpg",
    "category": "골프"
  },
  {
    "id": "2755450",
    "title": "양평TPCGC",
    "address": "경기도 양평군 지평면 대평평장길 113-8",
    "phone": "",
    "latitude": "37.4177280458",
    "longitude": "127.6442620309",
    "image": "http://tong.visitkorea.or.kr/cms/resource/88/2755888_image2_1.jpg",
    "category": "골프"
  },
  {
    "id": "2755501",
    "title": "양평파크골프장",
    "address": "경기도 양평군 강상면 진변1길 4",
    "phone": "",
    "latitude": "37.4856311480",
    "longitude": "127.4850328330",
    "image": "http://tong.visitkorea.or.kr/cms/resource/00/2755900_image2_1.jpg",
    "category": "골프"
  },
  {
    "id": "2750365",
    "title": "에덴블루CC",
    "address": "경기도 안성시 죽산면 녹배길 175",
    "phone": "",
    "latitude": "37.0640141947",
    "longitude": "127.3848233428",
    "image": "http://tong.visitkorea.or.kr/cms/resource/56/2750356_image2_1.png",
    "category": "골프"
  },
  {
    "id": "131514",
    "title": "에딘버러컨트리클럽",
    "address": "충청남도 금산군 진산면 살구정길 167",
    "phone": "",
    "latitude": "36.1528510527",
    "longitude": "127.3262952669",
    "image": "http://tong.visitkorea.or.kr/cms/resource/85/1963285_image2_1.jpg",
    "category": "골프"
  },
  {
    "id": "989242",
    "title": "에버리스골프리조트",
    "address": "제주특별자치도 제주시 애월읍 평화로 1693-75",
    "phone": "",
    "latitude": "33.3782551238",
    "longitude": "126.3621038003",
    "image": "http://tong.visitkorea.or.kr/cms/resource/64/1950564_image2_1.jpg",
    "category": "골프"
  },
  {
    "id": "250473",
    "title": "엘리시안 강촌 컨트리클럽",
    "address": "강원특별자치도 춘천시 남산면 북한강변길 688",
    "phone": "033-260-2000",
    "latitude": "37.8167862599",
    "longitude": "127.5879388398",
    "image": "http://tong.visitkorea.or.kr/cms/resource/06/1583506_image2_1.jpg",
    "category": "골프"
  },
  {
    "id": "653140",
    "title": "엘리시안 골프 제주",
    "address": "제주특별자치도 제주시 애월읍 평화로 1738-116",
    "phone": "",
    "latitude": "33.3714422694",
    "longitude": "126.3799246266",
    "image": "http://tong.visitkorea.or.kr/cms/resource/77/1950577_image2_1.jpg",
    "category": "골프"
  },
  {
    "id": "2766465",
    "title": "여주썬밸리CC",
    "address": "경기도 여주시 강천면 강문로 872",
    "phone": "",
    "latitude": "37.2718493308",
    "longitude": "127.7333748520",
    "image": "http://tong.visitkorea.or.kr/cms/resource/52/2765652_image2_1.jpeg",
    "category": "골프"
  },
  {
    "id": "131261",
    "title": "여주컨트리클럽",
    "address": "경기도 여주시 월평로 78 (월송동)",
    "phone": "",
    "latitude": "37.2774935778",
    "longitude": "127.6067833475",
    "image": "http://tong.visitkorea.or.kr/cms/resource/23/3549423_image2_1.jpg",
    "category": "골프"
  },
  {
    "id": "2772310",
    "title": "영천오펠GC",
    "address": "경상북도 영천시 고경면 호국로 1221-24",
    "phone": "",
    "latitude": "36.0093378309",
    "longitude": "129.0578152727",
    "image": "http://tong.visitkorea.or.kr/cms/resource/74/2772674_image2_1.jpg",
    "category": "골프"
  },
  {
    "id": "131268",
    "title": "오라컨트리클럽",
    "address": "제주특별자치도 제주시 오라남로 130-16",
    "phone": "",
    "latitude": "33.4482081134",
    "longitude": "126.5132502034",
    "image": "http://tong.visitkorea.or.kr/cms/resource/74/2476674_image2_1.jpg",
    "category": "골프"
  },
  {
    "id": "2767812",
    "title": "오렌지듄스 GC",
    "address": "인천광역시 연수구 인천신항대로 1120",
    "phone": "",
    "latitude": "37.3540498453",
    "longitude": "126.5920010669",
    "image": "http://tong.visitkorea.or.kr/cms/resource/79/2790179_image2_1.jpg",
    "category": "골프"
  },
  {
    "id": "3511610",
    "title": "오르비스GC",
    "address": "울산광역시 울주군 온양읍 남창로 813-70",
    "phone": "",
    "latitude": "35.4478997464",
    "longitude": "129.2795339554",
    "image": "http://tong.visitkorea.or.kr/cms/resource/31/3511531_image2_1.jpg",
    "category": "골프"
  },
  {
    "id": "2756498",
    "title": "오성골프클럽",
    "address": "경기도 파주시 운정4길 221",
    "phone": "",
    "latitude": "37.7144223166",
    "longitude": "126.7767352557",
    "image": "http://tong.visitkorea.or.kr/cms/resource/62/2756462_image2_1.jpg",
    "category": "골프"
  },
  {
    "id": "2770952",
    "title": "오션비치골프앤리조트",
    "address": "경상북도 영덕군 강구면 동해대로 4265-43",
    "phone": "",
    "latitude": "36.3402146737",
    "longitude": "129.3739278712",
    "image": "http://tong.visitkorea.or.kr/cms/resource/03/2771303_image2_1.jpg",
    "category": "골프"
  },
  {
    "id": "2769513",
    "title": "오창 에딘버러CC",
    "address": "충청북도 청주시 청원구 오창읍 두릉유리로 846",
    "phone": "",
    "latitude": "36.7367276545",
    "longitude": "127.4278841513",
    "image": "http://tong.visitkorea.or.kr/cms/resource/70/2770970_image2_1.jpg",
    "category": "골프"
  },
  {
    "id": "131726",
    "title": "오크밸리CC",
    "address": "강원특별자치도 원주시 지정면 오크밸리2길 58",
    "phone": "",
    "latitude": "37.4057326010",
    "longitude": "127.8158885215",
    "image": "http://tong.visitkorea.or.kr/cms/resource/12/1947712_image2_1.jpg",
    "category": "골프"
  },
  {
    "id": "637442",
    "title": "오투리조트 골프장",
    "address": "강원특별자치도 태백시 서학로 861 (황지동)",
    "phone": "",
    "latitude": "37.1706144431",
    "longitude": "128.9486575719",
    "image": "http://tong.visitkorea.or.kr/cms/resource/42/3550042_image2_1.jpg",
    "category": "골프"
  },
  {
    "id": "1030627",
    "title": "옥스필드컨트리클럽",
    "address": "강원특별자치도 횡성군 서원면 경강로유현6길 28",
    "phone": "033-340-7700",
    "latitude": "37.5233139274",
    "longitude": "127.8422965878",
    "image": "",
    "category": "골프"
  },
  {
    "id": "2769598",
    "title": "올데이 골프앤리조트",
    "address": "충청북도 충주시 앙성면 비내길 189",
    "phone": "",
    "latitude": "37.1086274876",
    "longitude": "127.7871608019",
    "image": "http://tong.visitkorea.or.kr/cms/resource/44/2771244_image2_1.jpg",
    "category": "골프"
  },
  {
    "id": "131890",
    "title": "올데이청주떼제베",
    "address": "충청북도 청주시 흥덕구 옥산면 동림2길 149",
    "phone": "",
    "latitude": "36.6673143442",
    "longitude": "127.3249897561",
    "image": "http://tong.visitkorea.or.kr/cms/resource/08/1847508_image2_1.jpg",
    "category": "골프"
  },
  {
    "id": "131609",
    "title": "올림픽컨트리클럽",
    "address": "경기도 고양시 덕양구 혜음로 301 (벽제동)",
    "phone": "",
    "latitude": "37.7244010111",
    "longitude": "126.8929326835",
    "image": "",
    "category": "골프"
  },
  {
    "id": "131652",
    "title": "용원컨트리클럽",
    "address": "경상남도 창원시 진해구 가주로 133",
    "phone": "055-552-0080",
    "latitude": "35.1136232496",
    "longitude": "128.8236995469",
    "image": "",
    "category": "골프"
  },
  {
    "id": "131762",
    "title": "용평 나인골프클럽",
    "address": "강원특별자치도 평창군 대관령면 올림픽로 715",
    "phone": "1522-3111",
    "latitude": "37.6472433786",
    "longitude": "128.6878554142",
    "image": "http://tong.visitkorea.or.kr/cms/resource/71/1847271_image2_1.jpg",
    "category": "골프"
  },
  {
    "id": "130989",
    "title": "용평골프클럽",
    "address": "강원특별자치도 평창군 대관령면 올림픽로 715",
    "phone": "1522-3111",
    "latitude": "37.6456188436",
    "longitude": "128.7021986165",
    "image": "http://tong.visitkorea.or.kr/cms/resource/80/1846680_image2_1.jpg",
    "category": "골프"
  },
  {
    "id": "2769786",
    "title": "우정힐스CC",
    "address": "충청남도 천안시 동남구 목천읍 충절로 1048-68",
    "phone": "",
    "latitude": "36.7697757464",
    "longitude": "127.2228933432",
    "image": "http://tong.visitkorea.or.kr/cms/resource/80/2770680_image2_1.jpg",
    "category": "골프"
  },
  {
    "id": "131382",
    "title": "울산 컨트리클럽",
    "address": "울산광역시 울주군 웅촌면 웅촌로 1",
    "phone": "052-225-0707~9",
    "latitude": "35.4415154014",
    "longitude": "129.1871810750",
    "image": "",
    "category": "골프"
  },
  {
    "id": "130981",
    "title": "유성컨트리클럽",
    "address": "대전광역시 유성구 현충원로 200",
    "phone": "",
    "latitude": "36.3536830181",
    "longitude": "127.2902486406",
    "image": "http://tong.visitkorea.or.kr/cms/resource/09/1946509_image2_1.jpg",
    "category": "골프"
  },
  {
    "id": "131660",
    "title": "은화삼컨트리클럽",
    "address": "경기도 용인시 처인구 백옥대로 860-38",
    "phone": "",
    "latitude": "37.2153548361",
    "longitude": "127.2189479750",
    "image": "http://tong.visitkorea.or.kr/cms/resource/17/1941217_image2_1.jpg",
    "category": "골프"
  },
  {
    "id": "1030782",
    "title": "이븐데일 컨트리클럽",
    "address": "충청북도 청주시 상당구 미원면 대신2길 31",
    "phone": "",
    "latitude": "36.6829980992",
    "longitude": "127.6036559758",
    "image": "http://tong.visitkorea.or.kr/cms/resource/66/1847566_image2_1.jpg",
    "category": "골프"
  },
  {
    "id": "2764316",
    "title": "이천실크밸리GC",
    "address": "경기도 이천시 율면 임오산로 296",
    "phone": "",
    "latitude": "37.0887424118",
    "longitude": "127.5664812552",
    "image": "http://tong.visitkorea.or.kr/cms/resource/65/2764365_image2_1.png",
    "category": "골프"
  },
  {
    "id": "2765434",
    "title": "이포 컨트리클럽",
    "address": "경기도 여주시 금사면 장흥로 416",
    "phone": "",
    "latitude": "37.3925254948",
    "longitude": "127.4974732718",
    "image": "http://tong.visitkorea.or.kr/cms/resource/15/2767015_image2_1.jpeg",
    "category": "골프"
  },
  {
    "id": "2757125",
    "title": "인서울27 골프클럽",
    "address": "서울특별시 강서구 오쇠동",
    "phone": "",
    "latitude": "37.5469532693",
    "longitude": "126.7964131765",
    "image": "http://tong.visitkorea.or.kr/cms/resource/15/2787315_image2_1.jpg",
    "category": "골프"
  },
  {
    "id": "2781611",
    "title": "인천그랜드CC",
    "address": "인천광역시 서구 원석로 195 (원창동)",
    "phone": "",
    "latitude": "37.5130294669",
    "longitude": "126.6414671533",
    "image": "http://tong.visitkorea.or.kr/cms/resource/70/2790470_image2_1.jpg",
    "category": "골프"
  },
  {
    "id": "2769602",
    "title": "일레븐CC",
    "address": "충청북도 충주시 앙성면 본평리",
    "phone": "",
    "latitude": "37.0892510011",
    "longitude": "127.7358187576",
    "image": "http://tong.visitkorea.or.kr/cms/resource/52/2771252_image2_1.jpg",
    "category": "골프"
  },
  {
    "id": "2754432",
    "title": "자유로CC",
    "address": "경기도 연천군 백학면 노아로297번길 179-55",
    "phone": "",
    "latitude": "37.9974980299",
    "longitude": "126.9536581865",
    "image": "http://tong.visitkorea.or.kr/cms/resource/64/3549064_image2_1.png",
    "category": "골프"
  },
  {
    "id": "2778089",
    "title": "잭니클라우스GC코리아",
    "address": "인천광역시 연수구 아카데미로 209",
    "phone": "",
    "latitude": "37.3816109903",
    "longitude": "126.6179646070",
    "image": "http://tong.visitkorea.or.kr/cms/resource/98/2790598_image2_1.jpg",
    "category": "골프"
  },
  {
    "id": "2778930",
    "title": "전주샹그릴라CC",
    "address": "전북특별자치도 임실군 신덕면 수지로 559-90",
    "phone": "",
    "latitude": "35.6947428099",
    "longitude": "127.2080623452",
    "image": "http://tong.visitkorea.or.kr/cms/resource/67/2781567_image2_1.png",
    "category": "골프"
  },
  {
    "id": "752497",
    "title": "제이퍼블릭컨트리클럽",
    "address": "경기도 파주시 조리읍 장곡로 100",
    "phone": "",
    "latitude": "37.7497416376",
    "longitude": "126.8446308239",
    "image": "http://tong.visitkorea.or.kr/cms/resource/44/3533044_image2_1.jpg",
    "category": "골프"
  },
  {
    "id": "131658",
    "title": "제일컨트리클럽",
    "address": "경기도 안산시 상록구 태마당로 28",
    "phone": "",
    "latitude": "37.3291187436",
    "longitude": "126.8691487534",
    "image": "http://tong.visitkorea.or.kr/cms/resource/60/1589660_image2_1.jpg",
    "category": "골프"
  },
  {
    "id": "2770074",
    "title": "젠스필드CC",
    "address": "충청북도 음성군 삼성면 덕호로 382",
    "phone": "",
    "latitude": "37.0419302271",
    "longitude": "127.5160565706",
    "image": "http://tong.visitkorea.or.kr/cms/resource/70/2770370_image2_1.jpg",
    "category": "골프"
  },
  {
    "id": "2746390",
    "title": "조일프라자골프클럽",
    "address": "경기도 용인시 처인구 지삼로 470 (삼가동)",
    "phone": "",
    "latitude": "37.2349708871",
    "longitude": "127.1564030900",
    "image": "http://tong.visitkorea.or.kr/cms/resource/78/2746578_image2_1.jpg",
    "category": "골프"
  },
  {
    "id": "131708",
    "title": "중문골프클럽",
    "address": "제주특별자치도 서귀포시 중문관광로72번길 60 (색달동)",
    "phone": "",
    "latitude": "33.2501588629",
    "longitude": "126.4063028265",
    "image": "http://tong.visitkorea.or.kr/cms/resource/92/2607292_image2_1.bmp",
    "category": "골프"
  },
  {
    "id": "2769616",
    "title": "중원GC",
    "address": "충청북도 충주시 산척면 인등로 392",
    "phone": "",
    "latitude": "37.0690998076",
    "longitude": "127.9974041350",
    "image": "http://tong.visitkorea.or.kr/cms/resource/82/2771282_image2_1.jpg",
    "category": "골프"
  },
  {
    "id": "2746451",
    "title": "지산CC",
    "address": "경기도 용인시 처인구 원삼면 죽양대로2000번길 60",
    "phone": "",
    "latitude": "37.2141347166",
    "longitude": "127.3278020451",
    "image": "http://tong.visitkorea.or.kr/cms/resource/95/2746595_image2_1.jpg",
    "category": "골프"
  },
  {
    "id": "130980",
    "title": "지산컨트리클럽",
    "address": "경기도 용인시 처인구 원삼면 죽양대로2000번길 60",
    "phone": "",
    "latitude": "37.2131903992",
    "longitude": "127.3288158683",
    "image": "http://tong.visitkorea.or.kr/cms/resource/38/1941238_image2_1.jpg",
    "category": "골프"
  },
  {
    "id": "1030828",
    "title": "진양밸리 골프클럽",
    "address": "충청북도 음성군 삼성면 금일로 1195",
    "phone": "043-880-8000",
    "latitude": "37.0332692246",
    "longitude": "127.4669390212",
    "image": "",
    "category": "골프"
  },
  {
    "id": "2753740",
    "title": "참밸리컨트리클럽",
    "address": "경기도 포천시 삼육사로 1982 (설운동)",
    "phone": "",
    "latitude": "37.8668943575",
    "longitude": "127.1361230377",
    "image": "http://tong.visitkorea.or.kr/cms/resource/29/2932329_image2_1.jpg",
    "category": "골프"
  },
  {
    "id": "131267",
    "title": "창원컨트리클럽",
    "address": "경상남도 창원시 의창구 대봉로 137",
    "phone": "055-288-4114",
    "latitude": "35.2603955404",
    "longitude": "128.6641289409",
    "image": "",
    "category": "골프"
  },
  {
    "id": "131391",
    "title": "천룡컨트리클럽",
    "address": "충청북도 진천군 이월면 진안로 347-123",
    "phone": "043-536-1001~5",
    "latitude": "36.9474165620",
    "longitude": "127.3867625465",
    "image": "http://tong.visitkorea.or.kr/cms/resource/00/1847300_image2_1.jpg",
    "category": "골프"
  },
  {
    "id": "2758445",
    "title": "천안 상록골프장",
    "address": "충청남도 천안시 동남구 수신면 수신로 576",
    "phone": "",
    "latitude": "36.7405136249",
    "longitude": "127.2890937464",
    "image": "http://tong.visitkorea.or.kr/cms/resource/64/2758664_image2_1.jpg",
    "category": "골프"
  },
  {
    "id": "131269",
    "title": "캐슬렉스제주 골프클럽",
    "address": "제주특별자치도 서귀포시 안덕면 평화로 1241",
    "phone": "",
    "latitude": "33.3402563388",
    "longitude": "126.3488696895",
    "image": "http://tong.visitkorea.or.kr/cms/resource/07/3402907_image2_1.jpg",
    "category": "골프"
  },
  {
    "id": "578603",
    "title": "캐슬파인 골프클럽",
    "address": "경기도 여주시 강천면 부평로 580",
    "phone": "",
    "latitude": "37.3023487537",
    "longitude": "127.7425648099",
    "image": "http://tong.visitkorea.or.kr/cms/resource/27/3549427_image2_1.jpg",
    "category": "골프"
  },
  {
    "id": "131657",
    "title": "코리아 컨트리클럽",
    "address": "경기도 용인시 처인구 기흥단지로 579 코리아CC",
    "phone": "",
    "latitude": "37.2206224462",
    "longitude": "127.1507595593",
    "image": "http://tong.visitkorea.or.kr/cms/resource/21/3549221_image2_1.jpg",
    "category": "골프"
  },
  {
    "id": "2746695",
    "title": "코리아퍼블릭CC",
    "address": "경기도 용인시 기흥구 기흥단지로 224 (고매동)",
    "phone": "",
    "latitude": "37.2239159462",
    "longitude": "127.1193289816",
    "image": "http://tong.visitkorea.or.kr/cms/resource/02/2746602_image2_1.jpg",
    "category": "골프"
  },
  {
    "id": "2770065",
    "title": "코스카CC",
    "address": "충청북도 음성군 음성읍 동음로 318",
    "phone": "",
    "latitude": "36.9318753678",
    "longitude": "127.6211168808",
    "image": "http://tong.visitkorea.or.kr/cms/resource/71/2770371_image2_1.jpg",
    "category": "골프"
  },
  {
    "id": "131558",
    "title": "코오롱가든골프장",
    "address": "경상북도 경주시 불국로 289-17",
    "phone": "",
    "latitude": "35.7878567283",
    "longitude": "129.3217262187",
    "image": "",
    "category": "골프"
  },
  {
    "id": "131649",
    "title": "크라운컨트리클럽",
    "address": "제주특별자치도 제주시 조천읍 북선로 125",
    "phone": "064-784-4811",
    "latitude": "33.5284188131",
    "longitude": "126.6952159042",
    "image": "http://tong.visitkorea.or.kr/cms/resource/90/3577190_image2_1.jpg",
    "category": "골프"
  },
  {
    "id": "578731",
    "title": "크리스탈밸리",
    "address": "경기도 가평군 상면 대보간선로 602-111",
    "phone": "",
    "latitude": "37.7939630669",
    "longitude": "127.3912490915",
    "image": "http://tong.visitkorea.or.kr/cms/resource/66/3548066_image2_1.jpg",
    "category": "골프"
  },
  {
    "id": "2770322",
    "title": "클럽디 보은",
    "address": "충청북도 보은군 보은읍 장속중초로 386",
    "phone": "",
    "latitude": "36.5097278630",
    "longitude": "127.6905613372",
    "image": "http://tong.visitkorea.or.kr/cms/resource/58/2772158_image2_1.jpg",
    "category": "골프"
  },
  {
    "id": "2769692",
    "title": "클럽디속리산",
    "address": "충청북도 보은군 탄부면 평각상장로 230",
    "phone": "",
    "latitude": "36.4488585597",
    "longitude": "127.7741000023",
    "image": "http://tong.visitkorea.or.kr/cms/resource/24/2770924_image2_1.jpg",
    "category": "골프"
  },
  {
    "id": "2769626",
    "title": "킹스데일골프클럽",
    "address": "충청북도 충주시 주덕읍 기업도시3로 2",
    "phone": "",
    "latitude": "37.0174801918",
    "longitude": "127.8164218856",
    "image": "http://tong.visitkorea.or.kr/cms/resource/93/2771293_image2_1.JPG",
    "category": "골프"
  },
  {
    "id": "2769839",
    "title": "킹즈락CC",
    "address": "충청북도 제천시 내토로7길 136",
    "phone": "",
    "latitude": "37.1384229711",
    "longitude": "128.1784691896",
    "image": "http://tong.visitkorea.or.kr/cms/resource/70/2769970_image2_1.jpg",
    "category": "골프"
  },
  {
    "id": "2756513",
    "title": "타이거CC",
    "address": "경기도 파주시 법원읍 술이홀로 1803",
    "phone": "",
    "latitude": "37.9227946127",
    "longitude": "126.8966600073",
    "image": "http://tong.visitkorea.or.kr/cms/resource/41/2756441_image2_1.jpg",
    "category": "골프"
  },
  {
    "id": "577206",
    "title": "태광 컨트리클럽",
    "address": "경기도 용인시 기흥구 흥덕4로 77 (신갈동)",
    "phone": "",
    "latitude": "37.2815837341",
    "longitude": "127.0893161980",
    "image": "http://tong.visitkorea.or.kr/cms/resource/46/3549246_image2_1.jpg",
    "category": "골프"
  },
  {
    "id": "131672",
    "title": "티클라우드 컨트리클럽",
    "address": "경기도 동두천시 평화로 3202 (하봉암동)",
    "phone": "",
    "latitude": "37.9678511739",
    "longitude": "127.0892605104",
    "image": "",
    "category": "골프"
  },
  {
    "id": "2770757",
    "title": "파라지오CC",
    "address": "경상북도 의성군 봉양면 농공마전길 167",
    "phone": "",
    "latitude": "36.2934572451",
    "longitude": "128.5531433991",
    "image": "http://tong.visitkorea.or.kr/cms/resource/18/2770818_image2_1.jpg",
    "category": "골프"
  },
  {
    "id": "131865",
    "title": "파인리즈컨트리클럽",
    "address": "강원특별자치도 고성군 토성면 잼버리동로 267",
    "phone": "",
    "latitude": "38.2432768586",
    "longitude": "128.5376117238",
    "image": "http://tong.visitkorea.or.kr/cms/resource/67/1581467_image2_1.jpg",
    "category": "골프"
  },
  {
    "id": "2756074",
    "title": "파인빌골프클럽",
    "address": "경기도 파주시 탄현면 새오리로 250-1",
    "phone": "",
    "latitude": "37.8041742042",
    "longitude": "126.6904433934",
    "image": "http://tong.visitkorea.or.kr/cms/resource/04/2756204_image2_1.png",
    "category": "골프"
  },
  {
    "id": "2770222",
    "title": "파인스톤CC",
    "address": "충청남도 당진시 송산면 무수들길 90",
    "phone": "",
    "latitude": "36.9645240559",
    "longitude": "126.6674326371",
    "image": "http://tong.visitkorea.or.kr/cms/resource/69/2772069_image2_1.jpg",
    "category": "골프"
  },
  {
    "id": "131667",
    "title": "파인크리크 컨트리클럽",
    "address": "경기도 안성시 양성면 안성맞춤대로 2417-13",
    "phone": "",
    "latitude": "37.1035902467",
    "longitude": "127.2340941833",
    "image": "http://tong.visitkorea.or.kr/cms/resource/88/3549088_image2_1.jpg",
    "category": "골프"
  },
  {
    "id": "2757466",
    "title": "파주CC",
    "address": "경기도 파주시 법원읍 화합로 306",
    "phone": "",
    "latitude": "37.8481339354",
    "longitude": "126.8997785285",
    "image": "http://tong.visitkorea.or.kr/cms/resource/03/2757503_image2_1.jpg",
    "category": "골프"
  },
  {
    "id": "2757432",
    "title": "파주리조트골프클럽(PAJU Resort Golf Club)",
    "address": "경기도 파주시 교하로 1097-33",
    "phone": "",
    "latitude": "37.7408126477",
    "longitude": "126.7184981708",
    "image": "http://tong.visitkorea.or.kr/cms/resource/15/2757515_image2_1.jpg",
    "category": "골프"
  },
  {
    "id": "131367",
    "title": "파크밸리골프클럽",
    "address": "강원특별자치도 원주시 소초면 바우실길 281",
    "phone": "",
    "latitude": "37.3889243218",
    "longitude": "128.0131045339",
    "image": "http://tong.visitkorea.or.kr/cms/resource/44/1947744_image2_1.jpg",
    "category": "골프"
  },
  {
    "id": "131571",
    "title": "팔공컨트리클럽",
    "address": "대구광역시 동구 팔공산로237길 186",
    "phone": "053-982-8080~5",
    "latitude": "35.9900392803",
    "longitude": "128.7215981981",
    "image": "http://tong.visitkorea.or.kr/cms/resource/66/1970166_image2_1.jpg",
    "category": "골프"
  },
  {
    "id": "2768116",
    "title": "페럼클럽CC",
    "address": "경기도 여주시 점동면 점동로 181",
    "phone": "",
    "latitude": "37.2045422284",
    "longitude": "127.6796844098",
    "image": "http://tong.visitkorea.or.kr/cms/resource/27/2768327_image2_1.jpg",
    "category": "골프"
  },
  {
    "id": "2753756",
    "title": "포레스트힐CC",
    "address": "경기도 포천시 화현면 봉화로 253",
    "phone": "",
    "latitude": "37.8737183188",
    "longitude": "127.2750823663",
    "image": "http://tong.visitkorea.or.kr/cms/resource/86/2753686_image2_1.jpg",
    "category": "골프"
  },
  {
    "id": "2750354",
    "title": "포웰CC 안성",
    "address": "경기도 안성시 양성면 약산길 67-6",
    "phone": "",
    "latitude": "37.1176307781",
    "longitude": "127.2611830079",
    "image": "http://tong.visitkorea.or.kr/cms/resource/48/2750348_image2_1.png",
    "category": "골프"
  },
  {
    "id": "131668",
    "title": "포천아도니스CC",
    "address": "경기도 포천시 신북면 포천로 2499",
    "phone": "",
    "latitude": "37.9652389748",
    "longitude": "127.1652758506",
    "image": "",
    "category": "골프"
  },
  {
    "id": "1030591",
    "title": "포천힐스컨트리클럽",
    "address": "경기도 포천시 군내면 반월산성로375번길 34",
    "phone": "",
    "latitude": "37.8864660225",
    "longitude": "127.2307277138",
    "image": "http://tong.visitkorea.or.kr/cms/resource/07/3565707_image2_1.jpg",
    "category": "골프"
  },
  {
    "id": "2770242",
    "title": "포항CC",
    "address": "경상북도 포항시 북구 송라면 동해대로2751번길 126",
    "phone": "",
    "latitude": "36.2239050373",
    "longitude": "129.3421924021",
    "image": "http://tong.visitkorea.or.kr/cms/resource/64/2771664_image2_1.jpg",
    "category": "골프"
  },
  {
    "id": "1030151",
    "title": "푸른솔 골프클럽 포천",
    "address": "경기도 포천시 가산면 금우로 276",
    "phone": "",
    "latitude": "37.8414518966",
    "longitude": "127.2347508762",
    "image": "http://tong.visitkorea.or.kr/cms/resource/09/3549009_image2_1.jpg",
    "category": "골프"
  },
  {
    "id": "2770232",
    "title": "프린세스GC",
    "address": "충청남도 공주시 정안면 방자들길 81-50",
    "phone": "",
    "latitude": "36.6475434727",
    "longitude": "127.1167173530",
    "image": "http://tong.visitkorea.or.kr/cms/resource/88/2771988_image2_1.jpg",
    "category": "골프"
  },
  {
    "id": "131902",
    "title": "필로스 골프클럽",
    "address": "경기도 포천시 일동면 운악청계로 1507",
    "phone": "",
    "latitude": "37.9332874546",
    "longitude": "127.3338808125",
    "image": "",
    "category": "골프"
  },
  {
    "id": "131867",
    "title": "하이원 컨트리클럽",
    "address": "강원특별자치도 정선군 사북읍 하이원길 265",
    "phone": "",
    "latitude": "37.2115877814",
    "longitude": "128.8182402232",
    "image": "http://tong.visitkorea.or.kr/cms/resource/93/3582093_image2_1.jpg",
    "category": "골프"
  },
  {
    "id": "782905",
    "title": "한라산컨트리클럽",
    "address": "제주특별자치도 제주시 선돌목동길 56-46",
    "phone": "",
    "latitude": "33.4442146132",
    "longitude": "126.5448419945",
    "image": "http://tong.visitkorea.or.kr/cms/resource/50/1950650_image2_1.jpg",
    "category": "골프"
  },
  {
    "id": "2747700",
    "title": "한림술뫼파크골프장",
    "address": "경상남도 김해시 한림면 한림로 738",
    "phone": "",
    "latitude": "35.3386221121",
    "longitude": "128.7750254558",
    "image": "",
    "category": "골프"
  },
  {
    "id": "2750428",
    "title": "한림안성CC",
    "address": "경기도 안성시 양성면 양성로 349-61",
    "phone": "",
    "latitude": "37.0853889744",
    "longitude": "127.2008115900",
    "image": "http://tong.visitkorea.or.kr/cms/resource/55/2750355_image2_1.png",
    "category": "골프"
  },
  {
    "id": "131568",
    "title": "한림용인 컨트리클럽",
    "address": "경기도 용인시 처인구 남사읍 경기동로 628",
    "phone": "",
    "latitude": "37.1418350550",
    "longitude": "127.1910025661",
    "image": "http://tong.visitkorea.or.kr/cms/resource/78/3565878_image2_1.jpg",
    "category": "골프"
  },
  {
    "id": "2737293",
    "title": "한성CC",
    "address": "경기도 용인시 기흥구 구교동로 151",
    "phone": "",
    "latitude": "37.3070924972",
    "longitude": "127.1231290804",
    "image": "http://tong.visitkorea.or.kr/cms/resource/09/2737409_image2_1.jpg",
    "category": "골프"
  },
  {
    "id": "131576",
    "title": "한성컨트리클럽",
    "address": "경기도 용인시 기흥구 구교동로 151",
    "phone": "",
    "latitude": "37.3070924972",
    "longitude": "127.1231290804",
    "image": "http://tong.visitkorea.or.kr/cms/resource/57/1941257_image2_1.jpg",
    "category": "골프"
  },
  {
    "id": "2782100",
    "title": "한양파인CC",
    "address": "경기도 고양시 덕양구 고양대로 1591 (성사동)",
    "phone": "",
    "latitude": "37.6485814499",
    "longitude": "126.8588073956",
    "image": "http://tong.visitkorea.or.kr/cms/resource/98/2782298_image2_1.png",
    "category": "골프"
  },
  {
    "id": "131569",
    "title": "한화리조트 플라자CC 용인",
    "address": "경기도 용인시 처인구 남사읍 봉무로153번길 79",
    "phone": "",
    "latitude": "37.1297884382",
    "longitude": "127.1470957655",
    "image": "http://tong.visitkorea.or.kr/cms/resource/01/3549201_image2_1.JPG",
    "category": "골프"
  },
  {
    "id": "2770768",
    "title": "해내다CC",
    "address": "경상북도 경산시 삼성현로 614-26 (평산동)",
    "phone": "",
    "latitude": "35.8001421498",
    "longitude": "128.7658690690",
    "image": "http://tong.visitkorea.or.kr/cms/resource/92/2771492_image2_1.jpg",
    "category": "골프"
  },
  {
    "id": "2746691",
    "title": "해솔리아CC",
    "address": "경기도 용인시 처인구 이동읍 백자로297번길 74",
    "phone": "",
    "latitude": "37.2070106824",
    "longitude": "127.1814488276",
    "image": "http://tong.visitkorea.or.kr/cms/resource/98/2746598_image2_1.jpg",
    "category": "골프"
  },
  {
    "id": "2774310",
    "title": "해슬리나인브릿지CC",
    "address": "경기도 여주시 명품1로 76 (연라동)",
    "phone": "",
    "latitude": "37.2474999566",
    "longitude": "127.6141668724",
    "image": "http://tong.visitkorea.or.kr/cms/resource/38/2774338_image2_1.jpeg",
    "category": "골프"
  },
  {
    "id": "131575",
    "title": "화산컨트리클럽",
    "address": "경기도 용인시 처인구 이동읍 화산로 239",
    "phone": "",
    "latitude": "37.1545621286",
    "longitude": "127.2336927919",
    "image": "http://tong.visitkorea.or.kr/cms/resource/73/1941273_image2_1.jpg",
    "category": "골프"
  },
  {
    "id": "2747215",
    "title": "화성GC",
    "address": "경기도 화성시 남양읍 화성로 1393-27",
    "phone": "",
    "latitude": "37.2234387143",
    "longitude": "126.8348048076",
    "image": "http://tong.visitkorea.or.kr/cms/resource/60/2747260_image2_1.jpg",
    "category": "골프"
  },
  {
    "id": "2747222",
    "title": "화성상록GC",
    "address": "경기도 화성시 풀무골로60번길 80 (중동)",
    "phone": "",
    "latitude": "37.1971359639",
    "longitude": "127.1334284540",
    "image": "http://tong.visitkorea.or.kr/cms/resource/68/2747268_image2_1.jpg",
    "category": "골프"
  },
  {
    "id": "131791",
    "title": "휘닉스 컨트리클럽",
    "address": "강원특별자치도 평창군 봉평면 태기로 174",
    "phone": "",
    "latitude": "37.5801079869",
    "longitude": "128.3196434257",
    "image": "http://tong.visitkorea.or.kr/cms/resource/59/1813459_image2_1.jpg",
    "category": "골프"
  },
  {
    "id": "131792",
    "title": "휘닉스 태기산CC",
    "address": "강원특별자치도 평창군 봉평면 태기로 174",
    "phone": "",
    "latitude": "37.5801079869",
    "longitude": "128.3196434257",
    "image": "http://tong.visitkorea.or.kr/cms/resource/43/1813443_image2_1.jpg",
    "category": "골프"
  },
  {
    "id": "2769737",
    "title": "히든밸리GC",
    "address": "충청북도 진천군 백곡면 소토골길 61",
    "phone": "",
    "latitude": "36.9023259758",
    "longitude": "127.3123788399",
    "image": "http://tong.visitkorea.or.kr/cms/resource/28/2769828_image2_1.jpg",
    "category": "골프"
  },
  {
    "id": "131556",
    "title": "123골프클럽",
    "address": "경기도 고양시 덕양구 통일로 43-168 (동산동)",
    "phone": "",
    "latitude": "37.6415858977",
    "longitude": "126.9066698913",
    "image": "",
    "category": "골프"
  },
  {
    "id": "2781685",
    "title": "360도 컨트리클럽",
    "address": "경기도 여주시 강천면 부평리",
    "phone": "",
    "latitude": "37.2976520329",
    "longitude": "127.7403207032",
    "image": "http://tong.visitkorea.or.kr/cms/resource/28/2781828_image2_1.jpeg",
    "category": "골프"
  },
  {
    "id": "130983",
    "title": "88컨트리클럽",
    "address": "경기도 용인시 기흥구 석성로521번길 169 (청덕동)",
    "phone": "",
    "latitude": "37.2959500628",
    "longitude": "127.1632285342",
    "image": "http://tong.visitkorea.or.kr/cms/resource/57/3565457_image2_1.JPG",
    "category": "골프"
  },
  {
    "id": "130979",
    "title": "H1 컨트리클럽",
    "address": "경기도 이천시 호법면 장자터로 115",
    "phone": "",
    "latitude": "37.1882529635",
    "longitude": "127.4033681644",
    "image": "http://tong.visitkorea.or.kr/cms/resource/51/1956951_image2_1.jpg",
    "category": "골프"
  },
  {
    "id": "2769741",
    "title": "SG아름다운골프앤리조트",
    "address": "충청남도 아산시 영인면 영인산로 440",
    "phone": "",
    "latitude": "36.8463171016",
    "longitude": "126.9186575687",
    "image": "http://tong.visitkorea.or.kr/cms/resource/76/2770476_image2_1.jpg",
    "category": "골프"
  }
]