[
  {
    "id": "131970",
    "title": "강사랑래프팅",
    "address": "강원특별자치도 영월군 영월읍 동강로 878",
    "phone": "033-375-6926",
    "latitude": "37.2366374137",
    "longitude": "128.5133779016",
    "image": "http://tong.visitkorea.or.kr/cms/resource/56/1822156_image2_1.jpg",
    "category": "래프팅"
  },
  {
    "id": "131853",
    "title": "경호강래프팅",
    "address": "경상남도 산청군 산청읍 꽃봉산로34번길 77",
    "phone": "055-972-2002",
    "latitude": "35.4105587415",
    "longitude": "127.8661282674",
    "image": "http://tong.visitkorea.or.kr/cms/resource/23/1611423_image2_1.jpg",
    "category": "래프팅"
  },
  {
    "id": "131787",
    "title": "남한강 래프팅(단양)",
    "address": "충청북도 단양군 영춘면 강변로 704",
    "phone": "",
    "latitude": "37.0872735337",
    "longitude": "128.4866152711",
    "image": "http://tong.visitkorea.or.kr/cms/resource/52/1846552_image2_1.jpg",
    "category": "래프팅"
  },
  {
    "id": "131776",
    "title": "내린천 래프팅",
    "address": "강원특별자치도 인제군 인제읍 내린천로 6211",
    "phone": "",
    "latitude": "38.0431160103",
    "longitude": "128.2067618712",
    "image": "http://tong.visitkorea.or.kr/cms/resource/53/3502853_image2_1.jpg",
    "category": "래프팅"
  },
  {
    "id": "2615452",
    "title": "내린천 수변공원",
    "address": "강원특별자치도 인제군 인제읍 내린천로 5693",
    "phone": "",
    "latitude": "38.0099454896",
    "longitude": "128.2392543756",
    "image": "http://tong.visitkorea.or.kr/cms/resource/80/3375980_image2_1.JPG",
    "category": "래프팅"
  },
  {
    "id": "131774",
    "title": "동강 래프팅(영월)",
    "address": "강원특별자치도 영월군 영월읍 제방안길",
    "phone": "033-370-2946",
    "latitude": "37.1959002553",
    "longitude": "128.5038327432",
    "image": "http://tong.visitkorea.or.kr/cms/resource/00/1822100_image2_1.jpg",
    "category": "래프팅"
  },
  {
    "id": "131778",
    "title": "동강 래프팅(정선)",
    "address": "강원특별자치도 정선군 정선읍",
    "phone": "",
    "latitude": "37.3032764016",
    "longitude": "128.6298487995",
    "image": "http://tong.visitkorea.or.kr/cms/resource/14/1822114_image2_1.jpg",
    "category": "래프팅"
  },
  {
    "id": "2605318",
    "title": "동강 래프팅(평창)",
    "address": "강원특별자치도 평창군 미탄면 마하리",
    "phone": "",
    "latitude": "37.2858854076",
    "longitude": "128.5600611370",
    "image": "http://tong.visitkorea.or.kr/cms/resource/70/3000170_image2_1.jpg",
    "category": "래프팅"
  },
  {
    "id": "131941",
    "title": "동강드림래프팅",
    "address": "강원특별자치도 영월군 영월읍 어라연길 48",
    "phone": "1899-3168",
    "latitude": "37.2346793779",
    "longitude": "128.5171803963",
    "image": "http://tong.visitkorea.or.kr/cms/resource/51/1947351_image2_1.jpg",
    "category": "래프팅"
  },
  {
    "id": "1922424",
    "title": "모아레벤트",
    "address": "경상남도 합천군 용주면 합천호수로 828-5",
    "phone": "",
    "latitude": "35.5468943839",
    "longitude": "128.0803557687",
    "image": "",
    "category": "래프팅"
  },
  {
    "id": "131961",
    "title": "무주래프팅",
    "address": "전북특별자치도 무주군 무주읍 잠두길 5-11",
    "phone": "",
    "latitude": "35.9982292071",
    "longitude": "127.6073716053",
    "image": "",
    "category": "래프팅"
  },
  {
    "id": "3017810",
    "title": "빠지에빠지다수상레저",
    "address": "강원특별자치도 춘천시 남산면 방하로 567",
    "phone": "",
    "latitude": "37.7826780806",
    "longitude": "127.5319504938",
    "image": "http://tong.visitkorea.or.kr/cms/resource/19/3017719_image2_1.jpg",
    "category": "래프팅"
  },
  {
    "id": "131854",
    "title": "사람과바다 래프팅",
    "address": "경상남도 산청군 산청읍 웅석봉로86번길 9-5",
    "phone": "055-974-2000",
    "latitude": "35.4098894804",
    "longitude": "127.8722138602",
    "image": "http://tong.visitkorea.or.kr/cms/resource/96/2383596_image2_1.jpg",
    "category": "래프팅"
  },
  {
    "id": "131962",
    "title": "산청경호강래프팅",
    "address": "경상남도 산청군 산청읍 꽃봉산로34번길 77",
    "phone": "",
    "latitude": "35.4115808384",
    "longitude": "127.8655949540",
    "image": "",
    "category": "래프팅"
  },
  {
    "id": "131781",
    "title": "설악레저스쿨(원더비치)",
    "address": "강원특별자치도 고성군 죽왕면 봉수대길 10-22",
    "phone": "1544-9562",
    "latitude": "38.3225174137",
    "longitude": "128.5267741186",
    "image": "",
    "category": "래프팅"
  },
  {
    "id": "3002185",
    "title": "섬진강 래프팅 투어",
    "address": "전라남도 구례군 남도대교로 412",
    "phone": "",
    "latitude": "35.2011024884",
    "longitude": "127.5883970845",
    "image": "",
    "category": "래프팅"
  },
  {
    "id": "2787114",
    "title": "섬진강곡성래프팅",
    "address": "전라남도 곡성군 고달면 가정마을길 51",
    "phone": "",
    "latitude": "35.2279095621",
    "longitude": "127.3696656674",
    "image": "http://tong.visitkorea.or.kr/cms/resource/12/2789612_image2_1.jpg",
    "category": "래프팅"
  },
  {
    "id": "2787129",
    "title": "섬진레저스쿨래프팅",
    "address": "전라남도 구례군 남도대교로 412",
    "phone": "",
    "latitude": "35.2011024884",
    "longitude": "127.5883970845",
    "image": "http://tong.visitkorea.or.kr/cms/resource/02/2790402_image2_1.jpg",
    "category": "래프팅"
  },
  {
    "id": "131931",
    "title": "수달레저",
    "address": "강원특별자치도 영월군 영월읍 동강로 871-11",
    "phone": "033-374-1783",
    "latitude": "37.2357152663",
    "longitude": "128.5117364096",
    "image": "http://tong.visitkorea.or.kr/cms/resource/46/1822146_image2_1.jpg",
    "category": "래프팅"
  },
  {
    "id": "3064957",
    "title": "수상레저브이(수상레저V)",
    "address": "강원특별자치도 춘천시 남산면 방하로 487",
    "phone": "",
    "latitude": "37.7773038231",
    "longitude": "127.5383250708",
    "image": "http://tong.visitkorea.or.kr/cms/resource/45/3064945_image2_1.jpg",
    "category": "래프팅"
  },
  {
    "id": "131971",
    "title": "썸머쿨래프팅",
    "address": "강원특별자치도 영월군 영월읍 동강로 241",
    "phone": "033-372-1412",
    "latitude": "37.2018385101",
    "longitude": "128.5064184469",
    "image": "http://tong.visitkorea.or.kr/cms/resource/03/1947703_image2_1.jpg",
    "category": "래프팅"
  },
  {
    "id": "131963",
    "title": "연대천래프팅",
    "address": "강원특별자치도 영월군 영월읍 섭새길 59",
    "phone": "",
    "latitude": "37.2319712562",
    "longitude": "128.5119059502",
    "image": "http://tong.visitkorea.or.kr/cms/resource/26/1846426_image2_1.jpg",
    "category": "래프팅"
  },
  {
    "id": "131945",
    "title": "영월동강삼성래프팅",
    "address": "강원특별자치도 영월군 영월읍 동강로 245-4",
    "phone": "",
    "latitude": "37.2022690107",
    "longitude": "128.5061434589",
    "image": "http://tong.visitkorea.or.kr/cms/resource/02/3394602_image2_1.JPG",
    "category": "래프팅"
  },
  {
    "id": "131929",
    "title": "태용래프팅",
    "address": "강원특별자치도 영월군 영월읍 동강로 871-18",
    "phone": "033-374-1444",
    "latitude": "37.2359957950",
    "longitude": "128.5119919334",
    "image": "http://tong.visitkorea.or.kr/cms/resource/31/1822131_image2_1.jpg",
    "category": "래프팅"
  },
  {
    "id": "131773",
    "title": "한탄강 래프팅",
    "address": "강원특별자치도 철원군 갈말읍 삼부연로",
    "phone": "",
    "latitude": "38.1468538192",
    "longitude": "127.3134347336",
    "image": "http://tong.visitkorea.or.kr/cms/resource/67/1846567_image2_1.jpg",
    "category": "래프팅"
  },
  {
    "id": "3074861",
    "title": "홍천강래프팅",
    "address": "강원특별자치도 홍천군 서면 한치골길 972",
    "phone": "",
    "latitude": "37.6951414152",
    "longitude": "127.7029125174",
    "image": "http://tong.visitkorea.or.kr/cms/resource/66/3550066_image2_1.jpg",
    "category": "래프팅"
  },
  {
    "id": "2782608",
    "title": "화성해양아카데미연구회",
    "address": "경기도 화성시 서신면 전곡항로 5",
    "phone": "",
    "latitude": "37.1855009838",
    "longitude": "126.6510892088",
    "image": "http://tong.visitkorea.or.kr/cms/resource/70/2786770_image2_1.jpg",
    "category": "래프팅"
  }
]