[
  {
    "id": "2752670",
    "title": "가산낚시터 (구 우금저수지)",
    "address": "경기도 포천시 가산면 우금길 13-32",
    "phone": "",
    "latitude": "37.8253839198",
    "longitude": "127.2126089189",
    "image": "http://tong.visitkorea.or.kr/cms/resource/15/2752815_image2_1.jpg",
    "category": "민물낚시"
  },
  {
    "id": "2767699",
    "title": "각평낚시터",
    "address": "경기도 이천시 마장면 덕이로154번길 273",
    "phone": "",
    "latitude": "37.2392467362",
    "longitude": "127.3849461639",
    "image": "http://tong.visitkorea.or.kr/cms/resource/18/2767818_image2_1.jpg",
    "category": "민물낚시"
  },
  {
    "id": "2756569",
    "title": "감악산낚시터레저타운",
    "address": "경기도 파주시 적성면 감골길 48",
    "phone": "",
    "latitude": "37.9118746691",
    "longitude": "126.9523135563",
    "image": "http://tong.visitkorea.or.kr/cms/resource/01/2759101_image2_1.jpg",
    "category": "민물낚시"
  },
  {
    "id": "1516091",
    "title": "강화도 황청낚시터",
    "address": "인천광역시 강화군 내가면 황청포구로443번길 82",
    "phone": "",
    "latitude": "37.7141928345",
    "longitude": "126.3647035503",
    "image": "http://tong.visitkorea.or.kr/cms/resource/76/3042376_image2_1.jpg",
    "category": "민물낚시"
  },
  {
    "id": "2702318",
    "title": "거두리낚시터",
    "address": "강원특별자치도 춘천시 동내면 거두길 282-8",
    "phone": "",
    "latitude": "37.8605293558",
    "longitude": "127.7888942589",
    "image": "http://tong.visitkorea.or.kr/cms/resource/10/3382310_image2_1.JPG",
    "category": "민물낚시"
  },
  {
    "id": "2753942",
    "title": "거청낚시터",
    "address": "경기도 안성시 대덕면 배꽃길 16",
    "phone": "",
    "latitude": "37.0258493408",
    "longitude": "127.2407679731",
    "image": "http://tong.visitkorea.or.kr/cms/resource/73/2763873_image2_1.png",
    "category": "민물낚시"
  },
  {
    "id": "2768226",
    "title": "검단수로",
    "address": "인천광역시 서구 오류동 1460",
    "phone": "",
    "latitude": "37.5904168234",
    "longitude": "126.5926277920",
    "image": "http://tong.visitkorea.or.kr/cms/resource/70/3565470_image2_1.jpg",
    "category": "민물낚시"
  },
  {
    "id": "131064",
    "title": "경천호",
    "address": "경상북도 문경시 동로면 인곡리",
    "phone": "054-552-2517",
    "latitude": "36.7078470772",
    "longitude": "128.3096226748",
    "image": "http://tong.visitkorea.or.kr/cms/resource/43/3517043_image2_1.jpg",
    "category": "민물낚시"
  },
  {
    "id": "131037",
    "title": "경포저수지",
    "address": "강원특별자치도 강릉시 죽헌동",
    "phone": "",
    "latitude": "37.7793091906",
    "longitude": "128.8586193047",
    "image": "http://tong.visitkorea.or.kr/cms/resource/66/3516866_image2_1.jpg",
    "category": "민물낚시"
  },
  {
    "id": "131052",
    "title": "계룡저수지",
    "address": "충청남도 공주시 계룡면 하대리",
    "phone": "041-840-8850",
    "latitude": "36.3580467675",
    "longitude": "127.1531163587",
    "image": "http://tong.visitkorea.or.kr/cms/resource/13/3396413_image2_1.jpg",
    "category": "민물낚시"
  },
  {
    "id": "2773302",
    "title": "고담낚시터",
    "address": "경기도 이천시 진상미로2192번길 217 (고담동)",
    "phone": "",
    "latitude": "37.2384010042",
    "longitude": "127.4616725815",
    "image": "http://tong.visitkorea.or.kr/cms/resource/66/2773366_image2_1.jpg",
    "category": "민물낚시"
  },
  {
    "id": "131376",
    "title": "고산낚시터",
    "address": "강원특별자치도 원주시 호저면 호저로 1140",
    "phone": "033-731-4151",
    "latitude": "37.4668440870",
    "longitude": "127.9175830999",
    "image": "",
    "category": "민물낚시"
  },
  {
    "id": "2747240",
    "title": "고잔낚시터",
    "address": "경기도 화성시 양감면 서해로51번길 24-12",
    "phone": "",
    "latitude": "37.0681580581",
    "longitude": "126.9127075841",
    "image": "http://tong.visitkorea.or.kr/cms/resource/22/2747322_image2_1.jpg",
    "category": "민물낚시"
  },
  {
    "id": "2757537",
    "title": "고재낚시터",
    "address": "경기도 양평군 지평면 고재길 108",
    "phone": "",
    "latitude": "37.4274928835",
    "longitude": "127.6062540793",
    "image": "http://tong.visitkorea.or.kr/cms/resource/21/2757721_image2_1.jpg",
    "category": "민물낚시"
  },
  {
    "id": "131342",
    "title": "고초골낚시터",
    "address": "경기도 용인시 처인구 원삼면 이원로913번길 19-2",
    "phone": "",
    "latitude": "37.1567655586",
    "longitude": "127.2841020589",
    "image": "http://tong.visitkorea.or.kr/cms/resource/89/3058089_image2_1.jpg",
    "category": "민물낚시"
  },
  {
    "id": "131856",
    "title": "고풍저수지",
    "address": "충청남도 서산시 운산면 고풍리",
    "phone": "",
    "latitude": "36.7894486955",
    "longitude": "126.6028126510",
    "image": "http://tong.visitkorea.or.kr/cms/resource/35/3560035_image2_1.jpg",
    "category": "민물낚시"
  },
  {
    "id": "2751256",
    "title": "과림낚시터",
    "address": "경기도 시흥시 과림저수지길 79 (과림동)",
    "phone": "",
    "latitude": "37.4531536068",
    "longitude": "126.8272879895",
    "image": "http://tong.visitkorea.or.kr/cms/resource/90/2762590_image2_1.jpg",
    "category": "민물낚시"
  },
  {
    "id": "2747226",
    "title": "관리낚시터",
    "address": "경기도 화성시 향남읍 발안로 341",
    "phone": "",
    "latitude": "37.1329428068",
    "longitude": "126.9449973149",
    "image": "",
    "category": "민물낚시"
  },
  {
    "id": "131799",
    "title": "관흥지민물낚시(수동 제1저수지)",
    "address": "전라남도 장흥군 관산읍 수동길",
    "phone": "061-860-0602",
    "latitude": "34.5053945362",
    "longitude": "126.9358690770",
    "image": "",
    "category": "민물낚시"
  },
  {
    "id": "2746703",
    "title": "광탄낚시터",
    "address": "경기도 파주시 광탄면 부흥로 194-42",
    "phone": "",
    "latitude": "37.8006777864",
    "longitude": "126.8679911263",
    "image": "http://tong.visitkorea.or.kr/cms/resource/33/2746633_image2_1.jpg",
    "category": "민물낚시"
  },
  {
    "id": "2768048",
    "title": "구래낚시터",
    "address": "경기도 김포시 양촌읍 김포한강8로 100-59",
    "phone": "",
    "latitude": "37.6299713784",
    "longitude": "126.6393974117",
    "image": "http://tong.visitkorea.or.kr/cms/resource/87/2772587_image2_1.jpg",
    "category": "민물낚시"
  },
  {
    "id": "1615657",
    "title": "국화지낚시터",
    "address": "인천광역시 강화군 강화읍 국화길 51",
    "phone": "010-3448-6783",
    "latitude": "37.7473741130",
    "longitude": "126.4680820355",
    "image": "http://tong.visitkorea.or.kr/cms/resource/61/1575661_image2_1.jpg",
    "category": "민물낚시"
  },
  {
    "id": "2783661",
    "title": "군자낚시터",
    "address": "경기도 시흥시 시흥대로 216-18 (군자동)",
    "phone": "",
    "latitude": "37.3597418832",
    "longitude": "126.8079395797",
    "image": "http://tong.visitkorea.or.kr/cms/resource/70/2783870_image2_1.jpeg",
    "category": "민물낚시"
  },
  {
    "id": "2764900",
    "title": "금곡낚시터",
    "address": "경기도 파주시 법원읍 술이홀로1372번길 347",
    "phone": "",
    "latitude": "37.8926397264",
    "longitude": "126.8926390188",
    "image": "http://tong.visitkorea.or.kr/cms/resource/39/2765039_image2_1.jpg",
    "category": "민물낚시"
  },
  {
    "id": "2751249",
    "title": "금이낚시터",
    "address": "경기도 시흥시 금이진말길 159 (금이동)",
    "phone": "",
    "latitude": "37.3991460277",
    "longitude": "126.8295087410",
    "image": "http://tong.visitkorea.or.kr/cms/resource/23/2761323_image2_1.jpg",
    "category": "민물낚시"
  },
  {
    "id": "2702249",
    "title": "금천낚시터",
    "address": "강원특별자치도 태백시 금천길 159",
    "phone": "",
    "latitude": "37.0939352562",
    "longitude": "128.9953529312",
    "image": "http://tong.visitkorea.or.kr/cms/resource/95/3397395_image2_1.JPG",
    "category": "민물낚시"
  },
  {
    "id": "2752678",
    "title": "길명낚시공원",
    "address": "경기도 포천시 일동면 영일로 316",
    "phone": "",
    "latitude": "37.9474011145",
    "longitude": "127.2596649597",
    "image": "http://tong.visitkorea.or.kr/cms/resource/28/2752828_image2_1.jpg",
    "category": "민물낚시"
  },
  {
    "id": "2755854",
    "title": "길상낚시터",
    "address": "인천광역시 강화군 길상면 초지로 453",
    "phone": "",
    "latitude": "37.6245528757",
    "longitude": "126.4996186818",
    "image": "",
    "category": "민물낚시"
  },
  {
    "id": "2757130",
    "title": "길정 낚시터",
    "address": "인천광역시 강화군 양도면 고려왕릉로 209",
    "phone": "",
    "latitude": "37.6638171566",
    "longitude": "126.4661845393",
    "image": "http://tong.visitkorea.or.kr/cms/resource/41/3566241_image2_1.jpg",
    "category": "민물낚시"
  },
  {
    "id": "2747730",
    "title": "까치양어장",
    "address": "경기도 시흥시 수인로2107번길 146 (조남동)",
    "phone": "",
    "latitude": "37.3674559154",
    "longitude": "126.8664229326",
    "image": "http://tong.visitkorea.or.kr/cms/resource/66/2747866_image2_1.jpg",
    "category": "민물낚시"
  },
  {
    "id": "2758134",
    "title": "남창낚시터(남창지)",
    "address": "충청남도 천안시 서북구 성거읍 보명사길 62",
    "phone": "",
    "latitude": "36.8612592247",
    "longitude": "127.1984346924",
    "image": "",
    "category": "민물낚시"
  },
  {
    "id": "131293",
    "title": "남한강",
    "address": "충청북도 충주시 엄정면 목계리",
    "phone": "",
    "latitude": "37.0753497633",
    "longitude": "127.8836197407",
    "image": "http://tong.visitkorea.or.kr/cms/resource/69/3521169_image2_1.jpg",
    "category": "민물낚시"
  },
  {
    "id": "2770039",
    "title": "내곡낚시터",
    "address": "충청북도 음성군 금왕읍 호수마을길 78",
    "phone": "",
    "latitude": "37.0169807354",
    "longitude": "127.5386330175",
    "image": "http://tong.visitkorea.or.kr/cms/resource/00/2770200_image2_1.jpg",
    "category": "민물낚시"
  },
  {
    "id": "2752684",
    "title": "내촌낚시터",
    "address": "경기도 포천시 내촌면 내진로30번길 64",
    "phone": "",
    "latitude": "37.7873635514",
    "longitude": "127.2238256627",
    "image": "http://tong.visitkorea.or.kr/cms/resource/30/2752830_image2_1.jpg",
    "category": "민물낚시"
  },
  {
    "id": "2747380",
    "title": "노진낚시터",
    "address": "경기도 화성시 장안면 남양황라로 188-55",
    "phone": "",
    "latitude": "37.0221366346",
    "longitude": "126.8139983447",
    "image": "http://tong.visitkorea.or.kr/cms/resource/94/2747394_image2_1.jpg",
    "category": "민물낚시"
  },
  {
    "id": "2762898",
    "title": "늘푸른낚시터",
    "address": "경기도 남양주시 별내면 청학로48번길 29-13",
    "phone": "",
    "latitude": "37.7066016950",
    "longitude": "127.1241287512",
    "image": "",
    "category": "민물낚시"
  },
  {
    "id": "131058",
    "title": "능제저수지",
    "address": "전북특별자치도 김제시 만경읍 장산리",
    "phone": "063-540-3601",
    "latitude": "35.8416001031",
    "longitude": "126.8275090753",
    "image": "http://tong.visitkorea.or.kr/cms/resource/83/3559383_image2_1.jpg",
    "category": "민물낚시"
  },
  {
    "id": "2747382",
    "title": "당골낚시터",
    "address": "경기도 화성시 장안면 물골길 193-39",
    "phone": "",
    "latitude": "37.0556114497",
    "longitude": "126.8653955486",
    "image": "http://tong.visitkorea.or.kr/cms/resource/38/3031638_image2_1.JPG",
    "category": "민물낚시"
  },
  {
    "id": "131590",
    "title": "당진 오봉제",
    "address": "충청남도 당진시 신평면",
    "phone": "041-360-8544",
    "latitude": "36.8724638115",
    "longitude": "126.7446448085",
    "image": "http://tong.visitkorea.or.kr/cms/resource/31/3347931_image2_1.JPG",
    "category": "민물낚시"
  },
  {
    "id": "131599",
    "title": "당진 초대리지",
    "address": "충청남도 당진시 신평면 새내큰말길",
    "phone": "041-360-8501",
    "latitude": "36.9027352443",
    "longitude": "126.7404332581",
    "image": "http://tong.visitkorea.or.kr/cms/resource/76/3347876_image2_1.JPG",
    "category": "민물낚시"
  },
  {
    "id": "131292",
    "title": "대덕저수지",
    "address": "충청북도 충주시 노은면 대덕길 122",
    "phone": "043-853-9332",
    "latitude": "37.0584985562",
    "longitude": "127.7121606539",
    "image": "http://tong.visitkorea.or.kr/cms/resource/02/1959702_image2_1.jpg",
    "category": "민물낚시"
  },
  {
    "id": "2758372",
    "title": "대동 낚시터",
    "address": "충청남도 아산시 음봉면 송촌리",
    "phone": "",
    "latitude": "36.8487496445",
    "longitude": "127.0471153503",
    "image": "http://tong.visitkorea.or.kr/cms/resource/62/2758562_image2_1.jpg",
    "category": "민물낚시"
  },
  {
    "id": "2758029",
    "title": "대명낚시터",
    "address": "경기도 양평군 단월면 소부록길 35",
    "phone": "",
    "latitude": "37.5687388789",
    "longitude": "127.6740216175",
    "image": "http://tong.visitkorea.or.kr/cms/resource/14/2758414_image2_1.jpg",
    "category": "민물낚시"
  },
  {
    "id": "2764903",
    "title": "대석낚시터",
    "address": "경기도 양평군 강상면 강남로 1811",
    "phone": "",
    "latitude": "37.4269405931",
    "longitude": "127.4777268508",
    "image": "http://tong.visitkorea.or.kr/cms/resource/40/2764940_image2_1.jpg",
    "category": "민물낚시"
  },
  {
    "id": "131479",
    "title": "대율저수지",
    "address": "전북특별자치도 김제시 금구면 대화리",
    "phone": "063-540-3611",
    "latitude": "35.7887124369",
    "longitude": "127.0331698950",
    "image": "http://tong.visitkorea.or.kr/cms/resource/25/3536225_image2_1.jpg",
    "category": "민물낚시"
  },
  {
    "id": "131040",
    "title": "대청호(청주)",
    "address": "충청북도 청주시 상당구 문의면 대청호반로 206",
    "phone": "042-930-7204",
    "latitude": "36.4796664905",
    "longitude": "127.4843917225",
    "image": "http://tong.visitkorea.or.kr/cms/resource/95/3573195_image2_1.jpg",
    "category": "민물낚시"
  },
  {
    "id": "2758020",
    "title": "덕봉낚시터",
    "address": "경기도 안성시 양성면 덕봉서원로 601-76",
    "phone": "",
    "latitude": "37.0532674595",
    "longitude": "127.1883386132",
    "image": "http://tong.visitkorea.or.kr/cms/resource/16/2758316_image2_1.png",
    "category": "민물낚시"
  },
  {
    "id": "131296",
    "title": "덕삼지",
    "address": "충청남도 당진시 정미면 덕삼리",
    "phone": "",
    "latitude": "36.8388528113",
    "longitude": "126.5280208734",
    "image": "http://tong.visitkorea.or.kr/cms/resource/26/3567526_image2_1.jpg",
    "category": "민물낚시"
  },
  {
    "id": "2758366",
    "title": "덕송지 수상 풍차 낚시터",
    "address": "충청남도 서산시 팔봉면 한재무두리1길 5-24",
    "phone": "",
    "latitude": "36.8331529964",
    "longitude": "126.3393742292",
    "image": "http://tong.visitkorea.or.kr/cms/resource/31/2758531_image2_1.jpg",
    "category": "민물낚시"
  },
  {
    "id": "131032",
    "title": "덕우저수지",
    "address": "경기도 화성시 봉담읍 유리",
    "phone": "031-298-9116",
    "latitude": "37.1711519599",
    "longitude": "126.9272145357",
    "image": "http://tong.visitkorea.or.kr/cms/resource/83/1860983_image2_1.jpg",
    "category": "민물낚시"
  },
  {
    "id": "2758019",
    "title": "독정낚시터",
    "address": "경기도 안성시 원곡면 원당로 108",
    "phone": "",
    "latitude": "37.0396518649",
    "longitude": "127.1603970735",
    "image": "http://tong.visitkorea.or.kr/cms/resource/35/2758335_image2_1.png",
    "category": "민물낚시"
  },
  {
    "id": "2756079",
    "title": "동교낚시터",
    "address": "경기도 포천시 원동교길 259 (동교동)",
    "phone": "",
    "latitude": "37.8505210139",
    "longitude": "127.1222719991",
    "image": "http://tong.visitkorea.or.kr/cms/resource/21/2756221_image2_1.jpg",
    "category": "민물낚시"
  },
  {
    "id": "2753982",
    "title": "두메낚시터",
    "address": "경기도 안성시 죽산면 두메호수로 90",
    "phone": "",
    "latitude": "37.0094684945",
    "longitude": "127.4283959434",
    "image": "http://tong.visitkorea.or.kr/cms/resource/97/2764197_image2_1.png",
    "category": "민물낚시"
  },
  {
    "id": "2752716",
    "title": "마전낚시터",
    "address": "경기도 포천시 가산면 마전길 129-1",
    "phone": "",
    "latitude": "37.8491256222",
    "longitude": "127.2139414421",
    "image": "http://tong.visitkorea.or.kr/cms/resource/94/2752894_image2_1.jpg",
    "category": "민물낚시"
  },
  {
    "id": "2758429",
    "title": "마정 낚시터",
    "address": "충청남도 천안시 서북구 직산읍 금곡로 176",
    "phone": "",
    "latitude": "36.8744892819",
    "longitude": "127.0999515433",
    "image": "http://tong.visitkorea.or.kr/cms/resource/42/2758642_image2_1.jpg",
    "category": "민물낚시"
  },
  {
    "id": "2741611",
    "title": "만정낚시터",
    "address": "경기도 안성시 공도읍 만수동길 53-8",
    "phone": "",
    "latitude": "37.0175659329",
    "longitude": "127.1832261797",
    "image": "http://tong.visitkorea.or.kr/cms/resource/77/2744677_image2_1.png",
    "category": "민물낚시"
  },
  {
    "id": "131043",
    "title": "맹동저수지",
    "address": "충청북도 음성군 맹동면 군자길 1492",
    "phone": "043-877-8008",
    "latitude": "36.8942899040",
    "longitude": "127.5714974013",
    "image": "http://tong.visitkorea.or.kr/cms/resource/96/3064396_image2_1.JPG",
    "category": "민물낚시"
  },
  {
    "id": "131253",
    "title": "면천낚시터",
    "address": "충청남도 당진시 면천면 면천로 844-5",
    "phone": "",
    "latitude": "36.8111392223",
    "longitude": "126.6811688714",
    "image": "http://tong.visitkorea.or.kr/cms/resource/38/3567538_image2_1.jpg",
    "category": "민물낚시"
  },
  {
    "id": "131398",
    "title": "명암낚시터",
    "address": "충청북도 제천시 봉양읍 명암로 243",
    "phone": "043-651-5566",
    "latitude": "37.1694489853",
    "longitude": "128.1265896148",
    "image": "http://tong.visitkorea.or.kr/cms/resource/83/1846683_image2_1.jpg",
    "category": "민물낚시"
  },
  {
    "id": "2753952",
    "title": "명인낚시터",
    "address": "경기도 안성시 원곡면 새울길 87-12",
    "phone": "",
    "latitude": "37.0355987057",
    "longitude": "127.1128125988",
    "image": "http://tong.visitkorea.or.kr/cms/resource/41/2764341_image2_1.png",
    "category": "민물낚시"
  },
  {
    "id": "131582",
    "title": "모항저수지",
    "address": "충청남도 태안군 소원면 모항리",
    "phone": "041-670-2852",
    "latitude": "36.7642490170",
    "longitude": "126.1282090854",
    "image": "http://tong.visitkorea.or.kr/cms/resource/99/3553299_image2_1.jpg",
    "category": "민물낚시"
  },
  {
    "id": "2749565",
    "title": "묵리낚시터",
    "address": "경기도 용인시 처인구 이동읍 이원로 375",
    "phone": "",
    "latitude": "37.1757290965",
    "longitude": "127.2320145721",
    "image": "http://tong.visitkorea.or.kr/cms/resource/38/2749538_image2_1.jpg",
    "category": "민물낚시"
  },
  {
    "id": "2736395",
    "title": "문봉낚시터",
    "address": "경기도 고양시 일산동구 성현로268번길 138 (문봉동)",
    "phone": "",
    "latitude": "37.6998497089",
    "longitude": "126.8156071141",
    "image": "http://tong.visitkorea.or.kr/cms/resource/86/2736486_image2_1.jpg",
    "category": "민물낚시"
  },
  {
    "id": "131763",
    "title": "반산저수지",
    "address": "충청남도 부여군 규암면 호반로",
    "phone": "041-835-1997",
    "latitude": "36.2775061491",
    "longitude": "126.8438184541",
    "image": "http://tong.visitkorea.or.kr/cms/resource/40/3038940_image2_1.JPG",
    "category": "민물낚시"
  },
  {
    "id": "2758016",
    "title": "반제낚시터",
    "address": "경기도 안성시 원곡면 반제호수길 90",
    "phone": "",
    "latitude": "37.0212651832",
    "longitude": "127.1651443774",
    "image": "http://tong.visitkorea.or.kr/cms/resource/42/2758342_image2_1.png",
    "category": "민물낚시"
  },
  {
    "id": "2751702",
    "title": "밤밭낚시터",
    "address": "경기도 포천시 가산면 포천로912번길 143-94",
    "phone": "",
    "latitude": "37.8428318983",
    "longitude": "127.2132111365",
    "image": "http://tong.visitkorea.or.kr/cms/resource/98/2751698_image2_1.jpg",
    "category": "민물낚시"
  },
  {
    "id": "2767542",
    "title": "배양낚시터",
    "address": "경기도 남양주시 진건읍 고재로191번길 64-17",
    "phone": "",
    "latitude": "37.6387496314",
    "longitude": "127.1879721003",
    "image": "http://tong.visitkorea.or.kr/cms/resource/68/2768268_image2_1.jpg",
    "category": "민물낚시"
  },
  {
    "id": "131844",
    "title": "백곡저수지낚시터",
    "address": "충청북도 진천군 진천읍 백곡로 1140-4",
    "phone": "043-539-7646",
    "latitude": "36.8718060195",
    "longitude": "127.3975914578",
    "image": "http://tong.visitkorea.or.kr/cms/resource/87/3064587_image2_1.JPG",
    "category": "민물낚시"
  },
  {
    "id": "2736379",
    "title": "백두산낚시터",
    "address": "경기도 고양시 덕양구 서리골길36번길 158-7 (선유동)",
    "phone": "",
    "latitude": "37.6869084588",
    "longitude": "126.9098849787",
    "image": "http://tong.visitkorea.or.kr/cms/resource/80/2764380_image2_1.JPG",
    "category": "민물낚시"
  },
  {
    "id": "2747715",
    "title": "백용낚시터",
    "address": "경기도 고양시 일산동구 감내길 73-11 (성석동)",
    "phone": "",
    "latitude": "37.7136530671",
    "longitude": "126.7826430706",
    "image": "http://tong.visitkorea.or.kr/cms/resource/15/2747815_image2_1.jpg",
    "category": "민물낚시"
  },
  {
    "id": "2744502",
    "title": "보물섬낚시터",
    "address": "경기도 고양시 덕양구 대곡길 31-8 (내곡동)",
    "phone": "",
    "latitude": "37.6433421691",
    "longitude": "126.8027293318",
    "image": "http://tong.visitkorea.or.kr/cms/resource/37/2744937_image2_1.jpg",
    "category": "민물낚시"
  },
  {
    "id": "131389",
    "title": "복금저수지",
    "address": "충청남도 부여군 충화면 가림로",
    "phone": "041-830-6628",
    "latitude": "36.1837029557",
    "longitude": "126.8414433603",
    "image": "http://tong.visitkorea.or.kr/cms/resource/75/3341075_image2_1.JPG",
    "category": "민물낚시"
  },
  {
    "id": "2747719",
    "title": "봉림낚시터",
    "address": "경기도 고양시 덕양구 호국로1595번길 23 (대자동)",
    "phone": "",
    "latitude": "37.6936741637",
    "longitude": "126.9001801173",
    "image": "http://tong.visitkorea.or.kr/cms/resource/10/2747810_image2_1.jpg",
    "category": "민물낚시"
  },
  {
    "id": "1626680",
    "title": "봉재낚시터",
    "address": "충청남도 아산시 둔포면 충무로 1258-32",
    "phone": "",
    "latitude": "36.8831898542",
    "longitude": "127.0321129826",
    "image": "http://tong.visitkorea.or.kr/cms/resource/20/3106920_image2_1.JPG",
    "category": "민물낚시"
  },
  {
    "id": "131236",
    "title": "부남면 금강하천",
    "address": "전북특별자치도 무주군 부남면 대소길",
    "phone": "",
    "latitude": "35.9735171402",
    "longitude": "127.5515633415",
    "image": "http://tong.visitkorea.or.kr/cms/resource/56/3477056_image2_1.JPG",
    "category": "민물낚시"
  },
  {
    "id": "131551",
    "title": "부여 산직지",
    "address": "충청남도 부여군 초촌면 선사로 286",
    "phone": "041-830-6808",
    "latitude": "36.2610392408",
    "longitude": "127.0410317702",
    "image": "http://tong.visitkorea.or.kr/cms/resource/25/3568125_image2_1.jpg",
    "category": "민물낚시"
  },
  {
    "id": "131431",
    "title": "북동저수지",
    "address": "경기도 안산시 단원구 대부북동",
    "phone": "032-882-9033",
    "latitude": "37.2547389316",
    "longitude": "126.5797854632",
    "image": "http://tong.visitkorea.or.kr/cms/resource/72/3515972_image2_1.jpg",
    "category": "민물낚시"
  },
  {
    "id": "2762560",
    "title": "비바낚시터",
    "address": "경기도 시흥시 수인로2573번길 32",
    "phone": "",
    "latitude": "37.4010544352",
    "longitude": "126.8461655042",
    "image": "http://tong.visitkorea.or.kr/cms/resource/10/2762610_image2_1.jpg",
    "category": "민물낚시"
  },
  {
    "id": "2736686",
    "title": "사계절낚시터",
    "address": "경기도 용인시 처인구 이동읍 경기동로742번길 56",
    "phone": "",
    "latitude": "37.1341554572",
    "longitude": "127.1949163158",
    "image": "http://tong.visitkorea.or.kr/cms/resource/71/2775171_image2_1.jpg",
    "category": "민물낚시"
  },
  {
    "id": "131862",
    "title": "사기막저수지",
    "address": "강원특별자치도 강릉시 사천면 중앙서로 865-8",
    "phone": "",
    "latitude": "37.7845210710",
    "longitude": "128.7863589915",
    "image": "http://tong.visitkorea.or.kr/cms/resource/20/3047920_image2_1.jpg",
    "category": "민물낚시"
  },
  {
    "id": "2769763",
    "title": "산들낚시터",
    "address": "충청남도 아산시 배방읍 고불로 229",
    "phone": "",
    "latitude": "36.7257612477",
    "longitude": "127.0595870325",
    "image": "http://tong.visitkorea.or.kr/cms/resource/70/3582770_image2_1.jpg",
    "category": "민물낚시"
  },
  {
    "id": "2751627",
    "title": "산정낚시터",
    "address": "경기도 시흥시 피울길 173 (산현동)",
    "phone": "",
    "latitude": "37.3678302103",
    "longitude": "126.8291318704",
    "image": "http://tong.visitkorea.or.kr/cms/resource/91/2762691_image2_1.JPG",
    "category": "민물낚시"
  },
  {
    "id": "2741613",
    "title": "삼막곡낚시터",
    "address": "경기도 용인시 기흥구 신정로301번길 59 (보정동)",
    "phone": "",
    "latitude": "37.2960654842",
    "longitude": "127.0945597600",
    "image": "http://tong.visitkorea.or.kr/cms/resource/37/2774037_image2_1.jpeg",
    "category": "민물낚시"
  },
  {
    "id": "2758189",
    "title": "삼성낚시터",
    "address": "인천광역시 강화군 불은면 중앙로755번길 49",
    "phone": "",
    "latitude": "37.6995542086",
    "longitude": "126.4406553278",
    "image": "",
    "category": "민물낚시"
  },
  {
    "id": "2746372",
    "title": "삼인낚시터",
    "address": "경기도 용인시 처인구 남사읍 삼인로 150",
    "phone": "",
    "latitude": "37.1566824630",
    "longitude": "127.1420954671",
    "image": "http://tong.visitkorea.or.kr/cms/resource/20/2746520_image2_1.jpg",
    "category": "민물낚시"
  },
  {
    "id": "2751245",
    "title": "삼하낚시터",
    "address": "경기도 양주시 장흥면 일영로327번길 247",
    "phone": "",
    "latitude": "37.6735627536",
    "longitude": "126.9078549870",
    "image": "http://tong.visitkorea.or.kr/cms/resource/07/2751407_image2_1.jpg",
    "category": "민물낚시"
  },
  {
    "id": "131531",
    "title": "삽교천낚시터",
    "address": "충청남도 아산시 인주면 아산만로 1363",
    "phone": "",
    "latitude": "36.8528874430",
    "longitude": "126.8547576067",
    "image": "http://tong.visitkorea.or.kr/cms/resource/25/3050325_image2_1.jpg",
    "category": "민물낚시"
  },
  {
    "id": "2749556",
    "title": "상덕낚시터",
    "address": "경기도 용인시 처인구 이동읍 상덕로 73",
    "phone": "",
    "latitude": "37.2153371773",
    "longitude": "127.1636224306",
    "image": "http://tong.visitkorea.or.kr/cms/resource/48/2749548_image2_1.jpg",
    "category": "민물낚시"
  },
  {
    "id": "2776277",
    "title": "상상낚시터",
    "address": "경상남도 거제시 일운면 지세포해안로 242",
    "phone": "",
    "latitude": "34.8345886187",
    "longitude": "128.7161163894",
    "image": "",
    "category": "민물낚시"
  },
  {
    "id": "2765487",
    "title": "새말낚시터",
    "address": "경기도 남양주시 진건읍 사릉로 554-47",
    "phone": "",
    "latitude": "37.6665155481",
    "longitude": "127.1714172566",
    "image": "http://tong.visitkorea.or.kr/cms/resource/86/2766286_image2_1.jpg",
    "category": "민물낚시"
  },
  {
    "id": "2751622",
    "title": "새미낚시터",
    "address": "경기도 시흥시 조남동 299",
    "phone": "",
    "latitude": "37.3737718211",
    "longitude": "126.8648145693",
    "image": "http://tong.visitkorea.or.kr/cms/resource/48/2762648_image2_1.jpg",
    "category": "민물낚시"
  },
  {
    "id": "131552",
    "title": "서산 덕송지",
    "address": "충청남도 서산시 한재무두리1길 5-22",
    "phone": "010-5917-3400",
    "latitude": "36.8330835682",
    "longitude": "126.3398547429",
    "image": "http://tong.visitkorea.or.kr/cms/resource/69/3566969_image2_1.jpg",
    "category": "민물낚시"
  },
  {
    "id": "2775514",
    "title": "석곡낚시터",
    "address": "충청남도 천안시 서북구 직산읍 부송로 43-38",
    "phone": "",
    "latitude": "36.8897403638",
    "longitude": "127.1034258102",
    "image": "http://tong.visitkorea.or.kr/cms/resource/28/2775528_image2_1.jpg",
    "category": "민물낚시"
  },
  {
    "id": "2013518",
    "title": "선두포저수지",
    "address": "인천광역시 강화군 길상면 보리고개로 13",
    "phone": "",
    "latitude": "37.6215055124",
    "longitude": "126.4714046821",
    "image": "http://tong.visitkorea.or.kr/cms/resource/22/3477022_image2_1.JPG",
    "category": "민물낚시"
  },
  {
    "id": "131859",
    "title": "성은낚시터",
    "address": "경기도 안성시 원곡면 통심길 16-46",
    "phone": "",
    "latitude": "37.0705345445",
    "longitude": "127.1678899809",
    "image": "http://tong.visitkorea.or.kr/cms/resource/88/2667488_image2_1.jpg",
    "category": "민물낚시"
  },
  {
    "id": "2763834",
    "title": "성호낚시터",
    "address": "경기도 이천시 설성면 성호로 72",
    "phone": "",
    "latitude": "37.1362973904",
    "longitude": "127.5309719984",
    "image": "http://tong.visitkorea.or.kr/cms/resource/17/2763917_image2_1.png",
    "category": "민물낚시"
  },
  {
    "id": "131528",
    "title": "송악저수지",
    "address": "충청남도 아산시 송악면 송악로 560",
    "phone": "",
    "latitude": "36.7216882620",
    "longitude": "126.9897212158",
    "image": "http://tong.visitkorea.or.kr/cms/resource/78/3048878_image2_1.jpg",
    "category": "민물낚시"
  },
  {
    "id": "131030",
    "title": "송전지 낚시터",
    "address": "경기도 용인시 처인구 이동읍 경기동로842번길 15",
    "phone": "",
    "latitude": "37.1261704303",
    "longitude": "127.2039296128",
    "image": "http://tong.visitkorea.or.kr/cms/resource/47/3383347_image2_1.jpg",
    "category": "민물낚시"
  },
  {
    "id": "131388",
    "title": "송정저수지(부여)",
    "address": "충청남도 부여군 충화면 충신로 437",
    "phone": "041-830-6628",
    "latitude": "36.1485564146",
    "longitude": "126.8089527490",
    "image": "http://tong.visitkorea.or.kr/cms/resource/14/3038914_image2_1.JPG",
    "category": "민물낚시"
  },
  {
    "id": "2755441",
    "title": "수곡낚시터",
    "address": "경기도 양평군 지평면 어은길 71",
    "phone": "",
    "latitude": "37.4406690203",
    "longitude": "127.5999681569",
    "image": "http://tong.visitkorea.or.kr/cms/resource/62/2755862_image2_1.jpg",
    "category": "민물낚시"
  },
  {
    "id": "2762626",
    "title": "수암낚시터",
    "address": "경기도 안산시 상록구 수암동 20-1",
    "phone": "",
    "latitude": "37.3707030082",
    "longitude": "126.8803188005",
    "image": "http://tong.visitkorea.or.kr/cms/resource/15/2762615_image2_1.jpg",
    "category": "민물낚시"
  },
  {
    "id": "1615829",
    "title": "신선낚시터",
    "address": "인천광역시 강화군 내가면 고비고개로741번길 37-48",
    "phone": "032-933-1366",
    "latitude": "37.7199236130",
    "longitude": "126.4155126209",
    "image": "http://tong.visitkorea.or.kr/cms/resource/50/3566750_image2_1.jpg",
    "category": "민물낚시"
  },
  {
    "id": "131051",
    "title": "신송지",
    "address": "충청남도 서산시 고북면 신송리",
    "phone": "041-664-2256",
    "latitude": "36.6481387950",
    "longitude": "126.5342809476",
    "image": "http://tong.visitkorea.or.kr/cms/resource/21/3560121_image2_1.jpg",
    "category": "민물낚시"
  },
  {
    "id": "131911",
    "title": "신수낚시터",
    "address": "충청남도 아산시 음봉면 충무로681번길 149-16",
    "phone": "",
    "latitude": "36.8439437788",
    "longitude": "126.9982448925",
    "image": "http://tong.visitkorea.or.kr/cms/resource/50/1876050_image2_1.jpg",
    "category": "민물낚시"
  },
  {
    "id": "2751254",
    "title": "신암낚시터",
    "address": "경기도 양주시 남면 감악산로514번길 365",
    "phone": "",
    "latitude": "37.9197656275",
    "longitude": "126.9640900289",
    "image": "http://tong.visitkorea.or.kr/cms/resource/45/2751445_image2_1.jpg",
    "category": "민물낚시"
  },
  {
    "id": "2739452",
    "title": "신원낚시터",
    "address": "경기도 용인시 처인구 이동읍 이원로 184",
    "phone": "",
    "latitude": "37.1861027945",
    "longitude": "127.2263231293",
    "image": "http://tong.visitkorea.or.kr/cms/resource/37/2775337_image2_1.jpg",
    "category": "민물낚시"
  },
  {
    "id": "2702346",
    "title": "신포낚시터",
    "address": "강원특별자치도 춘천시 사북면 지촌길 40",
    "phone": "",
    "latitude": "38.0320178181",
    "longitude": "127.6451661390",
    "image": "",
    "category": "민물낚시"
  },
  {
    "id": "2753818",
    "title": "쌍방죽낚시터",
    "address": "경기도 포천시 가산면 선마로 163-29",
    "phone": "",
    "latitude": "37.8489250271",
    "longitude": "127.1799639964",
    "image": "http://tong.visitkorea.or.kr/cms/resource/09/2753809_image2_1.jpg",
    "category": "민물낚시"
  },
  {
    "id": "131063",
    "title": "안동호",
    "address": "경상북도 안동시 호반로",
    "phone": "054-856-3013",
    "latitude": "36.5843448602",
    "longitude": "128.7719600867",
    "image": "http://tong.visitkorea.or.kr/cms/resource/36/3528036_image2_1.jpg",
    "category": "민물낚시"
  },
  {
    "id": "2765198",
    "title": "양오낚시터",
    "address": "인천광역시 강화군 송해면 전망대로423번길 161",
    "phone": "",
    "latitude": "37.8001841894",
    "longitude": "126.4438577810",
    "image": "http://tong.visitkorea.or.kr/cms/resource/44/2780644_image2_1.jpg",
    "category": "민물낚시"
  },
  {
    "id": "2753990",
    "title": "양촌낚시터",
    "address": "경기도 안성시 고삼면 산양길 119",
    "phone": "",
    "latitude": "37.0893818725",
    "longitude": "127.2951001787",
    "image": "http://tong.visitkorea.or.kr/cms/resource/06/2764206_image2_1.png",
    "category": "민물낚시"
  },
  {
    "id": "2766436",
    "title": "어우실낚시터",
    "address": "경기도 여주시 점동면 어우실길 65",
    "phone": "",
    "latitude": "37.1519867855",
    "longitude": "127.6579600946",
    "image": "http://tong.visitkorea.or.kr/cms/resource/42/2766842_image2_1.jpg",
    "category": "민물낚시"
  },
  {
    "id": "3031309",
    "title": "영인낚시터",
    "address": "충청남도 아산시 영인면 영인로 159-20",
    "phone": "",
    "latitude": "36.8628351716",
    "longitude": "126.9486988495",
    "image": "http://tong.visitkorea.or.kr/cms/resource/04/3031304_image2_1.jpg",
    "category": "민물낚시"
  },
  {
    "id": "131044",
    "title": "예당저수지",
    "address": "충청남도 예산군 응봉면 등촌리",
    "phone": "",
    "latitude": "36.6298483597",
    "longitude": "126.8044126183",
    "image": "",
    "category": "민물낚시"
  },
  {
    "id": "2758194",
    "title": "오류내낚시터",
    "address": "인천광역시 강화군 송해면 오류내길51번길 44",
    "phone": "",
    "latitude": "37.7594113827",
    "longitude": "126.4558911505",
    "image": "",
    "category": "민물낚시"
  },
  {
    "id": "2758380",
    "title": "오목 낚시터",
    "address": "충청남도 아산시 신창면 서부남로675번길 48",
    "phone": "",
    "latitude": "36.7956426395",
    "longitude": "126.9331020888",
    "image": "http://tong.visitkorea.or.kr/cms/resource/76/2758576_image2_1.jpg",
    "category": "민물낚시"
  },
  {
    "id": "2751367",
    "title": "왕골낚시터",
    "address": "경기도 시흥시 방화고개길 70 (조남동)",
    "phone": "",
    "latitude": "37.3662614531",
    "longitude": "126.8576043233",
    "image": "http://tong.visitkorea.or.kr/cms/resource/15/2763315_image2_1.JPG",
    "category": "민물낚시"
  },
  {
    "id": "2782118",
    "title": "요덕골낚시터",
    "address": "경기도 용인시 처인구 이동읍 경기동로785번길 168-12",
    "phone": "",
    "latitude": "37.1370666785",
    "longitude": "127.2197973172",
    "image": "http://tong.visitkorea.or.kr/cms/resource/36/2782336_image2_1.jpg",
    "category": "민물낚시"
  },
  {
    "id": "131229",
    "title": "용곡낚시터",
    "address": "충청북도 청주시 상당구 미원면 종암리",
    "phone": "",
    "latitude": "36.6849483499",
    "longitude": "127.6299174558",
    "image": "http://tong.visitkorea.or.kr/cms/resource/92/3503592_image2_1.jpg",
    "category": "민물낚시"
  },
  {
    "id": "2749602",
    "title": "용담낚시터",
    "address": "경기도 용인시 처인구 원삼면 원양로 382-2",
    "phone": "",
    "latitude": "37.1918369078",
    "longitude": "127.3064184974",
    "image": "http://tong.visitkorea.or.kr/cms/resource/07/3058207_image2_1.jpg",
    "category": "민물낚시"
  },
  {
    "id": "2767631",
    "title": "용면파크낚시터",
    "address": "경기도 이천시 신둔면 황무로52번길 80",
    "phone": "",
    "latitude": "37.2994560565",
    "longitude": "127.3638519205",
    "image": "http://tong.visitkorea.or.kr/cms/resource/54/2767854_image2_1.jpg",
    "category": "민물낚시"
  },
  {
    "id": "2753946",
    "title": "용설낚시터",
    "address": "경기도 안성시 죽산면 용설호수길 174-13",
    "phone": "",
    "latitude": "37.0549580167",
    "longitude": "127.4462930508",
    "image": "http://tong.visitkorea.or.kr/cms/resource/47/2764347_image2_1.png",
    "category": "민물낚시"
  },
  {
    "id": "131067",
    "title": "용연저수지",
    "address": "경상북도 포항시 북구 신광면 신흥로 417",
    "phone": "",
    "latitude": "36.1241959943",
    "longitude": "129.2952827595",
    "image": "http://tong.visitkorea.or.kr/cms/resource/22/3522622_image2_1.jpg",
    "category": "민물낚시"
  },
  {
    "id": "2753877",
    "title": "울성낚시터",
    "address": "경기도 평택시 울성길 237-20 (지제동)",
    "phone": "",
    "latitude": "37.0163860797",
    "longitude": "127.0591402055",
    "image": "http://tong.visitkorea.or.kr/cms/resource/33/2763933_image2_1.png",
    "category": "민물낚시"
  },
  {
    "id": "2744508",
    "title": "원당낚시터",
    "address": "경기도 고양시 일산동구 식사로 38 (식사동)",
    "phone": "",
    "latitude": "37.6695310207",
    "longitude": "126.8158301735",
    "image": "http://tong.visitkorea.or.kr/cms/resource/56/2745356_image2_1.jpg",
    "category": "민물낚시"
  },
  {
    "id": "1626261",
    "title": "원천낚시터",
    "address": "강원특별자치도 화천군 하남면 호수길 163",
    "phone": "033-441-3677",
    "latitude": "38.0485220374",
    "longitude": "127.6766877690",
    "image": "http://tong.visitkorea.or.kr/cms/resource/32/1583832_image2_1.jpg",
    "category": "민물낚시"
  },
  {
    "id": "2702189",
    "title": "월명낚시터",
    "address": "강원특별자치도 양구군 양구읍 간척월명로 1715",
    "phone": "",
    "latitude": "38.1178514468",
    "longitude": "127.8980821523",
    "image": "",
    "category": "민물낚시"
  },
  {
    "id": "2753940",
    "title": "월향낚시터",
    "address": "경기도 안성시 고삼면 고삼호수로 144-4",
    "phone": "",
    "latitude": "37.0862012800",
    "longitude": "127.2726272980",
    "image": "http://tong.visitkorea.or.kr/cms/resource/63/2764263_image2_1.png",
    "category": "민물낚시"
  },
  {
    "id": "2753753",
    "title": "유정관광낚시터",
    "address": "경기도 광주시 도척면 도척로 898-9",
    "phone": "",
    "latitude": "37.2883952205",
    "longitude": "127.3083405953",
    "image": "http://tong.visitkorea.or.kr/cms/resource/72/2764172_image2_1.png",
    "category": "민물낚시"
  },
  {
    "id": "2770047",
    "title": "음성용대리낚시터",
    "address": "충청북도 음성군 삼성면 덕호로 360",
    "phone": "",
    "latitude": "37.0444576769",
    "longitude": "127.5140344594",
    "image": "http://tong.visitkorea.or.kr/cms/resource/29/2770229_image2_1.jpg",
    "category": "민물낚시"
  },
  {
    "id": "131372",
    "title": "이무기낚시터",
    "address": "강원특별자치도 원주시 소초면 신양선녀길 99",
    "phone": "",
    "latitude": "37.4130874400",
    "longitude": "127.9725769286",
    "image": "http://tong.visitkorea.or.kr/cms/resource/67/3560467_image2_1.jpg",
    "category": "민물낚시"
  },
  {
    "id": "1615967",
    "title": "인산낚시터",
    "address": "인천광역시 강화군 양도면 중앙로787번길 8-1",
    "phone": "",
    "latitude": "37.6989596685",
    "longitude": "126.4312617608",
    "image": "http://tong.visitkorea.or.kr/cms/resource/10/3350610_image2_1.JPG",
    "category": "민물낚시"
  },
  {
    "id": "131284",
    "title": "임진강(연천)",
    "address": "경기도 연천군 군남면 왕림리",
    "phone": "",
    "latitude": "37.9803044924",
    "longitude": "126.8926670531",
    "image": "http://tong.visitkorea.or.kr/cms/resource/24/3534124_image2_1.jpg",
    "category": "민물낚시"
  },
  {
    "id": "131049",
    "title": "잠홍 저수지(상홍지)",
    "address": "충청남도 서산시 음암면 상홍리",
    "phone": "041-688-3069",
    "latitude": "36.8030508087",
    "longitude": "126.4945470835",
    "image": "http://tong.visitkorea.or.kr/cms/resource/10/2538110_image2_1.jpg",
    "category": "민물낚시"
  },
  {
    "id": "2753998",
    "title": "장광낚시터",
    "address": "경기도 안성시 죽산면 관앞길 103-6",
    "phone": "",
    "latitude": "37.0957030062",
    "longitude": "127.4291656706",
    "image": "http://tong.visitkorea.or.kr/cms/resource/33/2764233_image2_1.png",
    "category": "민물낚시"
  },
  {
    "id": "2751424",
    "title": "장자원낚시터",
    "address": "경기도 양주시 장흥면 일영로502번길 2-105",
    "phone": "",
    "latitude": "37.6857978114",
    "longitude": "126.9285360842",
    "image": "http://tong.visitkorea.or.kr/cms/resource/18/2751418_image2_1.jpg",
    "category": "민물낚시"
  },
  {
    "id": "131368",
    "title": "장척호와 번개늪",
    "address": "경상남도 창녕군 영산면 장척호수길",
    "phone": "055-530-6931",
    "latitude": "35.4337506926",
    "longitude": "128.4922531760",
    "image": "http://tong.visitkorea.or.kr/cms/resource/85/3527985_image2_1.jpg",
    "category": "민물낚시"
  },
  {
    "id": "2735334",
    "title": "전곡낚시터(전곡낚시힐링캠프)",
    "address": "경기도 연천군 군남면 오리골길 124",
    "phone": "",
    "latitude": "38.0370920852",
    "longitude": "127.0340580016",
    "image": "",
    "category": "민물낚시"
  },
  {
    "id": "2770057",
    "title": "주봉낚시터",
    "address": "충청북도 음성군 원남면 주봉로 141",
    "phone": "",
    "latitude": "36.8665005387",
    "longitude": "127.6752305249",
    "image": "http://tong.visitkorea.or.kr/cms/resource/70/2770270_image2_1.jpg",
    "category": "민물낚시"
  },
  {
    "id": "131555",
    "title": "죽산낚시터",
    "address": "충청남도 아산시 선장면 서부남로 344",
    "phone": "",
    "latitude": "36.7858487051",
    "longitude": "126.8979110865",
    "image": "http://tong.visitkorea.or.kr/cms/resource/76/1876076_image2_1.jpg",
    "category": "민물낚시"
  },
  {
    "id": "2605333",
    "title": "지평낚시터",
    "address": "경기도 양평군 지평면 금의길 69",
    "phone": "",
    "latitude": "37.4676835316",
    "longitude": "127.6528653616",
    "image": "http://tong.visitkorea.or.kr/cms/resource/13/3474413_image2_1.jpg",
    "category": "민물낚시"
  },
  {
    "id": "2753820",
    "title": "직두리낚시터",
    "address": "경기도 포천시 군내면 진구자리1길 14",
    "phone": "",
    "latitude": "37.8773087439",
    "longitude": "127.2300558187",
    "image": "http://tong.visitkorea.or.kr/cms/resource/82/2753782_image2_1.jpg",
    "category": "민물낚시"
  },
  {
    "id": "2753944",
    "title": "진우낚시터",
    "address": "경기도 광주시 도척면 저수지길 182",
    "phone": "",
    "latitude": "37.3117516212",
    "longitude": "127.3508944114",
    "image": "",
    "category": "민물낚시"
  },
  {
    "id": "2749826",
    "title": "창리낚시터",
    "address": "경기도 용인시 처인구 남사읍 경기동로518번길 52",
    "phone": "",
    "latitude": "37.1403156614",
    "longitude": "127.1840310177",
    "image": "http://tong.visitkorea.or.kr/cms/resource/76/2749876_image2_1.jpg",
    "category": "민물낚시"
  },
  {
    "id": "2770369",
    "title": "창후리수로",
    "address": "인천광역시 강화군 하점면 창후리 1237",
    "phone": "",
    "latitude": "37.7608402336",
    "longitude": "126.3683880266",
    "image": "",
    "category": "민물낚시"
  },
  {
    "id": "2753819",
    "title": "초원낚시터",
    "address": "경기도 포천시 자작로3길 85 (자작동)",
    "phone": "",
    "latitude": "37.8768910147",
    "longitude": "127.1691308425",
    "image": "http://tong.visitkorea.or.kr/cms/resource/97/2753797_image2_1.jpg",
    "category": "민물낚시"
  },
  {
    "id": "131041",
    "title": "초평저수지",
    "address": "충청북도 진천군 초평면 초평로",
    "phone": "",
    "latitude": "36.8185226821",
    "longitude": "127.5196875152",
    "image": "http://tong.visitkorea.or.kr/cms/resource/60/3489960_image2_1.jpg",
    "category": "민물낚시"
  },
  {
    "id": "2769747",
    "title": "초평집 좌대",
    "address": "충청북도 진천군 초평면 평화로 481",
    "phone": "",
    "latitude": "36.8105706813",
    "longitude": "127.5120634227",
    "image": "http://tong.visitkorea.or.kr/cms/resource/18/2769818_image2_1.jpg",
    "category": "민물낚시"
  },
  {
    "id": "2753943",
    "title": "추곡낚시터",
    "address": "경기도 광주시 도척면 추곡길 91",
    "phone": "",
    "latitude": "37.2809484544",
    "longitude": "127.2858761746",
    "image": "",
    "category": "민물낚시"
  },
  {
    "id": "131374",
    "title": "취병낚시터",
    "address": "강원특별자치도 원주시 문막읍 취병로 267",
    "phone": "033-731-5908",
    "latitude": "37.3224251558",
    "longitude": "127.7937373853",
    "image": "http://tong.visitkorea.or.kr/cms/resource/36/1947736_image2_1.jpg",
    "category": "민물낚시"
  },
  {
    "id": "2751404",
    "title": "칠봉산낚시터",
    "address": "경기도 양주시 천보산로 201 (회암동)",
    "phone": "",
    "latitude": "37.8568420689",
    "longitude": "127.0985767603",
    "image": "http://tong.visitkorea.or.kr/cms/resource/95/2751395_image2_1.jpg",
    "category": "민물낚시"
  },
  {
    "id": "2737283",
    "title": "통삼낚시터",
    "address": "경기도 용인시 처인구 남사읍 통삼리",
    "phone": "",
    "latitude": "37.1214502972",
    "longitude": "127.1350165355",
    "image": "http://tong.visitkorea.or.kr/cms/resource/07/2737507_image2_1.jpg",
    "category": "민물낚시"
  },
  {
    "id": "131432",
    "title": "포항저수지",
    "address": "전라남도 장흥군 대덕읍 신흥2길 41",
    "phone": "",
    "latitude": "34.5010029525",
    "longitude": "126.9113046707",
    "image": "http://tong.visitkorea.or.kr/cms/resource/19/3535919_image2_1.jpg",
    "category": "민물낚시"
  },
  {
    "id": "131048",
    "title": "풍전 저수지",
    "address": "충청남도 서산시 인지면 풍전1길 117",
    "phone": "041-662-2064",
    "latitude": "36.7771913686",
    "longitude": "126.4183713360",
    "image": "http://tong.visitkorea.or.kr/cms/resource/74/3532974_image2_1.jpg",
    "category": "민물낚시"
  },
  {
    "id": "2702231",
    "title": "피싱12",
    "address": "강원특별자치도 홍천군 서면 밤벌길2번길 35",
    "phone": "",
    "latitude": "37.6948951360",
    "longitude": "127.6022605575",
    "image": "http://tong.visitkorea.or.kr/cms/resource/95/3562195_image2_1.jpg",
    "category": "민물낚시"
  },
  {
    "id": "2741007",
    "title": "한터낚시터",
    "address": "경기도 용인시 처인구 양지면 한터로662번길 10",
    "phone": "",
    "latitude": "37.2597090755",
    "longitude": "127.2764998464",
    "image": "http://tong.visitkorea.or.kr/cms/resource/11/2775211_image2_1.jpg",
    "category": "민물낚시"
  },
  {
    "id": "2768065",
    "title": "항포낚시터",
    "address": "인천광역시 강화군 삼산면 삼산서로310번길 21",
    "phone": "",
    "latitude": "37.7060813071",
    "longitude": "126.2868053649",
    "image": "http://tong.visitkorea.or.kr/cms/resource/74/3395374_image2_1.jpg",
    "category": "민물낚시"
  },
  {
    "id": "3012122",
    "title": "헤라유원지(헤라낚시터)",
    "address": "경기도 남양주시 별내면 청학로54번길 83",
    "phone": "",
    "latitude": "37.7126843439",
    "longitude": "127.1254034604",
    "image": "http://tong.visitkorea.or.kr/cms/resource/46/3005646_image2_1.JPG",
    "category": "민물낚시"
  },
  {
    "id": "131047",
    "title": "홍양저수지",
    "address": "충청남도 홍성군 금마면 장성리",
    "phone": "",
    "latitude": "36.5884486568",
    "longitude": "126.7074141355",
    "image": "",
    "category": "민물낚시"
  },
  {
    "id": "2762881",
    "title": "화도낚시공원",
    "address": "경기도 남양주시 화도읍 경춘로2414번길 50-14",
    "phone": "",
    "latitude": "37.6561118419",
    "longitude": "127.3592115657",
    "image": "http://tong.visitkorea.or.kr/cms/resource/26/2762926_image2_1.jpg",
    "category": "민물낚시"
  },
  {
    "id": "131033",
    "title": "황산지(장흥지)",
    "address": "인천광역시 강화군 길상면 장흥로 96-1",
    "phone": "032-937-2732",
    "latitude": "37.6151208658",
    "longitude": "126.5123788879",
    "image": "http://tong.visitkorea.or.kr/cms/resource/09/3388709_image2_1.JPG",
    "category": "민물낚시"
  },
  {
    "id": "2782505",
    "title": "대부도바다낚시터",
    "address": "경기도 안산시 단원구 대부북동 1870-71",
    "phone": "",
    "latitude": "37.2779357512",
    "longitude": "126.5517845992",
    "image": "http://tong.visitkorea.or.kr/cms/resource/46/2785946_image2_1.jpg",
    "category": "민물낚시",
    "original_category": "바다낚시"
  },
  {
    "id": "2770823",
    "title": "드림바다실내낚시터",
    "address": "경기도 김포시 풍무로9번길 26 (풍무동)",
    "phone": "",
    "latitude": "37.5976182411",
    "longitude": "126.7200826114",
    "image": "http://tong.visitkorea.or.kr/cms/resource/72/2771772_image2_1.jpg",
    "category": "민물낚시",
    "original_category": "바다낚시"
  },
  {
    "id": "2761434",
    "title": "등대바다낚시터",
    "address": "경기도 안산시 단원구 금당구지길 91 (대부남동)",
    "phone": "",
    "latitude": "37.2303836130",
    "longitude": "126.5906962493",
    "image": "http://tong.visitkorea.or.kr/cms/resource/71/2761571_image2_1.jpeg",
    "category": "민물낚시",
    "original_category": "바다낚시"
  },
  {
    "id": "2768146",
    "title": "만정민트바다낚시터",
    "address": "인천광역시 중구 영종순환로 279-20",
    "phone": "",
    "latitude": "37.5150026654",
    "longitude": "126.5522724652",
    "image": "",
    "category": "민물낚시",
    "original_category": "바다낚시"
  },
  {
    "id": "2768151",
    "title": "만정바다좌대낚시터",
    "address": "인천광역시 중구 영종순환로 279-20 (중산동)",
    "phone": "",
    "latitude": "37.5158969367",
    "longitude": "126.5483200237",
    "image": "http://tong.visitkorea.or.kr/cms/resource/25/2790225_image2_1.jpg",
    "category": "민물낚시",
    "original_category": "바다낚시"
  },
  {
    "id": "2768158",
    "title": "만정사계절바다낚시터",
    "address": "인천광역시 중구 영종순환로 279-20",
    "phone": "",
    "latitude": "37.5150026654",
    "longitude": "126.5522724652",
    "image": "http://tong.visitkorea.or.kr/cms/resource/48/3565648_image2_1.jpg",
    "category": "민물낚시",
    "original_category": "바다낚시"
  },
  {
    "id": "2747381",
    "title": "서신바다낚시터",
    "address": "경기도 화성시 서신면 송교리 42-5",
    "phone": "",
    "latitude": "37.1619264233",
    "longitude": "126.6788623310",
    "image": "http://tong.visitkorea.or.kr/cms/resource/59/2747359_image2_1.jpg",
    "category": "민물낚시",
    "original_category": "바다낚시"
  },
  {
    "id": "2768057",
    "title": "선두바다낚시터",
    "address": "인천광역시 강화군 길상면 해안남로 673-15",
    "phone": "",
    "latitude": "37.6000472647",
    "longitude": "126.4921061611",
    "image": "http://tong.visitkorea.or.kr/cms/resource/34/3563634_image2_1.jpg",
    "category": "민물낚시",
    "original_category": "바다낚시"
  },
  {
    "id": "2768102",
    "title": "소래바다낚시터",
    "address": "인천광역시 남동구 소래로154번길 25-40",
    "phone": "",
    "latitude": "37.4069546535",
    "longitude": "126.7404721864",
    "image": "http://tong.visitkorea.or.kr/cms/resource/58/3533358_image2_1.jpg",
    "category": "민물낚시",
    "original_category": "바다낚시"
  },
  {
    "id": "2702446",
    "title": "수산항 낚시터",
    "address": "강원특별자치도 양양군 손양면 수산1길 26-41",
    "phone": "",
    "latitude": "38.0803456768",
    "longitude": "128.6733933696",
    "image": "http://tong.visitkorea.or.kr/cms/resource/08/3387408_image2_1.JPG",
    "category": "민물낚시",
    "original_category": "바다낚시"
  },
  {
    "id": "2762709",
    "title": "어심바다낚시터",
    "address": "경기도 안산시 단원구 잘푸리길 107 (대부남동)",
    "phone": "",
    "latitude": "37.2357797773",
    "longitude": "126.5659900159",
    "image": "http://tong.visitkorea.or.kr/cms/resource/95/2773395_image2_1.jpeg",
    "category": "민물낚시",
    "original_category": "바다낚시"
  },
  {
    "id": "2767615",
    "title": "영흥바다낚시터",
    "address": "인천광역시 옹진군 영흥면 영흥로176번길 21",
    "phone": "",
    "latitude": "37.2608061423",
    "longitude": "126.4922349350",
    "image": "http://tong.visitkorea.or.kr/cms/resource/12/2780912_image2_1.jpg",
    "category": "민물낚시",
    "original_category": "바다낚시"
  },
  {
    "id": "2767616",
    "title": "용담바다낚시터",
    "address": "인천광역시 옹진군 영흥면 외리 21",
    "phone": "",
    "latitude": "37.2415525238",
    "longitude": "126.4752370080",
    "image": "http://tong.visitkorea.or.kr/cms/resource/86/2790486_image2_1.jpg",
    "category": "민물낚시",
    "original_category": "바다낚시"
  },
  {
    "id": "2768197",
    "title": "인천락실내바다낚시터",
    "address": "인천광역시 서구 한서로 36-10",
    "phone": "",
    "latitude": "37.5806830105",
    "longitude": "126.6585442621",
    "image": "",
    "category": "민물낚시",
    "original_category": "바다낚시"
  },
  {
    "id": "2754753",
    "title": "정성레저낚시터",
    "address": "인천광역시 중구 백운로186번길 140-1",
    "phone": "",
    "latitude": "37.5142970389",
    "longitude": "126.5435871669",
    "image": "http://tong.visitkorea.or.kr/cms/resource/67/2790267_image2_1.jpg",
    "category": "민물낚시",
    "original_category": "바다낚시"
  },
  {
    "id": "2761194",
    "title": "하늘바다낚시터",
    "address": "경기도 안산시 단원구 작은상재미길 99 (대부동동)",
    "phone": "",
    "latitude": "37.2320503798",
    "longitude": "126.6074474569",
    "image": "http://tong.visitkorea.or.kr/cms/resource/45/2761245_image2_1.jpeg",
    "category": "민물낚시",
    "original_category": "바다낚시"
  },
  {
    "id": "2623674",
    "title": "황금빛노을바다낚시터",
    "address": "경상남도 사천시 대방동 737-12",
    "phone": "",
    "latitude": "34.9311493016",
    "longitude": "128.0525216967",
    "image": "http://tong.visitkorea.or.kr/cms/resource/67/2623667_image2_1.jpg",
    "category": "민물낚시",
    "original_category": "바다낚시"
  },
  {
    "id": "2765201",
    "title": "황산초지바다낚시터",
    "address": "인천광역시 강화군 길상면 초지리 1325-60",
    "phone": "",
    "latitude": "37.6202567809",
    "longitude": "126.5352238769",
    "image": "http://tong.visitkorea.or.kr/cms/resource/16/2780916_image2_1.png",
    "category": "민물낚시",
    "original_category": "바다낚시"
  }
]