[
  {
    "id": "2782943",
    "title": "삼천포 마리나 레저클럽",
    "address": "경상남도 사천시 해안관광로 339",
    "phone": "",
    "latitude": "34.9629149709",
    "longitude": "128.0404719240",
    "image": "http://tong.visitkorea.or.kr/cms/resource/19/2787819_image2_1.jpg",
    "category": "요트",
    "original_category": "윈드서핑제트스키"
  },
  {
    "id": "3559377",
    "title": "개목나루 문보트",
    "address": "경상북도 안동시 민속촌길 26 (성곡동)",
    "phone": "",
    "latitude": "36.5789092340",
    "longitude": "128.7648414321",
    "image": "http://tong.visitkorea.or.kr/cms/resource/78/3559378_image2_1.jpg",
    "category": "요트"
  },
  {
    "id": "2647687",
    "title": "골든블루마리나",
    "address": "서울특별시 서초구 올림픽대로 2085-14",
    "phone": "",
    "latitude": "37.5125052818",
    "longitude": "126.9959959554",
    "image": "http://tong.visitkorea.or.kr/cms/resource/00/2647700_image2_1.jpg",
    "category": "요트"
  },
  {
    "id": "2751848",
    "title": "국제리더스클럽",
    "address": "제주특별자치도 제주시 조천읍 조함해안로 321-21",
    "phone": "",
    "latitude": "33.5515627877",
    "longitude": "126.6524885311",
    "image": "http://tong.visitkorea.or.kr/cms/resource/43/2751943_image2_1.jpg",
    "category": "요트"
  },
  {
    "id": "1064572",
    "title": "김녕요트투어",
    "address": "제주특별자치도 제주시 구좌읍 구좌해안로 229-16",
    "phone": "",
    "latitude": "33.5582634073",
    "longitude": "126.7371893521",
    "image": "",
    "category": "요트"
  },
  {
    "id": "1008874",
    "title": "남해군요트학교",
    "address": "경상남도 남해군 삼동면 동부대로1030번길 42-26",
    "phone": "055-867-2977",
    "latitude": "34.7937813616",
    "longitude": "128.0528363392",
    "image": "",
    "category": "요트"
  },
  {
    "id": "3321323",
    "title": "뉴문마리나",
    "address": "전라남도 목포시 해안로 6 (죽교동)",
    "phone": "061-245-9494",
    "latitude": "34.7844371660",
    "longitude": "126.3682761851",
    "image": "http://tong.visitkorea.or.kr/cms/resource/19/3321319_image2_1.jpg",
    "category": "요트"
  },
  {
    "id": "3076754",
    "title": "더베이101요트투어",
    "address": "부산광역시 해운대구 동백로 52 (우동)",
    "phone": "",
    "latitude": "35.1566216976",
    "longitude": "129.1520975710",
    "image": "http://tong.visitkorea.or.kr/cms/resource/87/3495887_image2_1.jpg",
    "category": "요트"
  },
  {
    "id": "3056465",
    "title": "목포 요트 마리나",
    "address": "전라남도 목포시 삼학로 88-56 (산정동)",
    "phone": "",
    "latitude": "34.7838153719",
    "longitude": "126.3901909310",
    "image": "http://tong.visitkorea.or.kr/cms/resource/85/3533685_image2_1.jpg",
    "category": "요트"
  },
  {
    "id": "3065360",
    "title": "부산 요트투어 요트야",
    "address": "부산광역시 해운대구 해운대해변로 84 (우동)",
    "phone": "",
    "latitude": "35.1608543617",
    "longitude": "129.1415539265",
    "image": "http://tong.visitkorea.or.kr/cms/resource/37/3065337_image2_1.JPG",
    "category": "요트"
  },
  {
    "id": "2790332",
    "title": "부산요트투어 3355마린",
    "address": "부산광역시 해운대구 해운대해변로 84",
    "phone": "",
    "latitude": "35.1598405944",
    "longitude": "129.1419844733",
    "image": "http://tong.visitkorea.or.kr/cms/resource/71/2790371_image2_1.jpg",
    "category": "요트"
  },
  {
    "id": "3009050",
    "title": "부산요트투어 고고요트",
    "address": "부산광역시 해운대구 해운대해변로 84",
    "phone": "010-4448-0113",
    "latitude": "35.1608543617",
    "longitude": "129.1415539265",
    "image": "http://tong.visitkorea.or.kr/cms/resource/19/3009019_image2_1.jpg",
    "category": "요트"
  },
  {
    "id": "3065005",
    "title": "부산요트투어 더요트",
    "address": "부산광역시 해운대구 해운대해변로 84 (우동)",
    "phone": "",
    "latitude": "35.1608543617",
    "longitude": "129.1415539265",
    "image": "http://tong.visitkorea.or.kr/cms/resource/78/3064978_image2_1.JPG",
    "category": "요트"
  },
  {
    "id": "3010426",
    "title": "블루요트",
    "address": "전라남도 여수시 오동도로 61-15",
    "phone": "",
    "latitude": "34.7444510540",
    "longitude": "127.7506417828",
    "image": "http://tong.visitkorea.or.kr/cms/resource/24/3010424_image2_1.jpg",
    "category": "요트"
  },
  {
    "id": "1968837",
    "title": "소노캄 거제 마리나베이 요트투어",
    "address": "경상남도 거제시 일운면 거제대로 2660",
    "phone": "",
    "latitude": "34.8434068406",
    "longitude": "128.7029617427",
    "image": "http://tong.visitkorea.or.kr/cms/resource/35/3519135_image2_1.jpg",
    "category": "요트"
  },
  {
    "id": "2791166",
    "title": "속초마리나",
    "address": "강원특별자치도 속초시 철새길 106",
    "phone": "",
    "latitude": "38.1923671330",
    "longitude": "128.5897696847",
    "image": "http://tong.visitkorea.or.kr/cms/resource/53/3068853_image2_1.jpg",
    "category": "요트"
  },
  {
    "id": "2500717",
    "title": "신안 1004요트",
    "address": "전라남도 신안군 암태면 박달로 9",
    "phone": "061-240-8369",
    "latitude": "34.8619194306",
    "longitude": "126.1568041445",
    "image": "http://tong.visitkorea.or.kr/cms/resource/15/2500715_image2_1.jpg",
    "category": "요트"
  },
  {
    "id": "2654544",
    "title": "아라마리나 해양아카데미",
    "address": "경기도 김포시 고촌읍 아라육로270번길 73",
    "phone": "",
    "latitude": "37.5993498246",
    "longitude": "126.7891706982",
    "image": "http://tong.visitkorea.or.kr/cms/resource/04/3404804_image2_1.JPG",
    "category": "요트"
  },
  {
    "id": "3008290",
    "title": "여수 아그리나 요트투어",
    "address": "전라남도 여수시 웅천남2로 12",
    "phone": "",
    "latitude": "34.7454523795",
    "longitude": "127.6732290839",
    "image": "http://tong.visitkorea.or.kr/cms/resource/78/3008278_image2_1.jpg",
    "category": "요트"
  },
  {
    "id": "2782787",
    "title": "오션브리즈요트",
    "address": "경상남도 통영시 산양읍 이운길 101",
    "phone": "",
    "latitude": "34.7993819314",
    "longitude": "128.4340862925",
    "image": "http://tong.visitkorea.or.kr/cms/resource/35/2787935_image2_1.jpg",
    "category": "요트"
  },
  {
    "id": "2710813",
    "title": "요트&수산어촌체험(양양)",
    "address": "강원특별자치도 양양군 손양면 수산1길 20-16",
    "phone": "",
    "latitude": "38.0771544019",
    "longitude": "128.6744905920",
    "image": "http://tong.visitkorea.or.kr/cms/resource/55/2745155_image2_1.jpeg",
    "category": "요트"
  },
  {
    "id": "2825115",
    "title": "요트탈래",
    "address": "부산광역시 해운대구 동백로 52",
    "phone": "",
    "latitude": "35.1566216976",
    "longitude": "129.1520975710",
    "image": "http://tong.visitkorea.or.kr/cms/resource/05/3583005_image2_1.jpg",
    "category": "요트"
  },
  {
    "id": "2571240",
    "title": "제이엠그랑블루요트",
    "address": "제주특별자치도 서귀포시 대포로 172-7",
    "phone": "",
    "latitude": "33.2382440357",
    "longitude": "126.4396057595",
    "image": "http://tong.visitkorea.or.kr/cms/resource/49/2571149_image2_1.bmp",
    "category": "요트"
  },
  {
    "id": "1952520",
    "title": "차귀도요트",
    "address": "제주특별자치도 제주시 한경면 한경해안로 156",
    "phone": "",
    "latitude": "33.3240052693",
    "longitude": "126.1660414972",
    "image": "",
    "category": "요트"
  },
  {
    "id": "2791156",
    "title": "코마린요트",
    "address": "강원특별자치도 속초시 엑스포로 10-29 (조양동)",
    "phone": "",
    "latitude": "38.1914450905",
    "longitude": "128.5934860429",
    "image": "http://tong.visitkorea.or.kr/cms/resource/45/2791245_image2_1.jpg",
    "category": "요트"
  },
  {
    "id": "719521",
    "title": "통영마리나리조트 요트",
    "address": "경상남도 통영시 큰발개1길 33 (도남동)",
    "phone": "055-640-8180",
    "latitude": "34.8271400232",
    "longitude": "128.4387212713",
    "image": "http://tong.visitkorea.or.kr/cms/resource/40/3040140_image2_1.JPG",
    "category": "요트"
  },
  {
    "id": "2657808",
    "title": "통영요트학교",
    "address": "경상남도 통영시 도남로 269-28",
    "phone": "055-641-5051",
    "latitude": "34.8282120580",
    "longitude": "128.4349604598",
    "image": "http://tong.visitkorea.or.kr/cms/resource/11/3532311_image2_1.jpg",
    "category": "요트"
  },
  {
    "id": "3071613",
    "title": "현대요트 서울지점",
    "address": "서울특별시 서초구 동작대로 350 (반포동)",
    "phone": "",
    "latitude": "37.5058141254",
    "longitude": "126.9811002794",
    "image": "http://tong.visitkorea.or.kr/cms/resource/72/3071572_image2_1.jpg",
    "category": "요트"
  },
  {
    "id": "3022132",
    "title": "현대요트 인천",
    "address": "인천광역시 중구 을왕동",
    "phone": "032-710-6976",
    "latitude": "37.4577531311",
    "longitude": "126.3571113195",
    "image": "http://tong.visitkorea.or.kr/cms/resource/94/3022094_image2_1.jpg",
    "category": "요트"
  },
  {
    "id": "3042765",
    "title": "AB요트",
    "address": "경기도 화성시 서신면 해안길 477",
    "phone": "",
    "latitude": "37.1753239831",
    "longitude": "126.6281832360",
    "image": "http://tong.visitkorea.or.kr/cms/resource/93/3510093_image2_1.JPG",
    "category": "요트"
  },
  {
    "id": "2782558",
    "title": "보성비봉마리나",
    "address": "전라남도 보성군 득량면 공룡로 822-74",
    "phone": "",
    "latitude": "34.7061680528",
    "longitude": "127.1951691783",
    "image": "http://tong.visitkorea.or.kr/cms/resource/91/2788391_image2_1.jpg",
    "category": "요트",
    "original_category": "래프팅"
  }
]