[
  {
    "id": "132786",
    "title": "가평 현리5일장",
    "address": "경기도 가평군 조종면 현창로44번길 14",
    "phone": "031-585-1014",
    "latitude": "37.8197092957",
    "longitude": "127.3489966384",
    "image": "http://tong.visitkorea.or.kr/cms/resource/69/3522869_image2_1.jpg",
    "category": "공예공방"
  },
  {
    "id": "132406",
    "title": "감곡장 (3, 8일)",
    "address": "충청북도 음성군 감곡면 장감로132번길 22",
    "phone": "",
    "latitude": "37.1182042275",
    "longitude": "127.6391460878",
    "image": "",
    "category": "공예공방"
  },
  {
    "id": "3061180",
    "title": "강화도파머스마켓",
    "address": "인천광역시 강화군 교동면 교동남로 22",
    "phone": "",
    "latitude": "37.7813973948",
    "longitude": "126.2799011344",
    "image": "http://tong.visitkorea.or.kr/cms/resource/42/3000942_image2_1.jpg",
    "category": "공예공방"
  },
  {
    "id": "132126",
    "title": "거창장 (1, 6일)",
    "address": "경상남도 거창군 거창읍 시장길 54",
    "phone": "055-944-2581",
    "latitude": "35.6862284193",
    "longitude": "127.9137222847",
    "image": "http://tong.visitkorea.or.kr/cms/resource/65/976265_image2_1.jpg",
    "category": "공예공방"
  },
  {
    "id": "131986",
    "title": "경기 안성장(2, 7일)",
    "address": "경기도 안성시 시장길 37 (서인동)",
    "phone": "031-670-2065",
    "latitude": "37.0066798606",
    "longitude": "127.2703686130",
    "image": "http://tong.visitkorea.or.kr/cms/resource/57/3047957_image2_1.JPG",
    "category": "공예공방"
  },
  {
    "id": "132384",
    "title": "경화장 (3, 8일)",
    "address": "경상남도 창원시 진해구 경화시장로 37",
    "phone": "055-548-2043",
    "latitude": "35.1570104028",
    "longitude": "128.6905433175",
    "image": "http://tong.visitkorea.or.kr/cms/resource/46/3050146_image2_1.JPG",
    "category": "공예공방"
  },
  {
    "id": "132314",
    "title": "고창장 (3, 8일)",
    "address": "전북특별자치도 고창군 고창읍 동산5길 24",
    "phone": "063-560-8100",
    "latitude": "35.4402155385",
    "longitude": "126.6855125075",
    "image": "",
    "category": "공예공방"
  },
  {
    "id": "132059",
    "title": "공산장 (1, 6일)",
    "address": "전라남도 나주시 공산면 공산로 120",
    "phone": "061-339-3691",
    "latitude": "34.9429566034",
    "longitude": "126.6091093957",
    "image": "http://tong.visitkorea.or.kr/cms/resource/64/1971564_image2_1.jpg",
    "category": "공예공방"
  },
  {
    "id": "1976858",
    "title": "광양5일장 (1, 6일)",
    "address": "전라남도 광양시 광양읍 백운로 3",
    "phone": "",
    "latitude": "34.9711478468",
    "longitude": "127.5903972633",
    "image": "http://tong.visitkorea.or.kr/cms/resource/08/3050908_image2_1.jpg",
    "category": "공예공방"
  },
  {
    "id": "132022",
    "title": "광혜원장 (3, 8일)",
    "address": "충청북도 진천군 광혜원면 장기1안길 16",
    "phone": "043-539-8777",
    "latitude": "36.9889211686",
    "longitude": "127.4453338819",
    "image": "http://tong.visitkorea.or.kr/cms/resource/40/3064540_image2_1.JPG",
    "category": "공예공방"
  },
  {
    "id": "132010",
    "title": "괴산장(3, 8일)",
    "address": "충청북도 괴산군 괴산읍 읍내로15길 8-8",
    "phone": "043-832-0250",
    "latitude": "36.8111424163",
    "longitude": "127.7950102212",
    "image": "http://tong.visitkorea.or.kr/cms/resource/85/3353385_image2_1.JPG",
    "category": "공예공방"
  },
  {
    "id": "132115",
    "title": "구룡포장 (3, 8일)",
    "address": "경상북도 포항시 남구 구룡포읍 구룡포길 72-1",
    "phone": "054-276-2504, 054-276-2761",
    "latitude": "35.9903188635",
    "longitude": "129.5540083889",
    "image": "http://tong.visitkorea.or.kr/cms/resource/16/3522616_image2_1.jpg",
    "category": "공예공방"
  },
  {
    "id": "132104",
    "title": "군위장 (3, 8일)",
    "address": "대구광역시 군위군 군위읍 중앙5길 12-8",
    "phone": "054-380-6068",
    "latitude": "36.2389498117",
    "longitude": "128.5668104006",
    "image": "http://tong.visitkorea.or.kr/cms/resource/05/3569905_image2_1.JPG",
    "category": "공예공방"
  },
  {
    "id": "132029",
    "title": "금산장 (2, 7일)",
    "address": "충청남도 금산군 금산읍 건삼전길 11",
    "phone": "041-754-2376",
    "latitude": "36.1000516448",
    "longitude": "127.4905098204",
    "image": "http://tong.visitkorea.or.kr/cms/resource/42/1963342_image2_1.jpg",
    "category": "공예공방"
  },
  {
    "id": "132369",
    "title": "기계장 (1, 6일)",
    "address": "경상북도 포항시 북구 기계면 기계로 575",
    "phone": "054-243-2010",
    "latitude": "36.0890863010",
    "longitude": "129.1606956064",
    "image": "http://tong.visitkorea.or.kr/cms/resource/18/3522418_image2_1.jpg",
    "category": "공예공방"
  },
  {
    "id": "131985",
    "title": "김포장 (2, 7일)",
    "address": "경기도 김포시 김포대로 955 (북변동)",
    "phone": "031-980-2558",
    "latitude": "37.6274979496",
    "longitude": "126.7117658665",
    "image": "http://tong.visitkorea.or.kr/cms/resource/90/2926690_image2_1.jpg",
    "category": "공예공방"
  },
  {
    "id": "523985",
    "title": "나주장(성북장) (4, 9일)",
    "address": "전라남도 나주시 성북동",
    "phone": "061-330-8465",
    "latitude": "35.0363757316",
    "longitude": "126.7224165290",
    "image": "",
    "category": "공예공방"
  },
  {
    "id": "132092",
    "title": "남창장 (2, 7일)",
    "address": "전라남도 해남군 북평면 달량진길 52-10",
    "phone": "061-533-0981, 533-0865",
    "latitude": "34.4042535393",
    "longitude": "126.6270624955",
    "image": "",
    "category": "공예공방"
  },
  {
    "id": "132167",
    "title": "남평장 (1, 6일)",
    "address": "전라남도 나주시 남평읍 지석로 21",
    "phone": "061-330-8601",
    "latitude": "35.0456544424",
    "longitude": "126.8405197515",
    "image": "",
    "category": "공예공방"
  },
  {
    "id": "132258",
    "title": "단양장 (1, 6일)",
    "address": "충청북도 단양군 단양읍 도전5길 31",
    "phone": "043-422-1706",
    "latitude": "36.9824805980",
    "longitude": "128.3698399078",
    "image": "http://tong.visitkorea.or.kr/cms/resource/72/2366272_image2_1.jpg",
    "category": "공예공방"
  },
  {
    "id": "132030",
    "title": "당진장 (5, 10일)",
    "address": "충청남도 당진시 당진시장길 99",
    "phone": "041-360-8622",
    "latitude": "36.8904375042",
    "longitude": "126.6293769767",
    "image": "http://tong.visitkorea.or.kr/cms/resource/46/1963346_image2_1.jpg",
    "category": "공예공방"
  },
  {
    "id": "132061",
    "title": "대치장 (3, 8일)",
    "address": "전라남도 담양군 대전면 대치8길 28-12",
    "phone": "061-380-3043",
    "latitude": "35.2754209258",
    "longitude": "126.8861071953",
    "image": "http://tong.visitkorea.or.kr/cms/resource/45/3582045_image2_1.jpg",
    "category": "공예공방"
  },
  {
    "id": "2795203",
    "title": "덕산마을오일장",
    "address": "경상남도 산청군 시천면 남명로 188-5",
    "phone": "",
    "latitude": "35.2770732962",
    "longitude": "127.8377648318",
    "image": "http://tong.visitkorea.or.kr/cms/resource/33/2795933_image2_1.jpg",
    "category": "공예공방"
  },
  {
    "id": "132073",
    "title": "독천장(4, 9일)",
    "address": "전라남도 영암군 미암면 독천1길 19",
    "phone": "061-470-2609",
    "latitude": "34.7245388526",
    "longitude": "126.5680822175",
    "image": "http://tong.visitkorea.or.kr/cms/resource/40/1971640_image2_1.jpg",
    "category": "공예공방"
  },
  {
    "id": "132121",
    "title": "동명장 (4, 9일)",
    "address": "경상북도 칠곡군 동명면 금암4길 2",
    "phone": "칠곡군청 : 054-979-6522<br />\n동명면사무소 : 054-979-5395",
    "latitude": "35.9831008482",
    "longitude": "128.5538631860",
    "image": "http://tong.visitkorea.or.kr/cms/resource/13/3522313_image2_1.jpg",
    "category": "공예공방"
  },
  {
    "id": "1960242",
    "title": "마석 5일장(3, 8일)",
    "address": "경기도 남양주시 화도읍 마석로17번길 26",
    "phone": "",
    "latitude": "37.6544332815",
    "longitude": "127.3056387129",
    "image": "http://tong.visitkorea.or.kr/cms/resource/49/3404749_image2_1.JPG",
    "category": "공예공방"
  },
  {
    "id": "132063",
    "title": "망운장 (1, 6일)",
    "address": "전라남도 무안군 망운면 조산길 2",
    "phone": "061-450-5607",
    "latitude": "35.0115147228",
    "longitude": "126.3919686000",
    "image": "http://tong.visitkorea.or.kr/cms/resource/55/1971655_image2_1.jpg",
    "category": "공예공방"
  },
  {
    "id": "132266",
    "title": "모란민속5일장",
    "address": "경기도 성남시 중원구 둔촌대로 68",
    "phone": "",
    "latitude": "37.4293256160",
    "longitude": "127.1266003160",
    "image": "http://tong.visitkorea.or.kr/cms/resource/40/3421440_image2_1.jpg",
    "category": "공예공방"
  },
  {
    "id": "132019",
    "title": "모란장 (1, 6일)",
    "address": "충청북도 음성군 삼성면 대성로 615",
    "phone": "043-878-5158",
    "latitude": "37.0185103814",
    "longitude": "127.4982171724",
    "image": "http://tong.visitkorea.or.kr/cms/resource/74/1164074_image2_1.jpg",
    "category": "공예공방"
  },
  {
    "id": "132064",
    "title": "무안장 (4, 9일)",
    "address": "전라남도 무안군 무안읍 면성1길 134",
    "phone": "061-450-5601",
    "latitude": "34.9865799772",
    "longitude": "126.4725176318",
    "image": "http://tong.visitkorea.or.kr/cms/resource/56/1971656_image2_1.jpg",
    "category": "공예공방"
  },
  {
    "id": "131992",
    "title": "백암장(1, 6일)",
    "address": "경기도 용인시 처인구 백암면 백암로202번길 18",
    "phone": "031-324-2275",
    "latitude": "37.1647134850",
    "longitude": "127.3739853750",
    "image": "http://tong.visitkorea.or.kr/cms/resource/62/3383462_image2_1.jpg",
    "category": "공예공방"
  },
  {
    "id": "132049",
    "title": "번암장 (1, 6일)",
    "address": "전북특별자치도 장수군 번암면 신평로 317-1",
    "phone": "063-353-2303",
    "latitude": "35.5332197789",
    "longitude": "127.5452228018",
    "image": "http://tong.visitkorea.or.kr/cms/resource/89/1976589_image2_1.jpg",
    "category": "공예공방"
  },
  {
    "id": "132066",
    "title": "벌교장 (4, 9일)",
    "address": "전라남도 보성군 벌교읍 벌교천1길 15",
    "phone": "061-850-8110",
    "latitude": "34.8454216412",
    "longitude": "127.3451664243",
    "image": "",
    "category": "공예공방"
  },
  {
    "id": "132013",
    "title": "보은장(1, 6일)",
    "address": "충청북도 보은군 보은읍 삼산로 17-16",
    "phone": "043-544-6637",
    "latitude": "36.4837258184",
    "longitude": "127.7201566336",
    "image": "http://tong.visitkorea.or.kr/cms/resource/05/3342505_image2_1.JPG",
    "category": "공예공방"
  },
  {
    "id": "132416",
    "title": "복흥장 (3, 8일)",
    "address": "전북특별자치도 순창군 복흥면 정산2길 7",
    "phone": "063-650-1311",
    "latitude": "35.4316512519",
    "longitude": "126.9326435623",
    "image": "http://tong.visitkorea.or.kr/cms/resource/90/3581090_image2_1.jpg",
    "category": "공예공방"
  },
  {
    "id": "132031",
    "title": "부여장 (5, 10일)",
    "address": "충청남도 부여군 부여읍 성왕로173번길 12",
    "phone": "",
    "latitude": "36.2814762458",
    "longitude": "126.9076348477",
    "image": "http://tong.visitkorea.or.kr/cms/resource/57/1963357_image2_1.jpg",
    "category": "공예공방"
  },
  {
    "id": "132780",
    "title": "북평민속오일장 (3, 8일)",
    "address": "강원특별자치도 동해시 오일장길 32 (북평동)",
    "phone": "",
    "latitude": "37.4825320089",
    "longitude": "129.1260627613",
    "image": "http://tong.visitkorea.or.kr/cms/resource/66/2741966_image2_1.jpg",
    "category": "공예공방"
  },
  {
    "id": "132050",
    "title": "산서장 (2, 7일)",
    "address": "전북특별자치도 장수군 산서면 보산로 1864-11",
    "phone": "063-351-3460",
    "latitude": "35.5844946935",
    "longitude": "127.3958541221",
    "image": "http://tong.visitkorea.or.kr/cms/resource/05/1976605_image2_1.jpg",
    "category": "공예공방"
  },
  {
    "id": "2787564",
    "title": "샘밭장터(4, 9일)",
    "address": "강원특별자치도 춘천시 신북읍 율문리 935-91",
    "phone": "",
    "latitude": "37.9244350324",
    "longitude": "127.7472628136",
    "image": "http://tong.visitkorea.or.kr/cms/resource/64/2788264_image2_1.jpg",
    "category": "공예공방"
  },
  {
    "id": "132355",
    "title": "선산5일장 (2, 7일)",
    "address": "경상북도 구미시 선산읍 단계동길 24",
    "phone": "054-482-0213",
    "latitude": "36.2395170545",
    "longitude": "128.3009117256",
    "image": "http://tong.visitkorea.or.kr/cms/resource/52/3041752_image2_1.jpg",
    "category": "공예공방"
  },
  {
    "id": "132132",
    "title": "송백장 (5, 10일)",
    "address": "경상남도 밀양시 산내면 산내로 344-1",
    "phone": "산내면사무소 055-359-5806",
    "latitude": "35.5860962262",
    "longitude": "128.8814676629",
    "image": "http://tong.visitkorea.or.kr/cms/resource/29/2606929_image2_1.jpg",
    "category": "공예공방"
  },
  {
    "id": "2044930",
    "title": "순천 아랫장 (2, 7일)",
    "address": "전라남도 순천시 장평로 60",
    "phone": "",
    "latitude": "34.9451380298",
    "longitude": "127.4961173153",
    "image": "http://tong.visitkorea.or.kr/cms/resource/51/2042051_image2_1.jpg",
    "category": "공예공방"
  },
  {
    "id": "132076",
    "title": "신북장 (3, 8일)",
    "address": "전라남도 영암군 신북면 황금동로 78",
    "phone": "061-470-2604",
    "latitude": "34.8885752242",
    "longitude": "126.6922450524",
    "image": "http://tong.visitkorea.or.kr/cms/resource/83/1971683_image2_1.jpg",
    "category": "공예공방"
  },
  {
    "id": "1128720",
    "title": "신탄진장 (3, 8일)",
    "address": "대전광역시 대덕구 석봉로37번길 52-11 (석봉동)",
    "phone": "",
    "latitude": "36.4498966492",
    "longitude": "127.4267838059",
    "image": "http://tong.visitkorea.or.kr/cms/resource/04/3032904_image2_1.JPG",
    "category": "공예공방"
  },
  {
    "id": "132554",
    "title": "아우내장 / 병천5일장 (1, 6일)",
    "address": "충청남도 천안시 동남구 병천면 충절로 1718",
    "phone": "천안시 관광안내소 041-521-2038",
    "latitude": "36.7632639569",
    "longitude": "127.2986172628",
    "image": "http://tong.visitkorea.or.kr/cms/resource/98/1164398_image2_1.jpg",
    "category": "공예공방"
  },
  {
    "id": "132154",
    "title": "안의장 (5, 10일)",
    "address": "경상남도 함양군 안의면 약초시장길 25-10",
    "phone": "055-962-0259",
    "latitude": "35.6262917640",
    "longitude": "127.8140493595",
    "image": "http://tong.visitkorea.or.kr/cms/resource/64/1979264_image2_1.jpg",
    "category": "공예공방"
  },
  {
    "id": "132122",
    "title": "약목장(3, 8일)",
    "address": "경상북도 칠곡군 약목면 약목로1길 5-1",
    "phone": "054-974-6460",
    "latitude": "36.0323640230",
    "longitude": "128.3659339704",
    "image": "http://tong.visitkorea.or.kr/cms/resource/97/3531397_image2_1.jpg",
    "category": "공예공방"
  },
  {
    "id": "132173",
    "title": "억지춘양5일장 (4, 9일)",
    "address": "경상북도 봉화군 춘양면 의양로2길 25-1",
    "phone": "054-672-3225",
    "latitude": "36.9363128713",
    "longitude": "128.9138704602",
    "image": "",
    "category": "공예공방"
  },
  {
    "id": "132295",
    "title": "여산장 (1, 6일)",
    "address": "전북특별자치도 익산시 여산면 서촌2길 21",
    "phone": "063-836-5058",
    "latitude": "36.0587214304",
    "longitude": "127.0833694578",
    "image": "http://tong.visitkorea.or.kr/cms/resource/32/1976632_image2_1.jpg",
    "category": "공예공방"
  },
  {
    "id": "131989",
    "title": "여주장 (5, 10일)",
    "address": "경기도 여주시 여흥로11번길 53",
    "phone": "031-887-2272",
    "latitude": "37.2991804007",
    "longitude": "127.6308388846",
    "image": "http://tong.visitkorea.or.kr/cms/resource/14/3382214_image2_1.jpg",
    "category": "공예공방"
  },
  {
    "id": "131990",
    "title": "연천장 (2, 7일)",
    "address": "경기도 연천군 연천읍 차현로 139",
    "phone": "031-839-2641",
    "latitude": "38.1040600404",
    "longitude": "127.0769687821",
    "image": "http://tong.visitkorea.or.kr/cms/resource/60/1956060_image2_1.jpg",
    "category": "공예공방"
  },
  {
    "id": "132015",
    "title": "영동장 (4, 9일)",
    "address": "충청북도 영동군 영동읍 중앙로 21",
    "phone": "043-742-0809",
    "latitude": "36.1745343589",
    "longitude": "127.7759157234",
    "image": "http://tong.visitkorea.or.kr/cms/resource/07/3341307_image2_1.JPG",
    "category": "공예공방"
  },
  {
    "id": "132077",
    "title": "영암장 (5, 10일)",
    "address": "전라남도 영암군 영암읍 오일시장길 28",
    "phone": "061-470-2653",
    "latitude": "34.8013074122",
    "longitude": "126.7007936539",
    "image": "http://tong.visitkorea.or.kr/cms/resource/44/1972044_image2_1.jpg",
    "category": "공예공방"
  },
  {
    "id": "2778066",
    "title": "영월 오일장",
    "address": "강원특별자치도 영월군 영월읍 덕포리",
    "phone": "",
    "latitude": "37.1816513762",
    "longitude": "128.4764245120",
    "image": "http://tong.visitkorea.or.kr/cms/resource/48/3518548_image2_1.jpg",
    "category": "공예공방"
  },
  {
    "id": "132350",
    "title": "영천장 (2, 7일)",
    "address": "경상북도 영천시 시장4길 38",
    "phone": "",
    "latitude": "35.9643767813",
    "longitude": "128.9380465296",
    "image": "http://tong.visitkorea.or.kr/cms/resource/58/3034958_image2_1.jpg",
    "category": "공예공방"
  },
  {
    "id": "132569",
    "title": "영춘장 (3, 8일)",
    "address": "충청북도 단양군 영춘면 상리 409-1",
    "phone": "",
    "latitude": "37.0787189753",
    "longitude": "128.4873654558",
    "image": "http://tong.visitkorea.or.kr/cms/resource/58/1959758_image2_1.jpg",
    "category": "공예공방"
  },
  {
    "id": "132362",
    "title": "예천장 (2, 7일)",
    "address": "경상북도 예천군 예천읍 시장로 53",
    "phone": "054-654-7336",
    "latitude": "36.6545724622",
    "longitude": "128.4503311040",
    "image": "http://tong.visitkorea.or.kr/cms/resource/49/1959649_image2_1.jpg",
    "category": "공예공방"
  },
  {
    "id": "3532396",
    "title": "옥계5일장",
    "address": "강원특별자치도 강릉시 옥계면 현내시장길 78",
    "phone": "",
    "latitude": "37.6089684239",
    "longitude": "129.0348087155",
    "image": "",
    "category": "공예공방"
  },
  {
    "id": "132611",
    "title": "옥산장 (3, 8일)",
    "address": "충청북도 청주시 흥덕구 옥산면 오산리",
    "phone": "043-260-0119",
    "latitude": "36.6645850057",
    "longitude": "127.3756241717",
    "image": "http://tong.visitkorea.or.kr/cms/resource/51/3342051_image2_1.JPG",
    "category": "공예공방"
  },
  {
    "id": "523991",
    "title": "옥종장 (3, 8일)",
    "address": "경상남도 하동군 옥종면 청룡리",
    "phone": "055-880-6391",
    "latitude": "37.5665097998",
    "longitude": "126.9781877165",
    "image": "",
    "category": "공예공방"
  },
  {
    "id": "132016",
    "title": "옥천장 (5, 10일)",
    "address": "충청북도 옥천군 옥천읍 삼금로 45",
    "phone": "043-730-3081",
    "latitude": "36.3024271529",
    "longitude": "127.5682085205",
    "image": "http://tong.visitkorea.or.kr/cms/resource/87/3575687_image2_1.jpg",
    "category": "공예공방"
  },
  {
    "id": "132081",
    "title": "완도장 (5, 10일)",
    "address": "전라남도 완도군 완도읍 개포로 34-1",
    "phone": "061-550-6173",
    "latitude": "34.3162070379",
    "longitude": "126.7477651218",
    "image": "http://tong.visitkorea.or.kr/cms/resource/55/1972055_image2_1.jpg",
    "category": "공예공방"
  },
  {
    "id": "523988",
    "title": "용산장(전남 장흥)(1, 6일)",
    "address": "전라남도 장흥군 용산면",
    "phone": "061-860-0704",
    "latitude": "34.6269279155",
    "longitude": "126.9225478413",
    "image": "",
    "category": "공예공방"
  },
  {
    "id": "132265",
    "title": "용인장 (5, 10일)",
    "address": "경기도 용인시 처인구 금령로107번길 13",
    "phone": "031-334-0510",
    "latitude": "37.2367104988",
    "longitude": "127.2078261596",
    "image": "http://tong.visitkorea.or.kr/cms/resource/22/3048622_image2_1.jpg",
    "category": "공예공방"
  },
  {
    "id": "132425",
    "title": "원통장 (2, 7일)",
    "address": "강원특별자치도 인제군 북면 원통리 647-6",
    "phone": "인제군관광정보센터 : 033-460-2170<br />\n상인회 : 033-461-6200",
    "latitude": "38.1226233783",
    "longitude": "128.2044596498",
    "image": "http://tong.visitkorea.or.kr/cms/resource/52/3375952_image2_1.JPG",
    "category": "공예공방"
  },
  {
    "id": "132259",
    "title": "유성장(4, 9일)",
    "address": "대전광역시 유성구 유성대로730번길 24 (장대동)",
    "phone": "042-611-2135",
    "latitude": "36.3578166521",
    "longitude": "127.3339640612",
    "image": "http://tong.visitkorea.or.kr/cms/resource/74/3031774_image2_1.JPG",
    "category": "공예공방"
  },
  {
    "id": "132020",
    "title": "음성장(2, 7일)",
    "address": "충청북도 음성군 음성읍 시장로117번길 6",
    "phone": "043-871-3601",
    "latitude": "36.9377092971",
    "longitude": "127.6907576748",
    "image": "http://tong.visitkorea.or.kr/cms/resource/97/3344797_image2_1.JPG",
    "category": "공예공방"
  },
  {
    "id": "132410",
    "title": "일로장 (1, 6일)",
    "address": "전라남도 무안군 일로읍 시장길 11-22",
    "phone": "061-450-5602",
    "latitude": "34.8474654717",
    "longitude": "126.4945385102",
    "image": "http://tong.visitkorea.or.kr/cms/resource/65/1972065_image2_1.jpg",
    "category": "공예공방"
  },
  {
    "id": "132414",
    "title": "장계장 (3, 8일)",
    "address": "전북특별자치도 장수군 시장천변길 36 장계재래시장장옥A블럭",
    "phone": "063-352-0346",
    "latitude": "35.7295898412",
    "longitude": "127.5821282448",
    "image": "http://tong.visitkorea.or.kr/cms/resource/61/1976661_image2_1.jpg",
    "category": "공예공방"
  },
  {
    "id": "132367",
    "title": "장기장 (4, 9일)",
    "address": "경상북도 포항시 남구 장기면 임중리 368-1",
    "phone": "054-280-0606",
    "latitude": "35.8908066625",
    "longitude": "129.4906834810",
    "image": "http://tong.visitkorea.or.kr/cms/resource/82/3528182_image2_1.jpg",
    "category": "공예공방"
  },
  {
    "id": "132276",
    "title": "장수장 (5, 10일)",
    "address": "전북특별자치도 장수군 장수읍 시장로 11",
    "phone": "063-350-2601",
    "latitude": "35.6492811442",
    "longitude": "127.5174416536",
    "image": "",
    "category": "공예공방"
  },
  {
    "id": "132356",
    "title": "장천장 (5, 10일)",
    "address": "경상북도 구미시 장천면 상장5길 4",
    "phone": "054-480-2622",
    "latitude": "36.1257029910",
    "longitude": "128.4933978676",
    "image": "http://tong.visitkorea.or.kr/cms/resource/22/3029422_image2_1.jpg",
    "category": "공예공방"
  },
  {
    "id": "250490",
    "title": "장항장 (3, 8일)",
    "address": "충청남도 서천군 장항읍 성화로 104",
    "phone": "",
    "latitude": "36.0156057568",
    "longitude": "126.6945386791",
    "image": "http://tong.visitkorea.or.kr/cms/resource/99/3047099_image2_1.JPG",
    "category": "공예공방"
  },
  {
    "id": "132046",
    "title": "줄포장 (1, 6일)",
    "address": "전북특별자치도 부안군 줄포면 부안로 865",
    "phone": "063-580-4612",
    "latitude": "35.5879791749",
    "longitude": "126.6769567596",
    "image": "http://tong.visitkorea.or.kr/cms/resource/81/1976681_image2_1.jpg",
    "category": "공예공방"
  },
  {
    "id": "523990",
    "title": "진교장 (3, 8일)",
    "address": "경상남도 하동군 진교면 진교리",
    "phone": "055-880-6261",
    "latitude": "37.5665097998",
    "longitude": "126.9781877165",
    "image": "",
    "category": "공예공방"
  },
  {
    "id": "132138",
    "title": "진주 문산장 (4, 9일)",
    "address": "경상남도 진주시 문산읍 소문길 68",
    "phone": "055-749-2600~1",
    "latitude": "35.1705439351",
    "longitude": "128.1689663396",
    "image": "http://tong.visitkorea.or.kr/cms/resource/68/3077368_image2_1.jpg",
    "category": "공예공방"
  },
  {
    "id": "132062",
    "title": "창평장 (5, 10일)",
    "address": "전라남도 담양군 창평면 사동길 14-25",
    "phone": "061-382-8801",
    "latitude": "35.3694988367",
    "longitude": "127.0298226417",
    "image": "http://tong.visitkorea.or.kr/cms/resource/88/1972088_image2_1.jpg",
    "category": "공예공방"
  },
  {
    "id": "132262",
    "title": "청양장 (2, 7일)",
    "address": "충청남도 청양군 청양읍 칠갑산로4길 6",
    "phone": "041-942-8228",
    "latitude": "36.4505466821",
    "longitude": "126.8011621441",
    "image": "",
    "category": "공예공방"
  },
  {
    "id": "132357",
    "title": "청평 5일장 (2, 7일)",
    "address": "경기도 가평군 청평면 시장중앙로 19",
    "phone": "031-580-2631",
    "latitude": "37.7347454074",
    "longitude": "127.4159041255",
    "image": "http://tong.visitkorea.or.kr/cms/resource/30/1787130_image2_1.jpg",
    "category": "공예공방"
  },
  {
    "id": "132405",
    "title": "추풍령장 (3, 8일)",
    "address": "충청북도 영동군 추풍령면 추풍령로5길 8-4",
    "phone": "043-742-3301",
    "latitude": "36.2113619849",
    "longitude": "127.9999170129",
    "image": "http://tong.visitkorea.or.kr/cms/resource/39/3341339_image2_1.JPG",
    "category": "공예공방"
  },
  {
    "id": "132759",
    "title": "통리장 (5, 15, 25일)",
    "address": "강원특별자치도 태백시 통리1길 39",
    "phone": "033-550-2103",
    "latitude": "37.1684997127",
    "longitude": "129.0363803567",
    "image": "http://tong.visitkorea.or.kr/cms/resource/69/3396969_image2_1.JPG",
    "category": "공예공방"
  },
  {
    "id": "250491",
    "title": "판교장 (5, 10일)",
    "address": "충청남도 서천군 판교면 현암리",
    "phone": "",
    "latitude": "36.1545009020",
    "longitude": "126.6894133063",
    "image": "http://tong.visitkorea.or.kr/cms/resource/88/1963388_image2_1.jpg",
    "category": "공예공방"
  },
  {
    "id": "132359",
    "title": "풍각장 (1, 6일)",
    "address": "경상북도 청도군 풍각면 송서5길 10-1",
    "phone": "054-370-6704",
    "latitude": "35.6355879418",
    "longitude": "128.5840562728",
    "image": "http://tong.visitkorea.or.kr/cms/resource/88/3531188_image2_1.jpg",
    "category": "공예공방"
  },
  {
    "id": "132263",
    "title": "한산5일장 (1, 6일)",
    "address": "충청남도 서천군 한산면 충절로1173번길 21-1",
    "phone": "041-951-3001",
    "latitude": "36.0844553324",
    "longitude": "126.8044659387",
    "image": "http://tong.visitkorea.or.kr/cms/resource/74/1163374_image2_1.jpg",
    "category": "공예공방"
  },
  {
    "id": "132274",
    "title": "함평장 (2, 7일)",
    "address": "전라남도 함평군 함평읍 시장길 28",
    "phone": "061-324-0026",
    "latitude": "35.0644303504",
    "longitude": "126.5226779541",
    "image": "http://tong.visitkorea.or.kr/cms/resource/12/3502712_image2_1.jpg",
    "category": "공예공방"
  },
  {
    "id": "132485",
    "title": "합덕장 (1, 6일)",
    "address": "충청남도 당진시 합덕읍 버그내2길 128-25",
    "phone": "041-363-1154",
    "latitude": "36.8062997099",
    "longitude": "126.7726885074",
    "image": "http://tong.visitkorea.or.kr/cms/resource/39/3559939_image2_1.jpg",
    "category": "공예공방"
  },
  {
    "id": "132275",
    "title": "해남장 (1, 6일)",
    "address": "전라남도 해남군 해남읍 중앙2로 100-1",
    "phone": "061-536-4953",
    "latitude": "34.5680874430",
    "longitude": "126.5960446344",
    "image": "http://tong.visitkorea.or.kr/cms/resource/04/1972104_image2_1.jpg",
    "category": "공예공방"
  },
  {
    "id": "132319",
    "title": "해리장 (4, 9일)",
    "address": "전북특별자치도 고창군 해리면 남시길 16-1",
    "phone": "063-560-2557",
    "latitude": "35.4586304901",
    "longitude": "126.5424886514",
    "image": "http://tong.visitkorea.or.kr/cms/resource/92/1976692_image2_1.jpg",
    "category": "공예공방"
  },
  {
    "id": "1435275",
    "title": "현풍장 (5, 10일)",
    "address": "대구광역시 달성군 현풍읍 비슬로130길 53-1",
    "phone": "",
    "latitude": "35.6947231113",
    "longitude": "128.4421643471",
    "image": "http://tong.visitkorea.or.kr/cms/resource/88/3023488_image2_1.jpg",
    "category": "공예공방"
  },
  {
    "id": "3045062",
    "title": "혜화필리핀마켓",
    "address": "서울특별시 종로구 대학로 146-2 (혜화동)",
    "phone": "",
    "latitude": "37.5843637023",
    "longitude": "127.0017156223",
    "image": "http://tong.visitkorea.or.kr/cms/resource/29/3045029_image2_1.jpg",
    "category": "공예공방"
  },
  {
    "id": "132640",
    "title": "홍성장 (1, 6일)",
    "address": "충청남도 홍성군 홍성읍 의사로43번길 6",
    "phone": "041-635-2000",
    "latitude": "36.6015465110",
    "longitude": "126.6704893378",
    "image": "",
    "category": "공예공방"
  },
  {
    "id": "132271",
    "title": "횡성민속장 (1, 6일)",
    "address": "강원특별자치도 횡성군 횡성읍 삼일로 4-2",
    "phone": "033-342-2389",
    "latitude": "37.4898843746",
    "longitude": "127.9865595218",
    "image": "http://tong.visitkorea.or.kr/cms/resource/93/1928393_image2_1.jpg",
    "category": "공예공방"
  },
  {
    "id": "1227014",
    "title": "흥해장 (2, 7일)",
    "address": "경상북도 포항시 북구 흥해로74번길 7-1",
    "phone": "",
    "latitude": "36.1114234577",
    "longitude": "129.3485784460",
    "image": "http://tong.visitkorea.or.kr/cms/resource/60/3522460_image2_1.jpg",
    "category": "공예공방"
  },
  {
    "id": "252690",
    "title": "금풍공예사",
    "address": "전라남도 곡성군 겸면 산이재로 681",
    "phone": "",
    "latitude": "35.2441935587",
    "longitude": "127.1921698061",
    "image": "",
    "category": "공예공방",
    "original_category": "전통시장"
  },
  {
    "id": "132464",
    "title": "남원 목기공예사",
    "address": "전북특별자치도 남원시 요천로 1357 (조산동)",
    "phone": "",
    "latitude": "35.3980792677",
    "longitude": "127.3718555359",
    "image": "http://tong.visitkorea.or.kr/cms/resource/98/3064298_image2_1.jpg",
    "category": "공예공방",
    "original_category": "전통시장"
  },
  {
    "id": "132571",
    "title": "도예공방 필",
    "address": "충청북도 충주시 연원5길 26",
    "phone": "043-854-0049",
    "latitude": "36.9835584314",
    "longitude": "127.9313236403",
    "image": "http://tong.visitkorea.or.kr/cms/resource/07/1959807_image2_1.jpg",
    "category": "공예공방",
    "original_category": "전통시장"
  },
  {
    "id": "2793084",
    "title": "들꽃공방",
    "address": "경상남도 합천군 가야면 황산1길 71",
    "phone": "",
    "latitude": "35.7631403638",
    "longitude": "128.1357839293",
    "image": "http://tong.visitkorea.or.kr/cms/resource/25/2800725_image2_1.jpg",
    "category": "공예공방",
    "original_category": "전통시장"
  },
  {
    "id": "1661859",
    "title": "루디아공예원",
    "address": "경상남도 사천시 벌리5길 12-12",
    "phone": "055-833-0524",
    "latitude": "34.9388517774",
    "longitude": "128.0843548238",
    "image": "",
    "category": "공예공방",
    "original_category": "전통시장"
  },
  {
    "id": "2946109",
    "title": "손놀림공방",
    "address": "서울특별시 종로구 낙산성곽서1길 19-1 (이화동)",
    "phone": "",
    "latitude": "37.5779590034",
    "longitude": "127.0079541244",
    "image": "http://tong.visitkorea.or.kr/cms/resource/81/2947481_image2_1.jpg",
    "category": "공예공방",
    "original_category": "전통시장"
  },
  {
    "id": "1013461",
    "title": "아이하시 (수제젓가락공예)",
    "address": "부산광역시 중구 국제시장2길 33",
    "phone": "010-2620-7373",
    "latitude": "35.1024004807",
    "longitude": "129.0283125960",
    "image": "http://tong.visitkorea.or.kr/cms/resource/87/1015987_image2_1.jpg",
    "category": "공예공방",
    "original_category": "전통시장"
  },
  {
    "id": "132542",
    "title": "영천목탁공예사",
    "address": "경상북도 영천시 새미1길 13 (언하동)",
    "phone": "054-334-9757, 010-9365-9757",
    "latitude": "35.9875747462",
    "longitude": "128.9695625436",
    "image": "http://tong.visitkorea.or.kr/cms/resource/78/3510178_image2_1.jpg",
    "category": "공예공방",
    "original_category": "전통시장"
  },
  {
    "id": "1595026",
    "title": "온고을공예방",
    "address": "전북특별자치도 전주시 완산구 향교길 51-9",
    "phone": "010-9977-1617",
    "latitude": "35.8122257130",
    "longitude": "127.1523031232",
    "image": "http://tong.visitkorea.or.kr/cms/resource/08/2040808_image2_1.jpg",
    "category": "공예공방",
    "original_category": "전통시장"
  },
  {
    "id": "1945196",
    "title": "옹기공방",
    "address": "충청북도 영동군 영동읍 임계길 240-27",
    "phone": "043-744-6040",
    "latitude": "36.1669115085",
    "longitude": "127.8471095989",
    "image": "http://tong.visitkorea.or.kr/cms/resource/18/3341318_image2_1.JPG",
    "category": "공예공방",
    "original_category": "전통시장"
  },
  {
    "id": "132522",
    "title": "우석공예사",
    "address": "서울특별시 종로구 창경궁로 88",
    "phone": "02-2279-0041<br>02-2265-7983",
    "latitude": "37.5701042119",
    "longitude": "126.9996801010",
    "image": "http://tong.visitkorea.or.kr/cms/resource/14/1984414_image2_1.jpg",
    "category": "공예공방",
    "original_category": "전통시장"
  },
  {
    "id": "132429",
    "title": "운봉서각공방",
    "address": "충청북도 보은군 장안면 속리산로 127",
    "phone": "043-544-3649",
    "latitude": "36.4931727975",
    "longitude": "127.7665411157",
    "image": "http://tong.visitkorea.or.kr/cms/resource/88/1959788_image2_1.jpg",
    "category": "공예공방",
    "original_category": "전통시장"
  },
  {
    "id": "132483",
    "title": "웅석공방",
    "address": "경상남도 산청군 단성면 호암로 1325",
    "phone": "055-973-4118",
    "latitude": "35.3623149902",
    "longitude": "127.9115644305",
    "image": "http://tong.visitkorea.or.kr/cms/resource/71/1979271_image2_1.jpg",
    "category": "공예공방",
    "original_category": "전통시장"
  },
  {
    "id": "132446",
    "title": "정선석공예단지",
    "address": "강원특별자치도 정선군 정선읍 소금강로 19",
    "phone": "",
    "latitude": "37.3543583565",
    "longitude": "128.7201197232",
    "image": "http://tong.visitkorea.or.kr/cms/resource/08/1948108_image2_1.jpg",
    "category": "공예공방",
    "original_category": "전통시장"
  },
  {
    "id": "1344349",
    "title": "정일품공방",
    "address": "전북특별자치도 남원시 요천로 1268",
    "phone": "063-633-6197",
    "latitude": "35.3962681961",
    "longitude": "127.3623286466",
    "image": "",
    "category": "공예공방",
    "original_category": "전통시장"
  },
  {
    "id": "2795216",
    "title": "지인공방",
    "address": "인천광역시 중구 신포로27번길 48-1 (관동2가)",
    "phone": "",
    "latitude": "37.4728004837",
    "longitude": "126.6229255190",
    "image": "http://tong.visitkorea.or.kr/cms/resource/06/2796306_image2_1.JPG",
    "category": "공예공방",
    "original_category": "전통시장"
  },
  {
    "id": "2792910",
    "title": "초려공방",
    "address": "강원특별자치도 강릉시 율곡로3139번길 24-2 (죽헌동)",
    "phone": "",
    "latitude": "37.7794540334",
    "longitude": "128.8799201580",
    "image": "http://tong.visitkorea.or.kr/cms/resource/47/2797147_image2_1.jpg",
    "category": "공예공방",
    "original_category": "전통시장"
  },
  {
    "id": "132612",
    "title": "통영전통공예관",
    "address": "경상남도 통영시 도남로 281",
    "phone": "055-645-3266",
    "latitude": "34.8264594410",
    "longitude": "128.4329801227",
    "image": "http://tong.visitkorea.or.kr/cms/resource/11/488011_image2_1.jpg",
    "category": "공예공방",
    "original_category": "전통시장"
  },
  {
    "id": "3110803",
    "title": "평촌도예공방",
    "address": "광주광역시 북구 담안평무길 77",
    "phone": "",
    "latitude": "35.1794032926",
    "longitude": "127.0082376986",
    "image": "http://tong.visitkorea.or.kr/cms/resource/75/3402375_image2_1.jpg",
    "category": "공예공방",
    "original_category": "전통시장"
  },
  {
    "id": "130883",
    "title": "해옥공예",
    "address": "충청남도 태안군 소원면 파도리",
    "phone": "",
    "latitude": "36.7361496315",
    "longitude": "126.1369090325",
    "image": "http://tong.visitkorea.or.kr/cms/resource/25/3340525_image2_1.jpg",
    "category": "공예공방",
    "original_category": "전통시장"
  },
  {
    "id": "128239",
    "title": "히흣 도예공방",
    "address": "충청남도 천안시 동남구 대흥로 323",
    "phone": "",
    "latitude": "36.8167412775",
    "longitude": "127.1505902310",
    "image": "",
    "category": "공예공방",
    "original_category": "전통시장"
  },
  {
    "id": "3070985",
    "title": "25 공방",
    "address": "충청북도 청주시 흥덕구 오송읍 가로수로 221",
    "phone": "",
    "latitude": "36.6118513315",
    "longitude": "127.3285881778",
    "image": "http://tong.visitkorea.or.kr/cms/resource/57/3070957_image2_1.jpg",
    "category": "공예공방",
    "original_category": "전통시장"
  },
  {
    "id": "2775333",
    "title": "GB포유공방",
    "address": "전라남도 영광군 영광읍 현암길 43",
    "phone": "",
    "latitude": "35.2764339291",
    "longitude": "126.5094683447",
    "image": "http://tong.visitkorea.or.kr/cms/resource/90/3002490_image2_1.jpg",
    "category": "공예공방",
    "original_category": "전통시장"
  },
  {
    "id": "969831",
    "title": "KCDF 갤러리숍 공예정원",
    "address": "서울특별시 종로구 인사동11길 8 공예종합유통지원센터",
    "phone": "",
    "latitude": "37.5740618063",
    "longitude": "126.9841425159",
    "image": "",
    "category": "공예공방",
    "original_category": "전통시장"
  },
  {
    "id": "1902811",
    "title": "경남관광기념품점 (구, 경남관광공예명품관)",
    "address": "경상남도 창원시 성산구 원이대로 362 (대원동)",
    "phone": "",
    "latitude": "35.2382867979",
    "longitude": "128.6578550874",
    "image": "http://tong.visitkorea.or.kr/cms/resource/99/3082099_image2_1.JPG",
    "category": "공예공방",
    "original_category": "한국관광명품점"
  },
  {
    "id": "1344277",
    "title": "순천만 공예특산품관",
    "address": "전라남도 순천시 순천만길 513-25",
    "phone": "061-749-3542",
    "latitude": "34.8860532226",
    "longitude": "127.5090399037",
    "image": "http://tong.visitkorea.or.kr/cms/resource/76/1971676_image2_1.jpg",
    "category": "공예공방",
    "original_category": "한국관광명품점"
  },
  {
    "id": "969942",
    "title": "한국공예관",
    "address": "서울특별시 종로구 인사동길 33 (관훈동)",
    "phone": "",
    "latitude": "37.5735368921",
    "longitude": "126.9855285155",
    "image": "http://tong.visitkorea.or.kr/cms/resource/33/3481933_image2_1.jpg",
    "category": "공예공방",
    "original_category": "한국관광명품점"
  },
  {
    "id": "132753",
    "title": "향토공예관",
    "address": "강원특별자치도 춘천시 춘천로 19 (온의동)",
    "phone": "033-241-4419",
    "latitude": "37.8668662471",
    "longitude": "127.7213863239",
    "image": "http://tong.visitkorea.or.kr/cms/resource/70/1947770_image2_1.jpg",
    "category": "공예공방",
    "original_category": "한국관광명품점"
  }
]