[
  {
    "id": "2843518",
    "title": "갤러리아 광교 파사쥬",
    "address": "경기도 수원시 영통구 광교중앙로 124 갤러리아 광교",
    "phone": "",
    "latitude": "37.2853549456",
    "longitude": "127.0572801105",
    "image": "http://tong.visitkorea.or.kr/cms/resource/89/2843489_image2_1.jpg",
    "category": "백화점",
    "original_category": "상설시장"
  },
  {
    "id": "273772",
    "title": "갤러리아백화점 명품관",
    "address": "서울특별시 강남구 압구정로 343 (압구정동)",
    "phone": "",
    "latitude": "37.5285292127",
    "longitude": "127.0400692668",
    "image": "http://tong.visitkorea.or.kr/cms/resource/74/3495074_image2_1.jpg",
    "category": "백화점",
    "original_category": "상설시장"
  },
  {
    "id": "132383",
    "title": "갤러리아백화점 센터시티점",
    "address": "충청남도 천안시 서북구 공원로 227",
    "phone": "041-559-9114",
    "latitude": "36.8005478835",
    "longitude": "127.1047142548",
    "image": "",
    "category": "백화점",
    "original_category": "상설시장"
  },
  {
    "id": "132672",
    "title": "갤러리아백화점 타임월드점",
    "address": "대전광역시 서구 대덕대로 211",
    "phone": "042-480-5000",
    "latitude": "36.3518847832",
    "longitude": "127.3782574818",
    "image": "",
    "category": "백화점",
    "original_category": "상설시장"
  },
  {
    "id": "132377",
    "title": "대동백화점",
    "address": "경상남도 창원시 성산구 동산로 115",
    "phone": "",
    "latitude": "35.2197005569",
    "longitude": "128.6886501228",
    "image": "",
    "category": "백화점",
    "original_category": "상설시장"
  },
  {
    "id": "132661",
    "title": "롯데백화점 (대전점)",
    "address": "대전광역시 서구 계룡로 598 (괴정동)",
    "phone": "",
    "latitude": "36.3407307037",
    "longitude": "127.3895651061",
    "image": "http://tong.visitkorea.or.kr/cms/resource/21/3443221_image2_1.jpg",
    "category": "백화점",
    "original_category": "상설시장"
  },
  {
    "id": "2979848",
    "title": "롯데백화점 건대스타시티점",
    "address": "서울특별시 광진구 능동로 92 롯데백화점",
    "phone": "",
    "latitude": "37.5390535504",
    "longitude": "127.0712300203",
    "image": "http://tong.visitkorea.or.kr/cms/resource/52/3007052_image2_1.jpg",
    "category": "백화점",
    "original_category": "상설시장"
  },
  {
    "id": "2997813",
    "title": "롯데백화점 김포공항점",
    "address": "서울특별시 강서구 하늘길 38 (방화동)",
    "phone": "",
    "latitude": "19.6944274800",
    "longitude": "117.9925662504",
    "image": "http://tong.visitkorea.or.kr/cms/resource/04/2997804_image2_1.jpg",
    "category": "백화점",
    "original_category": "상설시장"
  },
  {
    "id": "132668",
    "title": "롯데백화점 본점",
    "address": "서울특별시 중구 남대문로 81",
    "phone": "010-6470-4769",
    "latitude": "37.5647378465",
    "longitude": "126.9817152234",
    "image": "http://tong.visitkorea.or.kr/cms/resource/24/2997124_image2_1.jpg",
    "category": "백화점",
    "original_category": "상설시장"
  },
  {
    "id": "273806",
    "title": "롯데백화점 본점 에비뉴엘",
    "address": "서울특별시 중구 남대문로 73",
    "phone": "",
    "latitude": "37.5641934634",
    "longitude": "126.9815930278",
    "image": "http://tong.visitkorea.or.kr/cms/resource/56/668856_image2_1.jpg",
    "category": "백화점",
    "original_category": "상설시장"
  },
  {
    "id": "132607",
    "title": "롯데백화점 부산본점",
    "address": "부산광역시 부산진구 가야대로 772",
    "phone": "051-810-2500",
    "latitude": "35.1569754411",
    "longitude": "129.0562420097",
    "image": "http://tong.visitkorea.or.kr/cms/resource/36/1960436_image2_1.jpg",
    "category": "백화점",
    "original_category": "상설시장"
  },
  {
    "id": "132659",
    "title": "롯데백화점 인천점",
    "address": "인천광역시 미추홀구 연남로 35 인천종합터미널,롯데백화점",
    "phone": "1577-0001",
    "latitude": "37.4422082182",
    "longitude": "126.7023441253",
    "image": "http://tong.visitkorea.or.kr/cms/resource/27/3007027_image2_1.jpg",
    "category": "백화점",
    "original_category": "상설시장"
  },
  {
    "id": "132642",
    "title": "신세계백화점 본점",
    "address": "서울특별시 중구 소공로 63",
    "phone": "1588-1234",
    "latitude": "37.5609271625",
    "longitude": "126.9808542989",
    "image": "http://tong.visitkorea.or.kr/cms/resource/67/668867_image2_1.jpg",
    "category": "백화점",
    "original_category": "상설시장"
  },
  {
    "id": "767084",
    "title": "신세계백화점 센텀시티점",
    "address": "부산광역시 해운대구 센텀남대로 35",
    "phone": "",
    "latitude": "35.1687865886",
    "longitude": "129.1297408475",
    "image": "http://tong.visitkorea.or.kr/cms/resource/17/3026417_image2_1.JPG",
    "category": "백화점",
    "original_category": "상설시장"
  },
  {
    "id": "132686",
    "title": "행복한백화점",
    "address": "서울특별시 양천구 목동동로 309",
    "phone": "02-6678-9000",
    "latitude": "37.5287623617",
    "longitude": "126.8762258535",
    "image": "http://tong.visitkorea.or.kr/cms/resource/10/3503510_image2_1.jpg",
    "category": "백화점",
    "original_category": "상설시장"
  },
  {
    "id": "132673",
    "title": "현대백화점 무역센터점",
    "address": "서울특별시 강남구 테헤란로 517 (삼성동)",
    "phone": "",
    "latitude": "37.5086679839",
    "longitude": "127.0597791462",
    "image": "http://tong.visitkorea.or.kr/cms/resource/01/3490601_image2_1.jpg",
    "category": "백화점",
    "original_category": "상설시장"
  },
  {
    "id": "132670",
    "title": "현대백화점 압구정본점",
    "address": "서울특별시 강남구 압구정로 165 (압구정동)",
    "phone": "",
    "latitude": "37.5274180039",
    "longitude": "127.0274843337",
    "image": "http://tong.visitkorea.or.kr/cms/resource/95/3490595_image2_1.jpg",
    "category": "백화점",
    "original_category": "상설시장"
  },
  {
    "id": "2532877",
    "title": "신세계사이먼 부산 프리미엄 아울렛",
    "address": "부산광역시 기장군 정관로 1133 부산프리미엄아울렛",
    "phone": "",
    "latitude": "35.3238517233",
    "longitude": "129.2349940728",
    "image": "http://tong.visitkorea.or.kr/cms/resource/90/3542590_image2_1.jpg",
    "category": "백화점",
    "original_category": "대형마트"
  },
  {
    "id": "2524082",
    "title": "신세계사이먼 시흥 프리미엄 아울렛",
    "address": "경기도 시흥시 서해안로 699 (배곧동)",
    "phone": "",
    "latitude": "37.3801938341",
    "longitude": "126.7383981191",
    "image": "http://tong.visitkorea.or.kr/cms/resource/56/3535656_image2_1.jpg",
    "category": "백화점",
    "original_category": "대형마트"
  },
  {
    "id": "690557",
    "title": "신세계사이먼 여주 프리미엄 아울렛",
    "address": "경기도 여주시 명품로 360 (상거동)",
    "phone": "",
    "latitude": "19.6944274800",
    "longitude": "117.9925662504",
    "image": "http://tong.visitkorea.or.kr/cms/resource/48/3549448_image2_1.jpg",
    "category": "백화점",
    "original_category": "대형마트"
  },
  {
    "id": "1238580",
    "title": "신세계사이먼 파주 프리미엄 아울렛",
    "address": "경기도 파주시 탄현면 필승로 200",
    "phone": "",
    "latitude": "37.7694061453",
    "longitude": "126.6965243749",
    "image": "http://tong.visitkorea.or.kr/cms/resource/39/3496139_image2_1.jpeg",
    "category": "백화점",
    "original_category": "대형마트"
  },
  {
    "id": "132251",
    "title": "한국기념품백화점",
    "address": "제주특별자치도 제주시 원노형로 13",
    "phone": "064-742-0987",
    "latitude": "33.4874227654",
    "longitude": "126.4847962330",
    "image": "http://tong.visitkorea.or.kr/cms/resource/46/1932246_image2_1.jpg",
    "category": "백화점",
    "original_category": "한국관광명품점"
  }
]