[
  {
    "id": "2774073",
    "title": "남부시장 청년몰",
    "address": "전북특별자치도 전주시 완산구 풍남문2길 53",
    "phone": "",
    "latitude": "35.8131060661",
    "longitude": "127.1464397326",
    "image": "http://tong.visitkorea.or.kr/cms/resource/06/2774206_image2_1.jpg",
    "category": "복합쇼핑몰",
    "original_category": "특산물판매점"
  },
  {
    "id": "2757647",
    "title": "가락몰",
    "address": "서울특별시 송파구 양재대로 932 (가락동)",
    "phone": "",
    "latitude": "37.4960786971",
    "longitude": "127.1107693087",
    "image": "http://tong.visitkorea.or.kr/cms/resource/56/3467156_image2_1.jpg",
    "category": "복합쇼핑몰",
    "original_category": "대형마트"
  },
  {
    "id": "132492",
    "title": "고투몰(강남터미널 지하쇼핑몰)",
    "address": "서울특별시 서초구 신반포로 지하200 (잠원동)",
    "phone": "02-535-8182",
    "latitude": "37.5062728353",
    "longitude": "127.0050675283",
    "image": "http://tong.visitkorea.or.kr/cms/resource/15/3503415_image2_1.jpg",
    "category": "복합쇼핑몰",
    "original_category": "대형마트"
  },
  {
    "id": "987071",
    "title": "누죤패션몰",
    "address": "서울특별시 중구 을지로45길 62",
    "phone": "02-6366-3114",
    "latitude": "37.5669492622",
    "longitude": "127.0130011984",
    "image": "http://tong.visitkorea.or.kr/cms/resource/81/1984381_image2_1.jpg",
    "category": "복합쇼핑몰",
    "original_category": "대형마트"
  },
  {
    "id": "273756",
    "title": "두타몰",
    "address": "서울특별시 중구 장충단로 275 (을지로6가)",
    "phone": "",
    "latitude": "37.5689100708",
    "longitude": "127.0088293006",
    "image": "http://tong.visitkorea.or.kr/cms/resource/48/3525648_image2_1.jpg",
    "category": "복합쇼핑몰",
    "original_category": "대형마트"
  },
  {
    "id": "3007215",
    "title": "롯데몰 광명점",
    "address": "경기도 광명시 일직로 17 (일직동)",
    "phone": "",
    "latitude": "37.4232469761",
    "longitude": "126.8839475563",
    "image": "http://tong.visitkorea.or.kr/cms/resource/42/3007042_image2_1.jpg",
    "category": "복합쇼핑몰",
    "original_category": "대형마트"
  },
  {
    "id": "3086021",
    "title": "롯데몰 군산점",
    "address": "전북특별자치도 군산시 조촌로 130 (조촌동)",
    "phone": "",
    "latitude": "35.9764582119",
    "longitude": "126.7391551460",
    "image": "http://tong.visitkorea.or.kr/cms/resource/18/3086018_image2_1.jpg",
    "category": "복합쇼핑몰",
    "original_category": "대형마트"
  },
  {
    "id": "1535690",
    "title": "롯데몰 김포공항점",
    "address": "서울특별시 강서구 하늘길 지하77 (방화동)",
    "phone": "02-6116-4000",
    "latitude": "37.5621960337",
    "longitude": "126.8015844987",
    "image": "",
    "category": "복합쇼핑몰",
    "original_category": "대형마트"
  },
  {
    "id": "3447174",
    "title": "롯데몰 은평점",
    "address": "서울특별시 은평구 통일로 1050 (진관동)",
    "phone": "",
    "latitude": "37.6375893423",
    "longitude": "126.9179162000",
    "image": "",
    "category": "복합쇼핑몰",
    "original_category": "대형마트"
  },
  {
    "id": "3086012",
    "title": "롯데몰 진주점",
    "address": "경상남도 진주시 동진로 440 (충무공동)",
    "phone": "",
    "latitude": "35.1801923316",
    "longitude": "128.1398630799",
    "image": "http://tong.visitkorea.or.kr/cms/resource/11/3086011_image2_1.jpg",
    "category": "복합쇼핑몰",
    "original_category": "대형마트"
  },
  {
    "id": "132248",
    "title": "롯데월드 쇼핑몰",
    "address": "서울특별시 송파구 올림픽로 300 (신천동)",
    "phone": "02-411-2000",
    "latitude": "37.5141653654",
    "longitude": "127.1040749597",
    "image": "http://tong.visitkorea.or.kr/cms/resource/29/1920629_image2_1.jpg",
    "category": "복합쇼핑몰",
    "original_category": "대형마트"
  },
  {
    "id": "2011782",
    "title": "메세나폴리스 몰",
    "address": "서울특별시 마포구 양화로 45",
    "phone": "",
    "latitude": "37.5513131918",
    "longitude": "126.9139217822",
    "image": "http://tong.visitkorea.or.kr/cms/resource/68/2012068_image2_1.jpg",
    "category": "복합쇼핑몰",
    "original_category": "대형마트"
  },
  {
    "id": "2925429",
    "title": "별애별청년몰",
    "address": "강원특별자치도 정선군 사북2길 10 사북시장 청년몰",
    "phone": "",
    "latitude": "37.2275498019",
    "longitude": "128.8165232309",
    "image": "http://tong.visitkorea.or.kr/cms/resource/99/2925399_image2_1.jpg",
    "category": "복합쇼핑몰",
    "original_category": "대형마트"
  },
  {
    "id": "2021033",
    "title": "부평모두몰(부평지하도상가)",
    "address": "인천광역시 부평구 부평대로 지하 69",
    "phone": "",
    "latitude": "37.4900058247",
    "longitude": "126.7239380470",
    "image": "http://tong.visitkorea.or.kr/cms/resource/07/3395507_image2_1.JPG",
    "category": "복합쇼핑몰",
    "original_category": "대형마트"
  },
  {
    "id": "1984944",
    "title": "스타필드 코엑스몰",
    "address": "서울특별시 강남구 영동대로 513 (삼성동)",
    "phone": "02-6002-5300",
    "latitude": "37.5119175967",
    "longitude": "127.0592179950",
    "image": "http://tong.visitkorea.or.kr/cms/resource/55/3081355_image2_1.jpg",
    "category": "복합쇼핑몰",
    "original_category": "대형마트"
  },
  {
    "id": "3428365",
    "title": "아이파크몰 고척점",
    "address": "서울특별시 구로구 경인로43길 49 (고척동, 고척아이파크)",
    "phone": "",
    "latitude": "37.4982767377",
    "longitude": "126.8606503517",
    "image": "http://tong.visitkorea.or.kr/cms/resource/51/3432251_image2_1.jpg",
    "category": "복합쇼핑몰",
    "original_category": "대형마트"
  },
  {
    "id": "688998",
    "title": "아이파크몰 용산점",
    "address": "서울특별시 용산구 한강대로23길 55",
    "phone": "",
    "latitude": "37.5298527082",
    "longitude": "126.9648510800",
    "image": "http://tong.visitkorea.or.kr/cms/resource/99/936299_image2_1.jpg",
    "category": "복합쇼핑몰",
    "original_category": "대형마트"
  },
  {
    "id": "2371458",
    "title": "제천몰 / 제천한방클러스터",
    "address": "충청북도 제천시 독순로 70",
    "phone": "",
    "latitude": "37.1389401803",
    "longitude": "128.2106635051",
    "image": "http://tong.visitkorea.or.kr/cms/resource/60/2371460_image2_1.jpg",
    "category": "복합쇼핑몰",
    "original_category": "대형마트"
  },
  {
    "id": "2372445",
    "title": "청주 지웰시티몰 II",
    "address": "충청북도 청주시 흥덕구 대농로 47-1",
    "phone": "",
    "latitude": "36.6433189371",
    "longitude": "127.4278450691",
    "image": "http://tong.visitkorea.or.kr/cms/resource/39/2372439_image2_1.jpg",
    "category": "복합쇼핑몰",
    "original_category": "대형마트"
  },
  {
    "id": "2761460",
    "title": "청평화패션몰",
    "address": "서울특별시 중구 청계천로 334 (신당동)",
    "phone": "",
    "latitude": "37.5695212208",
    "longitude": "127.0149565033",
    "image": "http://tong.visitkorea.or.kr/cms/resource/08/3568408_image2_1.jpg",
    "category": "복합쇼핑몰",
    "original_category": "대형마트"
  },
  {
    "id": "2853620",
    "title": "투데이패션몰",
    "address": "경기도 군포시 산본천로 62 인베스텔",
    "phone": "",
    "latitude": "37.3606161814",
    "longitude": "126.9304256362",
    "image": "http://tong.visitkorea.or.kr/cms/resource/03/2853603_image2_1.JPG",
    "category": "복합쇼핑몰",
    "original_category": "대형마트"
  },
  {
    "id": "1985821",
    "title": "파르나스몰",
    "address": "서울특별시 강남구 테헤란로 521",
    "phone": "02-559-7089",
    "latitude": "37.5095984514",
    "longitude": "127.0608845757",
    "image": "http://tong.visitkorea.or.kr/cms/resource/59/3463659_image2_1.jpg",
    "category": "복합쇼핑몰",
    "original_category": "대형마트"
  },
  {
    "id": "1988288",
    "title": "IFC몰",
    "address": "서울특별시 영등포구 국제금융로 10 (여의도동)",
    "phone": "",
    "latitude": "37.5258580443",
    "longitude": "126.9266241202",
    "image": "http://tong.visitkorea.or.kr/cms/resource/95/3498895_image2_1.jpg",
    "category": "복합쇼핑몰",
    "original_category": "대형마트"
  },
  {
    "id": "732484",
    "title": "가든파이브라이프(Garden5life)",
    "address": "서울특별시 송파구 충민로 66 (문정동)",
    "phone": "",
    "latitude": "37.4776672007",
    "longitude": "127.1249768726",
    "image": "http://tong.visitkorea.or.kr/cms/resource/20/3499620_image2_1.jpg",
    "category": "복합쇼핑몰"
  },
  {
    "id": "2989027",
    "title": "간격 드로잉스페이스",
    "address": "서울특별시 마포구 월드컵로23길 20 망원빌",
    "phone": "",
    "latitude": "37.5570179737",
    "longitude": "126.9077277407",
    "image": "http://tong.visitkorea.or.kr/cms/resource/16/2989016_image2_1.jpg",
    "category": "복합쇼핑몰"
  },
  {
    "id": "3540291",
    "title": "강릉전통약과2공장",
    "address": "강원특별자치도 강릉시 율곡로2631번길 45-2 (노암동)",
    "phone": "033-646-3544",
    "latitude": "37.7435365545",
    "longitude": "128.9100991063",
    "image": "",
    "category": "복합쇼핑몰"
  },
  {
    "id": "3539614",
    "title": "관음불교사",
    "address": "강원특별자치도 강릉시 중앙시장2길 29 (성남동)",
    "phone": "033-642-8880",
    "latitude": "37.7529102374",
    "longitude": "128.8981415598",
    "image": "",
    "category": "복합쇼핑몰"
  },
  {
    "id": "3080714",
    "title": "구찌 가옥",
    "address": "서울특별시 용산구 이태원로 223 (한남동)",
    "phone": "",
    "latitude": "37.5355193212",
    "longitude": "126.9985506278",
    "image": "http://tong.visitkorea.or.kr/cms/resource/11/3080711_image2_1.JPG",
    "category": "복합쇼핑몰"
  },
  {
    "id": "3082679",
    "title": "그래픽",
    "address": "서울특별시 용산구 회나무로39길 33 (이태원동)",
    "phone": "",
    "latitude": "37.5409852642",
    "longitude": "126.9936064792",
    "image": "http://tong.visitkorea.or.kr/cms/resource/48/3082648_image2_1.jpg",
    "category": "복합쇼핑몰"
  },
  {
    "id": "3483033",
    "title": "그린다이닝",
    "address": "경기도 성남시 중원구 둔촌대로52번길 3-17 (성남동)",
    "phone": "",
    "latitude": "37.4283118259",
    "longitude": "127.1255782164",
    "image": "http://tong.visitkorea.or.kr/cms/resource/29/3483029_image2_1.jpg",
    "category": "복합쇼핑몰"
  },
  {
    "id": "3544518",
    "title": "다이소 강릉내곡점",
    "address": "강원특별자치도 강릉시 범일로 618 (내곡동)",
    "phone": "",
    "latitude": "37.7422972456",
    "longitude": "128.8811795266",
    "image": "",
    "category": "복합쇼핑몰"
  },
  {
    "id": "3493270",
    "title": "더 스테이지(THE STAGE)",
    "address": "서울특별시 종로구 청계천로 41 (서린동)",
    "phone": "",
    "latitude": "37.5697233868",
    "longitude": "126.9821983715",
    "image": "http://tong.visitkorea.or.kr/cms/resource/64/3493264_image2_1.jpg",
    "category": "복합쇼핑몰"
  },
  {
    "id": "1314565",
    "title": "덕이동 로데오거리",
    "address": "경기도 고양시 일산서구 탄중로101번길 13 (덕이동)",
    "phone": "",
    "latitude": "37.6929522245",
    "longitude": "126.7559238761",
    "image": "http://tong.visitkorea.or.kr/cms/resource/85/3551185_image2_1.jpg",
    "category": "복합쇼핑몰"
  },
  {
    "id": "3080929",
    "title": "디올 성수",
    "address": "서울특별시 성동구 연무장5길 7 (성수동2가)",
    "phone": "",
    "latitude": "37.5439304241",
    "longitude": "127.0524621464",
    "image": "http://tong.visitkorea.or.kr/cms/resource/14/3080914_image2_1.JPG",
    "category": "복합쇼핑몰"
  },
  {
    "id": "1144856",
    "title": "라페스타(Lafesta)",
    "address": "경기도 고양시 일산동구 무궁화로 20-11 (장항동)",
    "phone": "0507-1370-9600",
    "latitude": "37.6618866056",
    "longitude": "126.7675570226",
    "image": "http://tong.visitkorea.or.kr/cms/resource/06/3466606_image2_1.JPG",
    "category": "복합쇼핑몰"
  },
  {
    "id": "3354446",
    "title": "마켓온다",
    "address": "충청북도 청주시 청원구 상당로 314 (내덕동)",
    "phone": "",
    "latitude": "36.6566740551",
    "longitude": "127.4889281085",
    "image": "http://tong.visitkorea.or.kr/cms/resource/15/3354415_image2_1.jpg",
    "category": "복합쇼핑몰"
  },
  {
    "id": "3545110",
    "title": "메르시제주소품샵",
    "address": "제주특별자치도 제주시 용두암길 20 (용담이동)",
    "phone": "",
    "latitude": "33.5145868674",
    "longitude": "126.5126459739",
    "image": "http://tong.visitkorea.or.kr/cms/resource/09/3545109_image2_1.jpg",
    "category": "복합쇼핑몰"
  },
  {
    "id": "2989582",
    "title": "모자이크",
    "address": "서울특별시 중구 다산로31길 64 (신당동)",
    "phone": "",
    "latitude": "37.5630385781",
    "longitude": "127.0114486730",
    "image": "",
    "category": "복합쇼핑몰"
  },
  {
    "id": "3413603",
    "title": "무신사 스탠다드 성수",
    "address": "서울특별시 성동구 연무장길 83 (성수동2가)",
    "phone": "",
    "latitude": "37.5418224475",
    "longitude": "127.0586866388",
    "image": "http://tong.visitkorea.or.kr/cms/resource/02/3413102_image2_1.png",
    "category": "복합쇼핑몰"
  },
  {
    "id": "706303",
    "title": "문정동 로데오거리",
    "address": "서울특별시 송파구 동남로4길 10 (문정동)",
    "phone": "",
    "latitude": "37.4891519596",
    "longitude": "127.1239099771",
    "image": "http://tong.visitkorea.or.kr/cms/resource/93/3571793_image2_1.jpg",
    "category": "복합쇼핑몰"
  },
  {
    "id": "3040724",
    "title": "문호리리버마켓(매일상회)",
    "address": "경기도 양평군 서종면 북한강로 992",
    "phone": "",
    "latitude": "37.6248987295",
    "longitude": "127.3552767145",
    "image": "http://tong.visitkorea.or.kr/cms/resource/97/3040697_image2_1.JPG",
    "category": "복합쇼핑몰"
  },
  {
    "id": "3007789",
    "title": "미미네문방구",
    "address": "경상남도 거제시 일운면 지세포로 87",
    "phone": "",
    "latitude": "34.8286279721",
    "longitude": "128.7049619616",
    "image": "http://tong.visitkorea.or.kr/cms/resource/31/3000231_image2_1.JPG",
    "category": "복합쇼핑몰"
  },
  {
    "id": "3085309",
    "title": "밀리언아카이브",
    "address": "서울특별시 성동구 아차산로5길 24-18 (성수동2가)",
    "phone": "",
    "latitude": "37.5473494869",
    "longitude": "127.0533341920",
    "image": "http://tong.visitkorea.or.kr/cms/resource/60/3084060_image2_1.JPG",
    "category": "복합쇼핑몰"
  },
  {
    "id": "2946230",
    "title": "뷰티플레이",
    "address": "서울특별시 중구 명동길 73 (명동1가)",
    "phone": "",
    "latitude": "37.5643240879",
    "longitude": "126.9863231484",
    "image": "http://tong.visitkorea.or.kr/cms/resource/25/3564025_image2_1.jpg",
    "category": "복합쇼핑몰"
  },
  {
    "id": "2856775",
    "title": "블루프린트북",
    "address": "충청남도 공주시 제민천1길 55",
    "phone": "",
    "latitude": "36.4509217130",
    "longitude": "127.1232776453",
    "image": "http://tong.visitkorea.or.kr/cms/resource/92/2757092_image2_1.jpg",
    "category": "복합쇼핑몰"
  },
  {
    "id": "3060939",
    "title": "사운즈한남",
    "address": "서울특별시 용산구 대사관로 35 (한남동)",
    "phone": "",
    "latitude": "37.5337695867",
    "longitude": "127.0020086956",
    "image": "http://tong.visitkorea.or.kr/cms/resource/47/3054347_image2_1.JPG",
    "category": "복합쇼핑몰"
  },
  {
    "id": "3547611",
    "title": "삼일식품",
    "address": "강원특별자치도 강릉시 옥천로 9 (옥천동)",
    "phone": "",
    "latitude": "37.7570459797",
    "longitude": "128.9037631476",
    "image": "",
    "category": "복합쇼핑몰"
  },
  {
    "id": "2989578",
    "title": "세실앤세드릭",
    "address": "서울특별시 중구 퇴계로81길 8 (황학동)",
    "phone": "010-9528-8108",
    "latitude": "37.5660605694",
    "longitude": "127.0181785301",
    "image": "",
    "category": "복합쇼핑몰"
  },
  {
    "id": "1221790",
    "title": "센트럴시티",
    "address": "서울특별시 서초구 신반포로 176",
    "phone": "02-6282-0114",
    "latitude": "37.5053729170",
    "longitude": "127.0038037796",
    "image": "http://tong.visitkorea.or.kr/cms/resource/99/3463399_image2_1.jpg",
    "category": "복합쇼핑몰"
  },
  {
    "id": "2819519",
    "title": "소길별하",
    "address": "제주특별자치도 제주시 애월읍 소길남길 34-37",
    "phone": "",
    "latitude": "33.4305189809",
    "longitude": "126.3744237790",
    "image": "http://tong.visitkorea.or.kr/cms/resource/17/2818817_image2_1.jpg",
    "category": "복합쇼핑몰"
  },
  {
    "id": "2989636",
    "title": "소수책방",
    "address": "서울특별시 중구 다산로20길 26",
    "phone": "",
    "latitude": "37.5568643327",
    "longitude": "127.0135375467",
    "image": "",
    "category": "복합쇼핑몰"
  },
  {
    "id": "3083201",
    "title": "스모어 팩토리",
    "address": "경기도 수원시 팔달구 신풍로39번길 14 (신풍동)",
    "phone": "",
    "latitude": "37.2846931325",
    "longitude": "127.0136674204",
    "image": "http://tong.visitkorea.or.kr/cms/resource/88/3083188_image2_1.jpg",
    "category": "복합쇼핑몰"
  },
  {
    "id": "3498014",
    "title": "스테이지35 성수",
    "address": "서울특별시 성동구 연무장길 35 (성수동2가)",
    "phone": "",
    "latitude": "37.5431610875",
    "longitude": "127.0534981848",
    "image": "http://tong.visitkorea.or.kr/cms/resource/37/3498037_image2_1.jpg",
    "category": "복합쇼핑몰"
  },
  {
    "id": "3060917",
    "title": "슬로우파마씨",
    "address": "서울특별시 성동구 아차산로11가길 26 (성수동2가)",
    "phone": "",
    "latitude": "37.5456665230",
    "longitude": "127.0630222462",
    "image": "http://tong.visitkorea.or.kr/cms/resource/66/3052766_image2_1.jpg",
    "category": "복합쇼핑몰"
  },
  {
    "id": "2870862",
    "title": "신양상회",
    "address": "제주특별자치도 제주시 추자로 563",
    "phone": "",
    "latitude": "33.9452527308",
    "longitude": "126.3268551120",
    "image": "http://tong.visitkorea.or.kr/cms/resource/52/2870852_image2_1.JPG",
    "category": "복합쇼핑몰"
  },
  {
    "id": "3085312",
    "title": "아더 성수 스페이스",
    "address": "서울특별시 성동구 성수이로 82 (성수동2가)",
    "phone": "",
    "latitude": "37.5423140190",
    "longitude": "127.0565618190",
    "image": "http://tong.visitkorea.or.kr/cms/resource/72/3084072_image2_1.JPG",
    "category": "복합쇼핑몰"
  },
  {
    "id": "3572021",
    "title": "아크앤북 TP타워여의도점",
    "address": "서울특별시 영등포구 의사당대로 96 (여의도동)",
    "phone": "",
    "latitude": "37.5215862514",
    "longitude": "126.9228912472",
    "image": "http://tong.visitkorea.or.kr/cms/resource/87/3571987_image2_1.jpg",
    "category": "복합쇼핑몰"
  },
  {
    "id": "3060919",
    "title": "엘씨디씨 서울(LCDC SEOUL)",
    "address": "서울특별시 성동구 연무장17길 10 (성수동2가)",
    "phone": "",
    "latitude": "37.5416002985",
    "longitude": "127.0613391822",
    "image": "http://tong.visitkorea.or.kr/cms/resource/26/3505626_image2_1.jpg",
    "category": "복합쇼핑몰"
  },
  {
    "id": "3370844",
    "title": "오래된 잡화점",
    "address": "충청북도 제천시 의병대로26라길 27 (동현동)",
    "phone": "010-4085-8493",
    "latitude": "37.1317744904",
    "longitude": "128.2187824300",
    "image": "http://tong.visitkorea.or.kr/cms/resource/41/3372241_image2_1.JPG",
    "category": "복합쇼핑몰"
  },
  {
    "id": "1071954",
    "title": "웨스턴돔(WesternDom)",
    "address": "경기도 고양시 일산동구 정발산로 24 (장항동)",
    "phone": "031-931-5114",
    "latitude": "37.6565206379",
    "longitude": "126.7717512351",
    "image": "http://tong.visitkorea.or.kr/cms/resource/01/3020101_image2_1.jpg",
    "category": "복합쇼핑몰"
  },
  {
    "id": "132505",
    "title": "으능정이문화의거리",
    "address": "대전광역시 중구 중앙로 164",
    "phone": "042-226-9100",
    "latitude": "36.3291243747",
    "longitude": "127.4276592379",
    "image": "http://tong.visitkorea.or.kr/cms/resource/55/3526655_image2_1.jpg",
    "category": "복합쇼핑몰"
  },
  {
    "id": "3056593",
    "title": "전주 한옥 마을 문화장터",
    "address": "전북특별자치도 전주시 완산구 태조로 51 (전동)",
    "phone": "",
    "latitude": "35.8138643627",
    "longitude": "127.1493005697",
    "image": "http://tong.visitkorea.or.kr/cms/resource/76/3056576_image2_1.jpg",
    "category": "복합쇼핑몰"
  },
  {
    "id": "2988973",
    "title": "제로스페이스 경주",
    "address": "경상북도 경주시 손효자길 17-2",
    "phone": "",
    "latitude": "35.8376712242",
    "longitude": "129.2103373322",
    "image": "http://tong.visitkorea.or.kr/cms/resource/59/2988959_image2_1.jpg",
    "category": "복합쇼핑몰"
  },
  {
    "id": "2940925",
    "title": "종이잡지클럽",
    "address": "서울특별시 마포구 양화로8길 32-15",
    "phone": "",
    "latitude": "37.5494134455",
    "longitude": "126.9157661119",
    "image": "",
    "category": "복합쇼핑몰"
  },
  {
    "id": "3511011",
    "title": "주식회사아래모래",
    "address": "부산광역시 사하구 감내2로 100 (감천동)",
    "phone": "",
    "latitude": "35.0969979358",
    "longitude": "129.0081228329",
    "image": "",
    "category": "복합쇼핑몰"
  },
  {
    "id": "3441579",
    "title": "지산리조트 눈사람 렌탈샵",
    "address": "경기도 이천시 마장면 지산로 244",
    "phone": "",
    "latitude": "37.2163765254",
    "longitude": "127.3500083056",
    "image": "http://tong.visitkorea.or.kr/cms/resource/71/3441571_image2_1.jpg",
    "category": "복합쇼핑몰"
  },
  {
    "id": "1967801",
    "title": "청주 성안길",
    "address": "충청북도 청주시 상당구 상당로59번길 59",
    "phone": "043-223-5200",
    "latitude": "36.6335044623",
    "longitude": "127.4872844520",
    "image": "http://tong.visitkorea.or.kr/cms/resource/69/3503669_image2_1.jpg",
    "category": "복합쇼핑몰"
  },
  {
    "id": "2366429",
    "title": "퀸스로드",
    "address": "대구광역시 서구 평리로35길 18-17",
    "phone": "",
    "latitude": "35.8617144394",
    "longitude": "128.5450562330",
    "image": "http://tong.visitkorea.or.kr/cms/resource/33/2366433_image2_1.jpg",
    "category": "복합쇼핑몰"
  },
  {
    "id": "1019644",
    "title": "풍월당",
    "address": "서울특별시 강남구 도산대로53길 39 (신사동)",
    "phone": "",
    "latitude": "37.5258545028",
    "longitude": "127.0389472228",
    "image": "http://tong.visitkorea.or.kr/cms/resource/39/3495239_image2_1.jpg",
    "category": "복합쇼핑몰"
  },
  {
    "id": "3046936",
    "title": "프렐류드",
    "address": "대전광역시 중구 중앙로129번길 30 (선화동)",
    "phone": "010-2327-2955",
    "latitude": "36.3293964929",
    "longitude": "127.4235679296",
    "image": "http://tong.visitkorea.or.kr/cms/resource/27/3046827_image2_1.JPG",
    "category": "복합쇼핑몰"
  },
  {
    "id": "3580759",
    "title": "한길문고",
    "address": "전북특별자치도 군산시 하나운로 38 (나운동)",
    "phone": "",
    "latitude": "35.9622341799",
    "longitude": "126.7007922777",
    "image": "http://tong.visitkorea.or.kr/cms/resource/60/3580760_image2_1.jpg",
    "category": "복합쇼핑몰"
  },
  {
    "id": "1304431",
    "title": "해운대 로데오거리",
    "address": "부산광역시 해운대구 좌동순환로 473",
    "phone": "",
    "latitude": "35.1634129289",
    "longitude": "129.1696430809",
    "image": "http://tong.visitkorea.or.kr/cms/resource/95/3032195_image2_1.JPG",
    "category": "복합쇼핑몰"
  },
  {
    "id": "2815274",
    "title": "협동조합 아리송 (담아가게)",
    "address": "전북특별자치도 완주군 남봉로 134",
    "phone": "",
    "latitude": "35.9740832022",
    "longitude": "127.2049886210",
    "image": "",
    "category": "복합쇼핑몰"
  },
  {
    "id": "3081643",
    "title": "호호의 숲",
    "address": "전라남도 구례군 토지면 외곡중기길 24-5",
    "phone": "",
    "latitude": "35.2161483631",
    "longitude": "127.6083532714",
    "image": "http://tong.visitkorea.or.kr/cms/resource/75/3081575_image2_1.jpeg",
    "category": "복합쇼핑몰"
  }
]