[
  {
    "id": "2979893",
    "title": "롯데아울렛 광주수완점",
    "address": "광주광역시 광산구 장신로 98 롯데쇼핑몰",
    "phone": "",
    "latitude": "35.1898517078",
    "longitude": "126.8201485144",
    "image": "http://tong.visitkorea.or.kr/cms/resource/98/3086198_image2_1.jpg",
    "category": "아울렛",
    "original_category": "상설시장"
  },
  {
    "id": "1336178",
    "title": "롯데쇼핑 롯데아울렛 서울역점[한국관광 품질인증/Korea Quality]",
    "address": "서울특별시 용산구 한강대로 405",
    "phone": "02-6965-2500",
    "latitude": "37.5548277077",
    "longitude": "126.9717164149",
    "image": "http://tong.visitkorea.or.kr/cms/resource/32/2652032_image2_1.jpg",
    "category": "아울렛",
    "original_category": "대형마트"
  },
  {
    "id": "2006327",
    "title": "롯데아울렛 광주월드컵점",
    "address": "광주광역시 서구 금화로 240",
    "phone": "",
    "latitude": "35.1336284249",
    "longitude": "126.8748450816",
    "image": "http://tong.visitkorea.or.kr/cms/resource/67/2437467_image2_1.jpg",
    "category": "아울렛",
    "original_category": "대형마트"
  },
  {
    "id": "2609837",
    "title": "롯데프리미엄아울렛 기흥점",
    "address": "경기도 용인시 기흥구 신고매로 124 (고매동)",
    "phone": "",
    "latitude": "37.2254213563",
    "longitude": "127.1209287945",
    "image": "http://tong.visitkorea.or.kr/cms/resource/92/3085092_image2_1.JPG",
    "category": "아울렛",
    "original_category": "대형마트"
  },
  {
    "id": "690680",
    "title": "롯데프리미엄아울렛 김해점",
    "address": "경상남도 김해시 장유로 469",
    "phone": "",
    "latitude": "35.1851125701",
    "longitude": "128.8297831899",
    "image": "http://tong.visitkorea.or.kr/cms/resource/47/3579947_image2_1.jpg",
    "category": "아울렛",
    "original_category": "대형마트"
  },
  {
    "id": "1993017",
    "title": "롯데프리미엄아울렛 동부산점",
    "address": "부산광역시 기장군 기장읍 기장해안로 147",
    "phone": "",
    "latitude": "35.1922299485",
    "longitude": "129.2127940917",
    "image": "http://tong.visitkorea.or.kr/cms/resource/51/3070551_image2_1.JPG",
    "category": "아울렛",
    "original_category": "대형마트"
  },
  {
    "id": "2785495",
    "title": "롯데프리미엄아울렛 의왕점",
    "address": "경기도 의왕시 바라산로 1 (학의동)",
    "phone": "",
    "latitude": "37.3757352857",
    "longitude": "127.0095569087",
    "image": "http://tong.visitkorea.or.kr/cms/resource/39/3007039_image2_1.jpg",
    "category": "아울렛",
    "original_category": "대형마트"
  },
  {
    "id": "2041024",
    "title": "롯데프리미엄아울렛 이천점",
    "address": "경기도 이천시 호법면 프리미엄아울렛로 177-74",
    "phone": "",
    "latitude": "37.2422772151",
    "longitude": "127.4000447120",
    "image": "http://tong.visitkorea.or.kr/cms/resource/32/3007032_image2_1.jpg",
    "category": "아울렛",
    "original_category": "대형마트"
  },
  {
    "id": "1562538",
    "title": "롯데프리미엄아울렛 파주점",
    "address": "경기도 파주시 회동길 390 (문발동)",
    "phone": "031-960-2500",
    "latitude": "37.7178732145",
    "longitude": "126.6937760801",
    "image": "http://tong.visitkorea.or.kr/cms/resource/18/3091018_image2_1.jpg",
    "category": "아울렛",
    "original_category": "대형마트"
  },
  {
    "id": "132593",
    "title": "마리오아울렛",
    "address": "서울특별시 금천구 디지털로9길 23 (가산동)",
    "phone": "02-2109-7000",
    "latitude": "37.4787739084",
    "longitude": "126.8865152102",
    "image": "http://tong.visitkorea.or.kr/cms/resource/71/3538871_image2_1.jpg",
    "category": "아울렛",
    "original_category": "대형마트"
  },
  {
    "id": "1889927",
    "title": "부여 롯데아울렛",
    "address": "충청남도 부여군 규암면 백제문로 387",
    "phone": "",
    "latitude": "36.3071620942",
    "longitude": "126.9019457884",
    "image": "http://tong.visitkorea.or.kr/cms/resource/32/3038832_image2_1.JPG",
    "category": "아울렛",
    "original_category": "대형마트"
  },
  {
    "id": "562857",
    "title": "수원프리미엄아울렛",
    "address": "경기도 용인시 기흥구 중부대로 64 (영덕동)",
    "phone": "",
    "latitude": "37.2666518945",
    "longitude": "127.0762150272",
    "image": "http://tong.visitkorea.or.kr/cms/resource/53/3046853_image2_1.jpg",
    "category": "아울렛",
    "original_category": "대형마트"
  },
  {
    "id": "132702",
    "title": "아이즈빌아울렛",
    "address": "인천광역시 부평구 마장로 489",
    "phone": "032-270-2000",
    "latitude": "37.5213434814",
    "longitude": "126.7032140635",
    "image": "http://tong.visitkorea.or.kr/cms/resource/45/1924145_image2_1.jpg",
    "category": "아울렛",
    "original_category": "대형마트"
  },
  {
    "id": "2705595",
    "title": "현대프리미엄아울렛 SPACE1",
    "address": "경기도 남양주시 다산순환로 50 (다산동)",
    "phone": "",
    "latitude": "37.6163127071",
    "longitude": "127.1524454232",
    "image": "http://tong.visitkorea.or.kr/cms/resource/91/2705691_image2_1.jpg",
    "category": "아울렛",
    "original_category": "대형마트"
  },
  {
    "id": "1990459",
    "title": "현대프리미엄아울렛 김포점",
    "address": "경기도 김포시 고촌읍 아라육로152번길 100",
    "phone": "031-812-2233",
    "latitude": "37.5966750658",
    "longitude": "126.7852544642",
    "image": "http://tong.visitkorea.or.kr/cms/resource/53/2396453_image2_1.jpg",
    "category": "아울렛",
    "original_category": "대형마트"
  },
  {
    "id": "3355750",
    "title": "현대프리미엄아울렛 대전점",
    "address": "대전광역시 유성구 테크노중앙로 123 (용산동)",
    "phone": "",
    "latitude": "36.4234825045",
    "longitude": "127.3985342768",
    "image": "",
    "category": "아울렛",
    "original_category": "대형마트"
  }
]