[
  {
    "id": "2756644",
    "title": "가은아자개장터",
    "address": "경상북도 문경시 가은읍 가은3길 17",
    "phone": "",
    "latitude": "36.6462106535",
    "longitude": "128.0612493850",
    "image": "http://tong.visitkorea.or.kr/cms/resource/32/3517232_image2_1.jpg",
    "category": "특산물판매점"
  },
  {
    "id": "132496",
    "title": "곰소젓갈단지",
    "address": "전북특별자치도 부안군 진서면 곰소항길 22-3",
    "phone": "063-583-9860~1",
    "latitude": "35.5870474941",
    "longitude": "126.6040327212",
    "image": "http://tong.visitkorea.or.kr/cms/resource/29/3560029_image2_1.jpg",
    "category": "특산물판매점"
  },
  {
    "id": "1013694",
    "title": "만물의거리",
    "address": "부산광역시 중구 국제시장2길 20-1",
    "phone": "051-245-3156",
    "latitude": "35.0996507962",
    "longitude": "129.0286987483",
    "image": "http://tong.visitkorea.or.kr/cms/resource/19/3561919_image2_1.jpg",
    "category": "특산물판매점"
  },
  {
    "id": "2748931",
    "title": "바로마켓",
    "address": "경기도 과천시 경마공원대로 107 (주암동)",
    "phone": "",
    "latitude": "37.4441273360",
    "longitude": "127.0086495110",
    "image": "http://tong.visitkorea.or.kr/cms/resource/08/2749008_image2_1.jpeg",
    "category": "특산물판매점"
  },
  {
    "id": "132188",
    "title": "부전마켓타운",
    "address": "부산광역시 부산진구 중앙대로755번길 21",
    "phone": "051-818-1091",
    "latitude": "35.1624610334",
    "longitude": "129.0614025211",
    "image": "http://tong.visitkorea.or.kr/cms/resource/04/3070904_image2_1.JPG",
    "category": "특산물판매점"
  },
  {
    "id": "3014718",
    "title": "성진활어판매장",
    "address": "부산광역시 수영구 민락동",
    "phone": "",
    "latitude": "35.1553602062",
    "longitude": "129.1239250555",
    "image": "http://tong.visitkorea.or.kr/cms/resource/93/3014393_image2_1.JPG",
    "category": "특산물판매점"
  },
  {
    "id": "2610087",
    "title": "쇠바우골탄광문화장터",
    "address": "강원특별자치도 태백시 동태백로 434 (철암동)",
    "phone": "",
    "latitude": "37.1167279072",
    "longitude": "129.0379040050",
    "image": "http://tong.visitkorea.or.kr/cms/resource/83/2610083_image2_1.bmp",
    "category": "특산물판매점"
  },
  {
    "id": "3505810",
    "title": "순천 웃장",
    "address": "전라남도 순천시 북문길 40 (동외동)",
    "phone": "",
    "latitude": "34.9586141000",
    "longitude": "127.4849124008",
    "image": "",
    "category": "특산물판매점"
  },
  {
    "id": "2752555",
    "title": "신사상가",
    "address": "서울특별시 강남구 압구정로29길 72-1",
    "phone": "",
    "latitude": "37.5323396711",
    "longitude": "127.0284174418",
    "image": "",
    "category": "특산물판매점"
  },
  {
    "id": "1013709",
    "title": "아리랑거리",
    "address": "부산광역시 중구 광복로35번길 11 (신창동3가)",
    "phone": "051-244-1579",
    "latitude": "35.1002812830",
    "longitude": "129.0287931674",
    "image": "http://tong.visitkorea.or.kr/cms/resource/26/3561926_image2_1.jpg",
    "category": "특산물판매점"
  },
  {
    "id": "2738084",
    "title": "안동청과합자회사",
    "address": "경상북도 안동시 풍산읍 유통단지길 100",
    "phone": "",
    "latitude": "36.5897689425",
    "longitude": "128.6085994422",
    "image": "http://tong.visitkorea.or.kr/cms/resource/30/2738430_image2_1.jpg",
    "category": "특산물판매점"
  },
  {
    "id": "229923",
    "title": "영광 법성포 굴비거리",
    "address": "전라남도 영광군 법성면 굴비로2길 11-10",
    "phone": "",
    "latitude": "35.3615815667",
    "longitude": "126.4466440384",
    "image": "http://tong.visitkorea.or.kr/cms/resource/78/3502478_image2_1.jpg",
    "category": "특산물판매점"
  },
  {
    "id": "1622550",
    "title": "예술의거리 개미장터",
    "address": "광주광역시 동구 궁동",
    "phone": "062-229-0223",
    "latitude": "35.1511383051",
    "longitude": "126.9190129612",
    "image": "http://tong.visitkorea.or.kr/cms/resource/68/3515268_image2_1.jpg",
    "category": "특산물판매점"
  },
  {
    "id": "228908",
    "title": "완도 금일 수협활·선어위판장",
    "address": "전라남도 완도군 완도읍 해변공원로124번길 26",
    "phone": "",
    "latitude": "34.3257865542",
    "longitude": "126.7497286097",
    "image": "",
    "category": "특산물판매점"
  },
  {
    "id": "2710606",
    "title": "육림고개",
    "address": "강원특별자치도 춘천시 춘천로151번길 21-2",
    "phone": "",
    "latitude": "37.8775957069",
    "longitude": "127.7295435962",
    "image": "http://tong.visitkorea.or.kr/cms/resource/86/3351486_image2_1.jpg",
    "category": "특산물판매점"
  },
  {
    "id": "132544",
    "title": "인사동 골동품거리",
    "address": "경상남도 진주시 남성동, 인사동 일대",
    "phone": "055-749-2055",
    "latitude": "35.2100169747",
    "longitude": "128.1521501031",
    "image": "http://tong.visitkorea.or.kr/cms/resource/77/2367477_image2_1.jpg",
    "category": "특산물판매점"
  },
  {
    "id": "1013721",
    "title": "조명의거리",
    "address": "부산광역시 중구 국제시장2길 5",
    "phone": "",
    "latitude": "35.0996591215",
    "longitude": "129.0283348915",
    "image": "http://tong.visitkorea.or.kr/cms/resource/33/3561933_image2_1.jpg",
    "category": "특산물판매점"
  },
  {
    "id": "2913013",
    "title": "포항중앙상가",
    "address": "경상북도 포항시 북구 중앙상가길 31",
    "phone": "",
    "latitude": "36.0379792790",
    "longitude": "129.3636931349",
    "image": "http://tong.visitkorea.or.kr/cms/resource/02/2913002_image2_1.jpg",
    "category": "특산물판매점"
  },
  {
    "id": "132146",
    "title": "하동 화개장터",
    "address": "경상남도 하동군 화개면 쌍계로 15",
    "phone": "055-880-6051",
    "latitude": "35.1880295839",
    "longitude": "127.6240859486",
    "image": "http://tong.visitkorea.or.kr/cms/resource/15/2716615_image2_1.jpg",
    "category": "특산물판매점"
  },
  {
    "id": "2773998",
    "title": "DMZ마켓",
    "address": "강원특별자치도 철원군 동송읍 한탄강길 92",
    "phone": "",
    "latitude": "38.1980221848",
    "longitude": "127.2780281325",
    "image": "http://tong.visitkorea.or.kr/cms/resource/53/2774053_image2_1.jpg",
    "category": "특산물판매점"
  },
  {
    "id": "2795903",
    "title": "광안리회센터(민락어민활어직판장,씨랜드회센터)",
    "address": "부산광역시 수영구 광안해변로312번길 60 (민락동)",
    "phone": "",
    "latitude": "35.1542520703",
    "longitude": "129.1278969625",
    "image": "http://tong.visitkorea.or.kr/cms/resource/00/2797800_image2_1.jpg",
    "category": "특산물판매점",
    "original_category": "대형마트"
  },
  {
    "id": "1960233",
    "title": "궁평항수산물직판장",
    "address": "경기도 화성시 서신면 궁평항로 1049-24",
    "phone": "",
    "latitude": "37.1154040748",
    "longitude": "126.6813494895",
    "image": "http://tong.visitkorea.or.kr/cms/resource/43/3539943_image2_1.jpg",
    "category": "특산물판매점",
    "original_category": "대형마트"
  },
  {
    "id": "2396929",
    "title": "김포로컬푸드",
    "address": "경기도 김포시 양촌읍 구래로26번길 65-20",
    "phone": "031-981-8456",
    "latitude": "37.6491882397",
    "longitude": "126.6199236545",
    "image": "http://tong.visitkorea.or.kr/cms/resource/16/2396916_image2_1.jpg",
    "category": "특산물판매점",
    "original_category": "대형마트"
  },
  {
    "id": "2791419",
    "title": "모항항수산물직판장",
    "address": "충청남도 태안군 소원면 모항항길 122-44",
    "phone": "",
    "latitude": "36.7765976657",
    "longitude": "126.1325972524",
    "image": "http://tong.visitkorea.or.kr/cms/resource/24/2791424_image2_1.jpg",
    "category": "특산물판매점",
    "original_category": "대형마트"
  },
  {
    "id": "2753654",
    "title": "몽산포어촌계수산물판매장",
    "address": "충청남도 태안군 남면 몽대로 495-26",
    "phone": "",
    "latitude": "36.6721093464",
    "longitude": "126.2737872006",
    "image": "http://tong.visitkorea.or.kr/cms/resource/89/3561989_image2_1.jpg",
    "category": "특산물판매점",
    "original_category": "대형마트"
  },
  {
    "id": "132493",
    "title": "민락어민활어직판장",
    "address": "부산광역시 수영구 광안해변로312번길 60",
    "phone": "051-753-0200",
    "latitude": "35.1542381830",
    "longitude": "129.1278914077",
    "image": "http://tong.visitkorea.or.kr/cms/resource/64/1572164_image2_1.jpg",
    "category": "특산물판매점",
    "original_category": "대형마트"
  },
  {
    "id": "2753446",
    "title": "수협 활어직판장",
    "address": "경상북도 경주시 감포읍 감포항구길 91",
    "phone": "",
    "latitude": "35.8083246217",
    "longitude": "129.5076538171",
    "image": "http://tong.visitkorea.or.kr/cms/resource/64/3530964_image2_1.jpg",
    "category": "특산물판매점",
    "original_category": "대형마트"
  },
  {
    "id": "2687343",
    "title": "완주 로컬푸드직매장",
    "address": "전북특별자치도 완주군 용진읍 완주로 187",
    "phone": "063-240-6925",
    "latitude": "35.8817511904",
    "longitude": "127.1555176819",
    "image": "http://tong.visitkorea.or.kr/cms/resource/38/3510238_image2_1.jpg",
    "category": "특산물판매점",
    "original_category": "대형마트"
  },
  {
    "id": "3059807",
    "title": "월전 활어판매장",
    "address": "부산광역시 기장군 기장읍 죽성리",
    "phone": "",
    "latitude": "35.2380837299",
    "longitude": "129.2441678744",
    "image": "http://tong.visitkorea.or.kr/cms/resource/40/3059740_image2_1.JPG",
    "category": "특산물판매점",
    "original_category": "대형마트"
  },
  {
    "id": "1871028",
    "title": "중문농수산물직판장",
    "address": "제주특별자치도 서귀포시 천제연로 355 (회수동)",
    "phone": "064-738-5757",
    "latitude": "33.2524564006",
    "longitude": "126.4423968665",
    "image": "http://tong.visitkorea.or.kr/cms/resource/69/3403269_image2_1.jpg",
    "category": "특산물판매점",
    "original_category": "대형마트"
  },
  {
    "id": "2782622",
    "title": "탄도어항수산물직판장",
    "address": "경기도 안산시 단원구 대부황금로 5-14 (선감동)",
    "phone": "",
    "latitude": "37.1916862943",
    "longitude": "126.6463172513",
    "image": "http://tong.visitkorea.or.kr/cms/resource/04/2786704_image2_1.jpg",
    "category": "특산물판매점",
    "original_category": "대형마트"
  },
  {
    "id": "132442",
    "title": "남원 목기사업협동조합 판매장",
    "address": "전북특별자치도 남원시 목공예길 27",
    "phone": "063-626-9909, 063-625-1331",
    "latitude": "35.3902138576",
    "longitude": "127.3930372009",
    "image": "http://tong.visitkorea.or.kr/cms/resource/45/1976545_image2_1.jpg",
    "category": "특산물판매점",
    "original_category": "한국관광명품점"
  },
  {
    "id": "1343468",
    "title": "남해특산물 지족판매장",
    "address": "경상남도 남해군 삼동면 삼이로 47-4",
    "phone": "055-867-2342",
    "latitude": "34.8276265652",
    "longitude": "127.9954988061",
    "image": "http://tong.visitkorea.or.kr/cms/resource/86/3558586_image2_1.jpg",
    "category": "특산물판매점",
    "original_category": "한국관광명품점"
  },
  {
    "id": "2405597",
    "title": "대명항수산물직판장",
    "address": "경기도 김포시 대곶면 대명항1로 109",
    "phone": "",
    "latitude": "37.6393907775",
    "longitude": "126.5417088614",
    "image": "",
    "category": "특산물판매점",
    "original_category": "한국관광명품점"
  },
  {
    "id": "3015585",
    "title": "대변어촌계해녀특산물판매장",
    "address": "부산광역시 기장군 기장읍 기장해안로 668",
    "phone": "",
    "latitude": "35.2204827219",
    "longitude": "129.2333387477",
    "image": "http://tong.visitkorea.or.kr/cms/resource/76/3015576_image2_1.JPG",
    "category": "특산물판매점",
    "original_category": "한국관광명품점"
  },
  {
    "id": "1963169",
    "title": "문경시 농특산물 판매장(문경새재장터)",
    "address": "경상북도 문경시 문경읍 새재로 935",
    "phone": "",
    "latitude": "36.7593757681",
    "longitude": "128.0777919148",
    "image": "http://tong.visitkorea.or.kr/cms/resource/60/3072960_image2_1.jpg",
    "category": "특산물판매점",
    "original_category": "한국관광명품점"
  },
  {
    "id": "1972429",
    "title": "상주곶감유통센터 상주곶감직판장",
    "address": "경상북도 상주시 영남제일로 1154",
    "phone": "",
    "latitude": "36.4161036345",
    "longitude": "128.2126257201",
    "image": "http://tong.visitkorea.or.kr/cms/resource/83/3039083_image2_1.jpg",
    "category": "특산물판매점",
    "original_category": "한국관광명품점"
  },
  {
    "id": "1980980",
    "title": "안동간고등어안동특약점 / 안동특산물직판장",
    "address": "경상북도 안동시 경동로 613",
    "phone": "",
    "latitude": "36.5635463469",
    "longitude": "128.7249648620",
    "image": "http://tong.visitkorea.or.kr/cms/resource/80/3028980_image2_1.JPG",
    "category": "특산물판매점",
    "original_category": "한국관광명품점"
  },
  {
    "id": "1343398",
    "title": "여수 특산품전시판매장",
    "address": "전라남도 여수시 어항단지로 205 (봉산동)",
    "phone": "",
    "latitude": "34.7307160898",
    "longitude": "127.7280468858",
    "image": "http://tong.visitkorea.or.kr/cms/resource/22/3027322_image2_1.jpg",
    "category": "특산물판매점",
    "original_category": "한국관광명품점"
  },
  {
    "id": "3423988",
    "title": "장흥군 특산품전시판매장",
    "address": "전라남도 장흥군 장흥읍 토요시장2길 3-3",
    "phone": "",
    "latitude": "34.6750499640",
    "longitude": "126.9028233982",
    "image": "http://tong.visitkorea.or.kr/cms/resource/41/3423941_image2_1.jpg",
    "category": "특산물판매점",
    "original_category": "한국관광명품점"
  },
  {
    "id": "2717422",
    "title": "포천로컬푸드마켓",
    "address": "경기도 포천시 호국로 886",
    "phone": "070-8848-6478",
    "latitude": "37.8454389543",
    "longitude": "127.1597437225",
    "image": "",
    "category": "특산물판매점",
    "original_category": "복합쇼핑몰"
  }
]