[
  {
    "id": "2398102",
    "title": "강릉ing게스트하우스",
    "address": "강원특별자치도 강릉시 용지각길 19",
    "phone": "010-5919-0050",
    "latitude": "37.7615677151",
    "longitude": "128.9056239515",
    "image": "http://tong.visitkorea.or.kr/cms/resource/87/3044687_image2_1.jpg",
    "category": "게스트하우스",
    "original_category": "콘도미니엄"
  },
  {
    "id": "2378813",
    "title": "청풍게스트하우스",
    "address": "충청북도 제천시 의림대로6길 5",
    "phone": "",
    "latitude": "37.1316854045",
    "longitude": "128.2076973164",
    "image": "http://tong.visitkorea.or.kr/cms/resource/07/3576707_image2_1.jpg",
    "category": "게스트하우스",
    "original_category": "콘도미니엄"
  },
  {
    "id": "2569003",
    "title": "게스트하우스 play at home(플레이앳홈)",
    "address": "경상북도 안동시 금곡길 21-8",
    "phone": "010-3538-0785",
    "latitude": "36.5672736337",
    "longitude": "128.7215095058",
    "image": "http://tong.visitkorea.or.kr/cms/resource/72/2566872_image2_1.jpg",
    "category": "게스트하우스",
    "original_category": "펜션"
  },
  {
    "id": "2600730",
    "title": "게스트하우스 리좀",
    "address": "경상남도 창원시 마산합포구 동서북14길 24",
    "phone": "070-8822-2081",
    "latitude": "35.2091496495",
    "longitude": "128.5735799046",
    "image": "",
    "category": "게스트하우스",
    "original_category": "펜션"
  },
  {
    "id": "3102121",
    "title": "게스트하우스 만나",
    "address": "대구광역시 중구 명륜로 121-37 (봉산동)",
    "phone": "010-3533-2452",
    "latitude": "35.8603516593",
    "longitude": "128.5968711501",
    "image": "",
    "category": "게스트하우스",
    "original_category": "펜션"
  },
  {
    "id": "3101943",
    "title": "게스트하우스 몽자",
    "address": "서울특별시 용산구 보광로50길 3 (이태원동)",
    "phone": "0507-1324-3144, 0503-5052-8158",
    "latitude": "37.5319696746",
    "longitude": "126.9952454732",
    "image": "",
    "category": "게스트하우스",
    "original_category": "펜션"
  },
  {
    "id": "2569871",
    "title": "게스트하우스 소설여행",
    "address": "전북특별자치도 군산시 월명로 516-1",
    "phone": "",
    "latitude": "35.9858398862",
    "longitude": "126.7047940872",
    "image": "",
    "category": "게스트하우스",
    "original_category": "펜션"
  },
  {
    "id": "2607620",
    "title": "게스트하우스강남",
    "address": "서울특별시 강남구 압구정로34길 33",
    "phone": "010-8282-3580",
    "latitude": "37.5261154387",
    "longitude": "127.0309007260",
    "image": "",
    "category": "게스트하우스",
    "original_category": "펜션"
  },
  {
    "id": "3537620",
    "title": "게스트하우스아카펠라",
    "address": "강원특별자치도 강릉시 동부시장3길 7 (옥천동)",
    "phone": "",
    "latitude": "37.7585790694",
    "longitude": "128.9003689617",
    "image": "",
    "category": "게스트하우스",
    "original_category": "펜션"
  },
  {
    "id": "2528117",
    "title": "교대게스트하우스",
    "address": "서울특별시 서초구 사임당로17길 116 서초삼성래미안아파트",
    "phone": "010-7390-5901",
    "latitude": "37.4933329219",
    "longitude": "127.0190443994",
    "image": "http://tong.visitkorea.or.kr/cms/resource/81/2529081_image2_1.jpg",
    "category": "게스트하우스",
    "original_category": "펜션"
  },
  {
    "id": "2622064",
    "title": "그린게스트하우스(Green guest house)",
    "address": "인천광역시 서구 청라루비로42번길 6-4",
    "phone": "010-6363-9211",
    "latitude": "37.5285887600",
    "longitude": "126.6409750982",
    "image": "",
    "category": "게스트하우스",
    "original_category": "펜션"
  },
  {
    "id": "2571937",
    "title": "글렌즈 게스트하우스(글렌즈게스트하우스)",
    "address": "대구광역시 중구 달구벌대로445길 16-13",
    "phone": "010-3848-5234",
    "latitude": "35.8633459531",
    "longitude": "128.6070729458",
    "image": "http://tong.visitkorea.or.kr/cms/resource/19/2570919_image2_1.jpeg",
    "category": "게스트하우스",
    "original_category": "펜션"
  },
  {
    "id": "2576469",
    "title": "나루게스트하우스",
    "address": "서울특별시 마포구 양화로12길 8-12",
    "phone": "010-9992-1888, 010-9778-6518",
    "latitude": "37.5513826997",
    "longitude": "126.9179214153",
    "image": "http://tong.visitkorea.or.kr/cms/resource/89/2576089_image2_1.jpg",
    "category": "게스트하우스",
    "original_category": "펜션"
  },
  {
    "id": "2570681",
    "title": "낭만시대 게스트하우스(낭만시대)",
    "address": "전북특별자치도 전주시 완산구 동문길 102",
    "phone": "010-5231-2487",
    "latitude": "35.8180749794",
    "longitude": "127.1484144273",
    "image": "http://tong.visitkorea.or.kr/cms/resource/68/2568768_image2_1.jpg",
    "category": "게스트하우스",
    "original_category": "펜션"
  },
  {
    "id": "2570238",
    "title": "능마루게스트하우스(Nungmaru Guesthouse)",
    "address": "서울특별시 중구 퇴계로20나길 2-15",
    "phone": "02-456-2338, 02-753-8080",
    "latitude": "37.5587830470",
    "longitude": "126.9852928439",
    "image": "http://tong.visitkorea.or.kr/cms/resource/79/2568079_image2_1.jpg",
    "category": "게스트하우스",
    "original_category": "펜션"
  },
  {
    "id": "2569116",
    "title": "니어리스트(니어리스트 게스트하우스)",
    "address": "전북특별자치도 전주시 완산구 팔달로 202-14",
    "phone": "010-7657-0909",
    "latitude": "35.8204274628",
    "longitude": "127.1468589489",
    "image": "http://tong.visitkorea.or.kr/cms/resource/49/2566949_image2_1.jpg",
    "category": "게스트하우스",
    "original_category": "펜션"
  },
  {
    "id": "2571938",
    "title": "다나하루(다나하루 게스트하우스)",
    "address": "전북특별자치도 전주시 완산구 향교길 11",
    "phone": "010-6643-3115",
    "latitude": "35.8117868380",
    "longitude": "127.1502588720",
    "image": "http://tong.visitkorea.or.kr/cms/resource/42/2570942_image2_1.jpg",
    "category": "게스트하우스",
    "original_category": "펜션"
  },
  {
    "id": "2465524",
    "title": "다자연 게스트하우스",
    "address": "서울특별시 종로구 율곡로10길 81-3",
    "phone": "010-7131-9685",
    "latitude": "37.5739508464",
    "longitude": "126.9918362628",
    "image": "http://tong.visitkorea.or.kr/cms/resource/79/2629479_image2_1.jpg",
    "category": "게스트하우스",
    "original_category": "펜션"
  },
  {
    "id": "2531399",
    "title": "더파크 게스트하우스(The Park Guesthouse)",
    "address": "부산광역시 수영구 광남로 151",
    "phone": "010-5822-3755",
    "latitude": "35.1548434836",
    "longitude": "129.1177811592",
    "image": "http://tong.visitkorea.or.kr/cms/resource/59/2557359_image2_1.jpg",
    "category": "게스트하우스",
    "original_category": "펜션"
  },
  {
    "id": "2569537",
    "title": "동국(게스트하우스 동국)",
    "address": "전북특별자치도 군산시 동국사길 7",
    "phone": "010-5546-0955",
    "latitude": "35.9835707608",
    "longitude": "126.7082716127",
    "image": "",
    "category": "게스트하우스",
    "original_category": "펜션"
  },
  {
    "id": "2592543",
    "title": "등대게스트하우스",
    "address": "전라남도 목포시 노적봉길 6",
    "phone": "010-8340-8004",
    "latitude": "34.7901923440",
    "longitude": "126.3848412502",
    "image": "http://tong.visitkorea.or.kr/cms/resource/52/2686452_image2_1.jpg",
    "category": "게스트하우스",
    "original_category": "펜션"
  },
  {
    "id": "3049322",
    "title": "라라게스트하우스",
    "address": "서울특별시 마포구 독막로9길 37-4 (서교동)",
    "phone": "010-2177-1078",
    "latitude": "37.5501328890",
    "longitude": "126.9203851149",
    "image": "",
    "category": "게스트하우스",
    "original_category": "펜션"
  },
  {
    "id": "2650639",
    "title": "리버사이드게스트하우스",
    "address": "서울특별시 광진구 뚝섬로 702-4",
    "phone": "010-2350-8887",
    "latitude": "37.5329878783",
    "longitude": "127.0873259497",
    "image": "http://tong.visitkorea.or.kr/cms/resource/36/2650636_image2_1.jpg",
    "category": "게스트하우스",
    "original_category": "펜션"
  },
  {
    "id": "2707232",
    "title": "리인목포게스트하우스",
    "address": "전라남도 목포시 마인계터로38번길 6",
    "phone": "010-7181-2990",
    "latitude": "34.7906228047",
    "longitude": "126.3820053792",
    "image": "http://tong.visitkorea.or.kr/cms/resource/09/2707009_image2_1.jpg",
    "category": "게스트하우스",
    "original_category": "펜션"
  },
  {
    "id": "2631334",
    "title": "마전역 게스트하우스",
    "address": "인천광역시 서구 완정로65번안길 10",
    "phone": "010-8503-8406",
    "latitude": "37.5968229257",
    "longitude": "126.6656959356",
    "image": "",
    "category": "게스트하우스",
    "original_category": "펜션"
  },
  {
    "id": "2706686",
    "title": "명동게스트하우스 꼬모",
    "address": "서울특별시 중구 퇴계로24길 12",
    "phone": "02-755-5437",
    "latitude": "37.5604773294",
    "longitude": "126.9872287304",
    "image": "http://tong.visitkorea.or.kr/cms/resource/89/2709189_image2_1.jpg",
    "category": "게스트하우스",
    "original_category": "펜션"
  },
  {
    "id": "2621399",
    "title": "무아게스트하우스",
    "address": "전북특별자치도 남원시 요천로 1501-10",
    "phone": "010-7701-4822",
    "latitude": "35.4053397903",
    "longitude": "127.3852680517",
    "image": "",
    "category": "게스트하우스",
    "original_category": "펜션"
  },
  {
    "id": "2669165",
    "title": "미로 게스트하우스",
    "address": "서울특별시 마포구 동교로38길 27",
    "phone": "",
    "latitude": "37.5617871840",
    "longitude": "126.9255954220",
    "image": "",
    "category": "게스트하우스",
    "original_category": "펜션"
  },
  {
    "id": "2571959",
    "title": "방가방가게스트하우스(풍경집)",
    "address": "부산광역시 사하구 감내1로224번길 7",
    "phone": "010-6586-0800",
    "latitude": "35.0970840680",
    "longitude": "129.0097699096",
    "image": "http://tong.visitkorea.or.kr/cms/resource/96/2571096_image2_1.jpg",
    "category": "게스트하우스",
    "original_category": "펜션"
  },
  {
    "id": "3102128",
    "title": "보나게스트하우스",
    "address": "서울특별시 영등포구 영등포로 351 (신길동, 신길동경남아파트)",
    "phone": "010-4281-1448",
    "latitude": "37.5153952166",
    "longitude": "126.9180196434",
    "image": "",
    "category": "게스트하우스",
    "original_category": "펜션"
  },
  {
    "id": "2528149",
    "title": "블루보트게스트하우스 전주점",
    "address": "전북특별자치도 전주시 완산구 충경로 75",
    "phone": "010-6545-9049",
    "latitude": "35.8189026431",
    "longitude": "127.1472700632",
    "image": "http://tong.visitkorea.or.kr/cms/resource/51/2611251_image2_1.JPG",
    "category": "게스트하우스",
    "original_category": "펜션"
  },
  {
    "id": "2571945",
    "title": "산들 게스트하우스",
    "address": "전북특별자치도 군산시 동국사길 7-3",
    "phone": "010-9226-3322",
    "latitude": "35.9834291128",
    "longitude": "126.7084493781",
    "image": "http://tong.visitkorea.or.kr/cms/resource/87/2570987_image2_1.jpg",
    "category": "게스트하우스",
    "original_category": "펜션"
  },
  {
    "id": "2588198",
    "title": "삼청동 코리아 게스트하우스",
    "address": "서울특별시 종로구 삼청로4길 12-1",
    "phone": "",
    "latitude": "37.5821136107",
    "longitude": "126.9820258140",
    "image": "",
    "category": "게스트하우스",
    "original_category": "펜션"
  },
  {
    "id": "3102026",
    "title": "새소리게스트하우스",
    "address": "강원특별자치도 강릉시 율곡로 2955-3 (교동)",
    "phone": "0507-1359-5118",
    "latitude": "37.7665668524",
    "longitude": "128.8910084470",
    "image": "",
    "category": "게스트하우스",
    "original_category": "펜션"
  },
  {
    "id": "2570293",
    "title": "서울 타이완 게스트하우스",
    "address": "서울특별시 중구 퇴계로10길 20-18",
    "phone": "02-318-5168",
    "latitude": "37.5581885778",
    "longitude": "126.9800488938",
    "image": "http://tong.visitkorea.or.kr/cms/resource/19/2568119_image2_1.jpg",
    "category": "게스트하우스",
    "original_category": "펜션"
  },
  {
    "id": "2622608",
    "title": "서울역 알게스트하우스",
    "address": "서울특별시 용산구 만리재로36길 16-7",
    "phone": "02-2039-2911",
    "latitude": "37.5536999701",
    "longitude": "126.9666530196",
    "image": "",
    "category": "게스트하우스",
    "original_category": "펜션"
  },
  {
    "id": "2652747",
    "title": "서울크라운88게스트하우스 [한국관광 품질인증/Korea Quality]",
    "address": "서울특별시 마포구 성미산로 189",
    "phone": "02-720-2960",
    "latitude": "37.5631509288",
    "longitude": "126.9264036431",
    "image": "http://tong.visitkorea.or.kr/cms/resource/46/2652746_image2_1.jpg",
    "category": "게스트하우스",
    "original_category": "펜션"
  },
  {
    "id": "2573972",
    "title": "서학아트 게스트하우스",
    "address": "전북특별자치도 전주시 완산구 서학로 7",
    "phone": "063 -231-5633",
    "latitude": "35.8098620588",
    "longitude": "127.1503700237",
    "image": "http://tong.visitkorea.or.kr/cms/resource/76/2573076_image2_1.jpg",
    "category": "게스트하우스",
    "original_category": "펜션"
  },
  {
    "id": "3537880",
    "title": "솔게스트하우스 정동진점",
    "address": "강원특별자치도 강릉시 강동면 헌화로 1096-1",
    "phone": "",
    "latitude": "37.6907672567",
    "longitude": "129.0319619970",
    "image": "",
    "category": "게스트하우스",
    "original_category": "펜션"
  },
  {
    "id": "2398942",
    "title": "순천게스트하우스느림",
    "address": "전라남도 순천시 강변로 669 순천게스트하우스느림",
    "phone": "010-9229-8917",
    "latitude": "34.9465934133",
    "longitude": "127.4956284317",
    "image": "http://tong.visitkorea.or.kr/cms/resource/77/2691877_image2_1.jpg",
    "category": "게스트하우스",
    "original_category": "펜션"
  },
  {
    "id": "2604078",
    "title": "숨바꼭질(Hide & Seek)(Hide & Seek (숨바꼭질) 게스트하우스)",
    "address": "서울특별시 종로구 자하문로6길 14",
    "phone": "02-6925-5916",
    "latitude": "37.5808302228",
    "longitude": "126.9707129929",
    "image": "",
    "category": "게스트하우스",
    "original_category": "펜션"
  },
  {
    "id": "3538419",
    "title": "슈밍게스트하우스",
    "address": "강원특별자치도 강릉시 강릉대로 272 (교동)",
    "phone": "",
    "latitude": "37.7615786994",
    "longitude": "128.8991717544",
    "image": "",
    "category": "게스트하우스",
    "original_category": "펜션"
  },
  {
    "id": "2577776",
    "title": "슬로비게스트하우스&카페",
    "address": "경상남도 통영시 산양읍 풍화일주로 1609-14",
    "phone": "010-3943-1178",
    "latitude": "34.8139794557",
    "longitude": "128.3867428100",
    "image": "",
    "category": "게스트하우스",
    "original_category": "펜션"
  },
  {
    "id": "3533166",
    "title": "아담게스트하우스",
    "address": "경상북도 경주시 첨성로49번길 24-4 (사정동)",
    "phone": "010-4847-0765",
    "latitude": "35.8351964627",
    "longitude": "129.2081514824",
    "image": "",
    "category": "게스트하우스",
    "original_category": "펜션"
  },
  {
    "id": "3102205",
    "title": "아름세 게스트하우스",
    "address": "전라남도 목포시 북교길17번길 9-3 (북교동)",
    "phone": "010-3615-7664",
    "latitude": "34.7949694577",
    "longitude": "126.3771445928",
    "image": "",
    "category": "게스트하우스",
    "original_category": "펜션"
  },
  {
    "id": "2548018",
    "title": "아리네 게스트하우스",
    "address": "광주광역시 남구 천변좌로428번길 6",
    "phone": "010-2104-8899",
    "latitude": "35.1416504368",
    "longitude": "126.9160162417",
    "image": "http://tong.visitkorea.or.kr/cms/resource/69/2817869_image2_1.jpeg",
    "category": "게스트하우스",
    "original_category": "펜션"
  },
  {
    "id": "2583200",
    "title": "아임그린게스트하우스",
    "address": "서울특별시 성북구 성북로23나길 4",
    "phone": "010-8003-1323",
    "latitude": "37.5923237288",
    "longitude": "126.9928467606",
    "image": "",
    "category": "게스트하우스",
    "original_category": "펜션"
  },
  {
    "id": "2570447",
    "title": "애플트리(Apple tree)(애플트리게스트하우스)",
    "address": "서울특별시 마포구 월드컵로20길 41-5",
    "phone": "010-2483-7357",
    "latitude": "37.5581512374",
    "longitude": "126.9111996144",
    "image": "http://tong.visitkorea.or.kr/cms/resource/59/2568259_image2_1.jpg",
    "category": "게스트하우스",
    "original_category": "펜션"
  },
  {
    "id": "3533142",
    "title": "앤드류 게스트하우스",
    "address": "서울특별시 마포구 와우산로29길 56-9 (서교동, 홍익예림빌라)",
    "phone": "010-9700-2603",
    "latitude": "37.5564489442",
    "longitude": "126.9272120920",
    "image": "",
    "category": "게스트하우스",
    "original_category": "펜션"
  },
  {
    "id": "2706685",
    "title": "앨리게스트하우스",
    "address": "경상북도 경주시 계림로106번길 12",
    "phone": "010-6211-1402",
    "latitude": "35.8437511762",
    "longitude": "129.2147145529",
    "image": "http://tong.visitkorea.or.kr/cms/resource/80/2707780_image2_1.jpg",
    "category": "게스트하우스",
    "original_category": "펜션"
  },
  {
    "id": "2697831",
    "title": "영일대 게스트하우스",
    "address": "경상북도 포항시 북구 삼호로 73",
    "phone": "",
    "latitude": "36.0470617042",
    "longitude": "129.3699589893",
    "image": "",
    "category": "게스트하우스",
    "original_category": "펜션"
  },
  {
    "id": "2528133",
    "title": "예포게스트하우스",
    "address": "서울특별시 서대문구 성산로7안길 8",
    "phone": "02-3143-3720",
    "latitude": "37.5675336308",
    "longitude": "126.9196096946",
    "image": "",
    "category": "게스트하우스",
    "original_category": "펜션"
  },
  {
    "id": "2576513",
    "title": "예하도예 게스트하우스(YEHADOYE guesthouse)",
    "address": "서울특별시 종로구 인사동12길 10",
    "phone": "02-722-0048, 010-5448-3618",
    "latitude": "37.5744062273",
    "longitude": "126.9850701994",
    "image": "http://tong.visitkorea.or.kr/cms/resource/88/2576188_image2_1.jpg",
    "category": "게스트하우스",
    "original_category": "펜션"
  },
  {
    "id": "2572933",
    "title": "오케이 게스트하우스",
    "address": "서울특별시 동작구 알마타길 21-18",
    "phone": "010-2946-1708",
    "latitude": "37.5115569487",
    "longitude": "126.9278105264",
    "image": "",
    "category": "게스트하우스",
    "original_category": "펜션"
  },
  {
    "id": "3101944",
    "title": "옥희와인 게스트하우스",
    "address": "경기도 안양시 동안구 관양로 279 (관양동, 삼우빌라)",
    "phone": "0507-1338-3925",
    "latitude": "37.3981431886",
    "longitude": "126.9754927097",
    "image": "",
    "category": "게스트하우스",
    "original_category": "펜션"
  },
  {
    "id": "3102123",
    "title": "올인원게스트하우스",
    "address": "인천광역시 서구 청라한울로59번길 26 (청라동)",
    "phone": "0507-1313-3649, 010-9908-1358",
    "latitude": "37.5412234429",
    "longitude": "126.6433245314",
    "image": "",
    "category": "게스트하우스",
    "original_category": "펜션"
  },
  {
    "id": "3102125",
    "title": "완산골게스트하우스",
    "address": "전북특별자치도 전주시 완산구 전주천서로 139 (동완산동)",
    "phone": "010-4816-5439",
    "latitude": "35.8111729500",
    "longitude": "127.1462703547",
    "image": "",
    "category": "게스트하우스",
    "original_category": "펜션"
  },
  {
    "id": "2575180",
    "title": "유원게스트하우스",
    "address": "대구광역시 남구 앞산순환로93길 48",
    "phone": "010-9511-5673",
    "latitude": "35.8343097649",
    "longitude": "128.5753098848",
    "image": "http://tong.visitkorea.or.kr/cms/resource/79/2575079_image2_1.JPG",
    "category": "게스트하우스",
    "original_category": "펜션"
  },
  {
    "id": "2574082",
    "title": "이브(이브게스트하우스)",
    "address": "서울특별시 중구 퇴계로20길 41-14",
    "phone": "010-2761-0075",
    "latitude": "37.5585442120",
    "longitude": "126.9867593834",
    "image": "http://tong.visitkorea.or.kr/cms/resource/39/2573239_image2_1.jpg",
    "category": "게스트하우스",
    "original_category": "펜션"
  },
  {
    "id": "2609911",
    "title": "인 게스트하우스",
    "address": "서울특별시 마포구 성미산로1길 68",
    "phone": "010-2316-5735",
    "latitude": "37.5608619529",
    "longitude": "126.9066971708",
    "image": "",
    "category": "게스트하우스",
    "original_category": "펜션"
  },
  {
    "id": "2635946",
    "title": "전주게스트하우스 고사동",
    "address": "전북특별자치도 전주시 완산구 전주객사4길 87-34",
    "phone": "010-6621-8782",
    "latitude": "35.8215161374",
    "longitude": "127.1416454953",
    "image": "",
    "category": "게스트하우스",
    "original_category": "펜션"
  },
  {
    "id": "2706479",
    "title": "좋은집 게스트하우스",
    "address": "전라남도 목포시 마인계터로40번길 2-15",
    "phone": "010-7113-0515",
    "latitude": "34.7903367378",
    "longitude": "126.3827525422",
    "image": "http://tong.visitkorea.or.kr/cms/resource/14/2706114_image2_1.jpg",
    "category": "게스트하우스",
    "original_category": "펜션"
  },
  {
    "id": "2570728",
    "title": "주식회사 더 오래뜰(게스트하우스 오래뜰)",
    "address": "전라남도 목포시 북교길 27",
    "phone": "010-4136-1137",
    "latitude": "34.7943501009",
    "longitude": "126.3782306228",
    "image": "http://tong.visitkorea.or.kr/cms/resource/13/2568913_image2_1.jpg",
    "category": "게스트하우스",
    "original_category": "펜션"
  },
  {
    "id": "2572829",
    "title": "큐브 게스트하우스",
    "address": "서울특별시 용산구 이태원로23길 28-4",
    "phone": "010-5212-936",
    "latitude": "37.5357636211",
    "longitude": "126.9920595457",
    "image": "http://tong.visitkorea.or.kr/cms/resource/55/2571555_image2_1.jpg",
    "category": "게스트하우스",
    "original_category": "펜션"
  },
  {
    "id": "2706030",
    "title": "통영 유어스게스트하우스",
    "address": "경상남도 통영시 데메3길 27-7",
    "phone": "010-5574-5228",
    "latitude": "34.8285506655",
    "longitude": "128.4213033069",
    "image": "http://tong.visitkorea.or.kr/cms/resource/88/2705888_image2_1.jpg",
    "category": "게스트하우스",
    "original_category": "펜션"
  },
  {
    "id": "2570621",
    "title": "통영대교게스트하우스",
    "address": "경상남도 통영시 진남1길 24",
    "phone": "010-6390-5568",
    "latitude": "34.8333193408",
    "longitude": "128.4080848879",
    "image": "http://tong.visitkorea.or.kr/cms/resource/43/2568643_image2_1.jpg",
    "category": "게스트하우스",
    "original_category": "펜션"
  },
  {
    "id": "2576517",
    "title": "통영더스토리 게스트하우스",
    "address": "경상남도 통영시 도남로 175-27",
    "phone": "010-5214-9216",
    "latitude": "34.8300838622",
    "longitude": "128.4232725396",
    "image": "http://tong.visitkorea.or.kr/cms/resource/46/2576246_image2_1.jpg",
    "category": "게스트하우스",
    "original_category": "펜션"
  },
  {
    "id": "3101990",
    "title": "퍼플 게스트하우스",
    "address": "서울특별시 동대문구 왕산로19라길 49 (제기동)",
    "phone": "010-5841-3385",
    "latitude": "37.5808730052",
    "longitude": "127.0330739748",
    "image": "",
    "category": "게스트하우스",
    "original_category": "펜션"
  },
  {
    "id": "3102097",
    "title": "포데로사 게스트하우스",
    "address": "경상북도 포항시 북구 중앙로298번길 4-1 (상원동)",
    "phone": "0507-1372-0256",
    "latitude": "36.0392708552",
    "longitude": "129.3666067312",
    "image": "",
    "category": "게스트하우스",
    "original_category": "펜션"
  },
  {
    "id": "2571913",
    "title": "하늘정원 게스트하우스(하늘정원게스트하우스)",
    "address": "전북특별자치도 전주시 완산구 팔달로 121",
    "phone": "010-4205-2965",
    "latitude": "35.8132755302",
    "longitude": "127.1486700857",
    "image": "http://tong.visitkorea.or.kr/cms/resource/57/2568457_image2_1.JPG",
    "category": "게스트하우스",
    "original_category": "펜션"
  },
  {
    "id": "2950474",
    "title": "하이데어 게스트하우스[한국관광 품질인증/Korea Quality]",
    "address": "서울특별시 마포구 와우산로29라길 22-3",
    "phone": "010-5168-5563",
    "latitude": "37.5549407737",
    "longitude": "126.9265233086",
    "image": "http://tong.visitkorea.or.kr/cms/resource/27/2950527_image2_1.jpg",
    "category": "게스트하우스",
    "original_category": "펜션"
  },
  {
    "id": "2570623",
    "title": "행복을 꿈꾸는 게스트하우스",
    "address": "전북특별자치도 군산시 구영7길 7 행복을 꿈꾸는 게스트하우스",
    "phone": "010-9654-3579",
    "latitude": "35.9844901070",
    "longitude": "126.7086410008",
    "image": "",
    "category": "게스트하우스",
    "original_category": "펜션"
  },
  {
    "id": "2612215",
    "title": "헤이마 게스트하우스",
    "address": "서울특별시 마포구 와우산로29마길 15-7",
    "phone": "010-7681-8861",
    "latitude": "37.5553074035",
    "longitude": "126.9268482681",
    "image": "",
    "category": "게스트하우스",
    "original_category": "펜션"
  },
  {
    "id": "2576397",
    "title": "홈게스트하우스",
    "address": "경상남도 통영시 서송정1길 46-18",
    "phone": "010-4606-6763",
    "latitude": "34.8313836505",
    "longitude": "128.4195506075",
    "image": "http://tong.visitkorea.or.kr/cms/resource/50/2576050_image2_1.jpeg",
    "category": "게스트하우스",
    "original_category": "펜션"
  },
  {
    "id": "2699359",
    "title": "홍대스타일 게스트하우스",
    "address": "서울특별시 마포구 월드컵북로4길 23-3",
    "phone": "070-7787-1880",
    "latitude": "37.5575487011",
    "longitude": "126.9207848692",
    "image": "",
    "category": "게스트하우스",
    "original_category": "펜션"
  },
  {
    "id": "2604741",
    "title": "황토게스트하우스",
    "address": "경상북도 안동시 태사길 125-5",
    "phone": "010-6761-3544",
    "latitude": "36.5688237249",
    "longitude": "128.7357081998",
    "image": "http://tong.visitkorea.or.kr/cms/resource/33/2604733_image2_1.jpg",
    "category": "게스트하우스",
    "original_category": "펜션"
  },
  {
    "id": "2570315",
    "title": "훌훌게스트하우스",
    "address": "경상남도 통영시 진남2길 28",
    "phone": "010-6659-6455",
    "latitude": "34.8329027237",
    "longitude": "128.4082515517",
    "image": "http://tong.visitkorea.or.kr/cms/resource/42/2568142_image2_1.JPG",
    "category": "게스트하우스",
    "original_category": "펜션"
  },
  {
    "id": "2699348",
    "title": "휴앤고 게스트하우스",
    "address": "전라남도 여수시 동문로 94",
    "phone": "",
    "latitude": "34.7448536403",
    "longitude": "127.7422091764",
    "image": "",
    "category": "게스트하우스",
    "original_category": "펜션"
  },
  {
    "id": "2666403",
    "title": "24게스트하우스(서울 잠실점) (24게스트하우스 잠실점)",
    "address": "서울특별시 송파구 백제고분로22길 5",
    "phone": "",
    "latitude": "37.5033830197",
    "longitude": "127.0894099336",
    "image": "",
    "category": "게스트하우스",
    "original_category": "펜션"
  },
  {
    "id": "2575118",
    "title": "(주)수다방 게스트하우스(목포게스트하우스수다방)",
    "address": "전라남도 목포시 마인계터로40번길 2-14",
    "phone": "0507-1426-7018",
    "latitude": "34.7902228591",
    "longitude": "126.3825858930",
    "image": "http://tong.visitkorea.or.kr/cms/resource/71/2574971_image2_1.PNG",
    "category": "게스트하우스",
    "original_category": "펜션"
  },
  {
    "id": "2604348",
    "title": "GuestH(진주게스트하우스_GuestH)",
    "address": "경상남도 진주시 모덕로64번길 9",
    "phone": "010-5239-3268",
    "latitude": "35.1842384302",
    "longitude": "128.1022884890",
    "image": "",
    "category": "게스트하우스",
    "original_category": "펜션"
  },
  {
    "id": "3469420",
    "title": "K게스트하우스",
    "address": "강원특별자치도 강릉시 중앙시장3길 23 (성남동)",
    "phone": "",
    "latitude": "37.7518992274",
    "longitude": "128.8973277759",
    "image": "",
    "category": "게스트하우스",
    "original_category": "펜션"
  },
  {
    "id": "2569922",
    "title": "La Casa del Sol (라까사델솔 게스트하우스)",
    "address": "부산광역시 서구 부용로 14-36",
    "phone": "010-3521-1239",
    "latitude": "35.1080051969",
    "longitude": "129.0167912233",
    "image": "http://tong.visitkorea.or.kr/cms/resource/61/2567961_image2_1.jpg",
    "category": "게스트하우스",
    "original_category": "펜션"
  },
  {
    "id": "2600548",
    "title": "SH게스트하우스",
    "address": "강원특별자치도 춘천시 춘천로 218-4",
    "phone": "010-3423-8259",
    "latitude": "37.8802232994",
    "longitude": "127.7360095970",
    "image": "",
    "category": "게스트하우스",
    "original_category": "펜션"
  },
  {
    "id": "2708325",
    "title": "봉황재 한옥 게스트하우스",
    "address": "충청남도 공주시 큰샘3길 8",
    "phone": "041-960-5525",
    "latitude": "36.4508188891",
    "longitude": "127.1200307170",
    "image": "http://tong.visitkorea.or.kr/cms/resource/81/2707581_image2_1.jpeg",
    "category": "게스트하우스",
    "original_category": "홈스테이"
  },
  {
    "id": "2575836",
    "title": "북촌 게스트하우스",
    "address": "서울특별시 종로구 북촌로 20-17",
    "phone": "",
    "latitude": "37.5786279695",
    "longitude": "126.9856811352",
    "image": "http://tong.visitkorea.or.kr/cms/resource/42/2575642_image2_1.PNG",
    "category": "게스트하우스",
    "original_category": "홈스테이"
  },
  {
    "id": "2570282",
    "title": "서문한옥게스트하우스",
    "address": "대구광역시 중구 큰장로24길 26",
    "phone": "010-6663-5219",
    "latitude": "35.8667617259",
    "longitude": "128.5795752731",
    "image": "http://tong.visitkorea.or.kr/cms/resource/15/2568115_image2_1.jpg",
    "category": "게스트하우스",
    "original_category": "홈스테이"
  },
  {
    "id": "2569150",
    "title": "서울이야기 한옥(서울이야기한옥게스트하우스)",
    "address": "서울특별시 종로구 율곡로5길 3-19",
    "phone": "010-9956-5953",
    "latitude": "37.5770059170",
    "longitude": "126.9846035015",
    "image": "http://tong.visitkorea.or.kr/cms/resource/75/2566975_image2_1.jpg",
    "category": "게스트하우스",
    "original_category": "홈스테이"
  },
  {
    "id": "2465879",
    "title": "서촌게스트하우스[한국관광 품질인증/Korea Quality]",
    "address": "서울특별시 종로구 자하문로7길 28-3",
    "phone": "02-473-9680",
    "latitude": "37.5790915353",
    "longitude": "126.9706491586",
    "image": "http://tong.visitkorea.or.kr/cms/resource/86/2998986_image2_1.jpg",
    "category": "게스트하우스",
    "original_category": "홈스테이"
  },
  {
    "id": "3102082",
    "title": "애가 한옥 게스트하우스",
    "address": "대구광역시 중구 남산로2길 11-11 (남산동)",
    "phone": "010-2879-5060",
    "latitude": "35.8574267397",
    "longitude": "128.5832668745",
    "image": "",
    "category": "게스트하우스",
    "original_category": "홈스테이"
  },
  {
    "id": "3102208",
    "title": "퍼센트 게스트하우스",
    "address": "대구광역시 중구 달구벌대로446길 28-8 (대봉동)",
    "phone": "010-8919-1484",
    "latitude": "35.8612878187",
    "longitude": "128.6052259442",
    "image": "",
    "category": "게스트하우스",
    "original_category": "홈스테이"
  },
  {
    "id": "2576540",
    "title": "풍정(풍정게스트하우스)",
    "address": "경상북도 경주시 원효로272번길 5",
    "phone": "010-2108-1254",
    "latitude": "35.8407851479",
    "longitude": "129.2307854513",
    "image": "http://tong.visitkorea.or.kr/cms/resource/89/2576289_image2_1.jpg",
    "category": "게스트하우스",
    "original_category": "홈스테이"
  },
  {
    "id": "2699340",
    "title": "한옥 게스트하우스 동촌재",
    "address": "서울특별시 종로구 자하문로11길 21-10",
    "phone": "",
    "latitude": "37.5801108465",
    "longitude": "126.9698547581",
    "image": "",
    "category": "게스트하우스",
    "original_category": "홈스테이"
  },
  {
    "id": "2706047",
    "title": "한옥 게스트하우스 동촌재",
    "address": "서울특별시 종로구 자하문로11길 21-10",
    "phone": "010-8561-5227",
    "latitude": "37.5801108465",
    "longitude": "126.9698547581",
    "image": "http://tong.visitkorea.or.kr/cms/resource/96/2705896_image2_1.jpg",
    "category": "게스트하우스",
    "original_category": "홈스테이"
  },
  {
    "id": "2695757",
    "title": "한옥게스트하우스 '安(Ahn)'",
    "address": "대구광역시 중구 국채보상로149길 98",
    "phone": "",
    "latitude": "35.8728977199",
    "longitude": "128.6108890108",
    "image": "",
    "category": "게스트하우스",
    "original_category": "홈스테이"
  }
]