[
  {
    "id": "136485",
    "title": "가야호텔",
    "address": "경상북도 성주군 수륜면 가야산식물원길 52",
    "phone": "",
    "latitude": "35.8028998655",
    "longitude": "128.1422906062",
    "image": "http://tong.visitkorea.or.kr/cms/resource/32/3549832_image2_1.jpg",
    "category": "관광호텔"
  },
  {
    "id": "2650614",
    "title": "강남아르누보씨티호텔",
    "address": "서울특별시 서초구 서초대로74길 49 (서초동)",
    "phone": "02-580-7300/7400",
    "latitude": "37.4934664031",
    "longitude": "127.0281518997",
    "image": "http://tong.visitkorea.or.kr/cms/resource/94/2650594_image2_1.jpg",
    "category": "관광호텔"
  },
  {
    "id": "2903046",
    "title": "강릉 부띠끄호텔 봄봄[한국관광 품질인증/Korea Quality]",
    "address": "강원특별자치도 강릉시 교동광장로100번길 19",
    "phone": "033-645-5511",
    "latitude": "37.7666443332",
    "longitude": "128.8762486624",
    "image": "http://tong.visitkorea.or.kr/cms/resource/10/2950310_image2_1.jpg",
    "category": "관광호텔"
  },
  {
    "id": "3540781",
    "title": "강릉관광호텔",
    "address": "강원특별자치도 강릉시 금성로 62 (성내동)",
    "phone": "",
    "latitude": "37.7517436388",
    "longitude": "128.8947280147",
    "image": "",
    "category": "관광호텔"
  },
  {
    "id": "3470382",
    "title": "거제 돔 관광호텔",
    "address": "경상남도 거제시 일운면 거제대로 2372",
    "phone": "",
    "latitude": "34.8224815267",
    "longitude": "128.7099866882",
    "image": "",
    "category": "관광호텔"
  },
  {
    "id": "142984",
    "title": "거제관광호텔",
    "address": "경상남도 거제시 거제중앙로 1898-5",
    "phone": "055-632-7002",
    "latitude": "34.8880476491",
    "longitude": "128.6239840921",
    "image": "http://tong.visitkorea.or.kr/cms/resource/39/1981439_image2_1.jpg",
    "category": "관광호텔"
  },
  {
    "id": "143125",
    "title": "거제삼성호텔",
    "address": "경상남도 거제시 장평3로 80-37",
    "phone": "055-631-2114",
    "latitude": "34.8961937511",
    "longitude": "128.6123460004",
    "image": "http://tong.visitkorea.or.kr/cms/resource/78/1609978_image2_1.jpg",
    "category": "관광호텔"
  },
  {
    "id": "2578490",
    "title": "거제오션호텔",
    "address": "경상남도 거제시 옥포로2길 13",
    "phone": "055-730-9600",
    "latitude": "34.8907680926",
    "longitude": "128.6961694066",
    "image": "",
    "category": "관광호텔"
  },
  {
    "id": "2475088",
    "title": "경원재 바이 워커힐",
    "address": "인천광역시 연수구 테크노파크로 200",
    "phone": "032-729-1101",
    "latitude": "37.3923573144",
    "longitude": "126.6378263887",
    "image": "http://tong.visitkorea.or.kr/cms/resource/10/3515110_image2_1.jpg",
    "category": "관광호텔"
  },
  {
    "id": "142816",
    "title": "경포 비치 관광 호텔",
    "address": "강원특별자치도 강릉시 해안로406번길 17",
    "phone": "033-643-6699",
    "latitude": "37.7990246496",
    "longitude": "128.9136859533",
    "image": "",
    "category": "관광호텔"
  },
  {
    "id": "3547649",
    "title": "경포비치호텔",
    "address": "강원특별자치도 강릉시 해안로406번길 17 (강문동)",
    "phone": "",
    "latitude": "37.7990607559",
    "longitude": "128.9136387347",
    "image": "",
    "category": "관광호텔"
  },
  {
    "id": "596860",
    "title": "경포에메랄드",
    "address": "강원특별자치도 강릉시 해안로406번길 26",
    "phone": "033-644-4810",
    "latitude": "37.7986636022",
    "longitude": "128.9147997532",
    "image": "http://tong.visitkorea.or.kr/cms/resource/19/598219_image2_1.jpg",
    "category": "관광호텔"
  },
  {
    "id": "143138",
    "title": "고려호텔",
    "address": "경기도 부천시 원미구 길주로 66 (상동)",
    "phone": "",
    "latitude": "37.5054655933",
    "longitude": "126.7495686111",
    "image": "http://tong.visitkorea.or.kr/cms/resource/37/3573937_image2_1.jpg",
    "category": "관광호텔"
  },
  {
    "id": "3076375",
    "title": "골드원호텔&스위트",
    "address": "제주특별자치도 서귀포시 이어도로 1032 (서호동)",
    "phone": "",
    "latitude": "33.2442391264",
    "longitude": "126.5223984479",
    "image": "",
    "category": "관광호텔"
  },
  {
    "id": "3081264",
    "title": "골든리버호텔",
    "address": "경기도 광명시 소하로92번길 6-9 (소하동)",
    "phone": "",
    "latitude": "37.4477052284",
    "longitude": "126.8828497488",
    "image": "http://tong.visitkorea.or.kr/cms/resource/58/3081258_image2_1.JPG",
    "category": "관광호텔"
  },
  {
    "id": "3081232",
    "title": "골든비즈니스호텔",
    "address": "경상남도 진주시 에나로 101 (충무공동)",
    "phone": "",
    "latitude": "35.1778370506",
    "longitude": "128.1403742084",
    "image": "http://tong.visitkorea.or.kr/cms/resource/30/3081230_image2_1.jpg",
    "category": "관광호텔"
  },
  {
    "id": "3080065",
    "title": "골든서울호텔",
    "address": "서울특별시 강서구 공항대로 663 (염창동)",
    "phone": "",
    "latitude": "37.5479601641",
    "longitude": "126.8781306951",
    "image": "",
    "category": "관광호텔"
  },
  {
    "id": "2664597",
    "title": "골든튤립 호텔 남강",
    "address": "경상남도 진주시 남강로673번길 16 골든튤립에센셜 남강",
    "phone": "",
    "latitude": "35.1916150997",
    "longitude": "128.0865896708",
    "image": "http://tong.visitkorea.or.kr/cms/resource/69/2813169_image2_1.jpg",
    "category": "관광호텔"
  },
  {
    "id": "3079710",
    "title": "골든튤립에버 용인호텔",
    "address": "경기도 용인시 처인구 포곡읍 전대로78번길 19-2",
    "phone": "",
    "latitude": "37.2870909414",
    "longitude": "127.2167933722",
    "image": "http://tong.visitkorea.or.kr/cms/resource/81/3562781_image2_1.jpg",
    "category": "관광호텔"
  },
  {
    "id": "2782945",
    "title": "골든튤립인천에어포트호텔",
    "address": "인천광역시 중구 흰바위로59번길 8",
    "phone": "",
    "latitude": "37.4923125872",
    "longitude": "126.4924230049",
    "image": "http://tong.visitkorea.or.kr/cms/resource/57/3529857_image2_1.jpg",
    "category": "관광호텔"
  },
  {
    "id": "3076499",
    "title": "공주잉크관광호텔",
    "address": "충청남도 공주시 신관동",
    "phone": "",
    "latitude": "36.4698391086",
    "longitude": "127.1301209652",
    "image": "",
    "category": "관광호텔"
  },
  {
    "id": "3081237",
    "title": "광명JS부티크호텔",
    "address": "경기도 광명시 오리로854번길 16-18 (철산동)",
    "phone": "",
    "latitude": "37.4743241106",
    "longitude": "126.8688780525",
    "image": "http://tong.visitkorea.or.kr/cms/resource/35/3081235_image2_1.JPG",
    "category": "관광호텔"
  },
  {
    "id": "142874",
    "title": "광장호텔",
    "address": "부산광역시 동구 중앙대로214번길 7",
    "phone": "051-464-3141",
    "latitude": "35.1162158418",
    "longitude": "129.0413666394",
    "image": "http://tong.visitkorea.or.kr/cms/resource/88/1346188_image2_1.jpg",
    "category": "관광호텔"
  },
  {
    "id": "2701047",
    "title": "광주 아우라 비즈니스 호텔",
    "address": "광주광역시 광산구 송정로1번길 28",
    "phone": "062-942-0060",
    "latitude": "35.1383348473",
    "longitude": "126.7928938784",
    "image": "http://tong.visitkorea.or.kr/cms/resource/66/2698566_image2_1.jpg",
    "category": "관광호텔"
  },
  {
    "id": "2664551",
    "title": "광주 아우라호텔",
    "address": "광주광역시 광산구 송정로1번길 28",
    "phone": "062-942-0060",
    "latitude": "35.1383348473",
    "longitude": "126.7928938784",
    "image": "",
    "category": "관광호텔"
  },
  {
    "id": "143052",
    "title": "구미센츄리호텔",
    "address": "경상북도 구미시 3공단1로 296 (임수동)",
    "phone": "",
    "latitude": "36.1086671428",
    "longitude": "128.4026924803",
    "image": "http://tong.visitkorea.or.kr/cms/resource/63/3573663_image2_1.JPG",
    "category": "관광호텔"
  },
  {
    "id": "2539567",
    "title": "구월호텔",
    "address": "인천광역시 남동구 선수촌공원로23번길 1",
    "phone": "032-465-9229",
    "latitude": "37.4409418292",
    "longitude": "126.7097184878",
    "image": "http://tong.visitkorea.or.kr/cms/resource/57/2539557_image2_1.jpg",
    "category": "관광호텔"
  },
  {
    "id": "3534675",
    "title": "군산 스테이 호텔",
    "address": "전북특별자치도 군산시 성산면 철새로 56",
    "phone": "",
    "latitude": "36.0151652935",
    "longitude": "126.7618854419",
    "image": "http://tong.visitkorea.or.kr/cms/resource/96/3534596_image2_1.jpg",
    "category": "관광호텔"
  },
  {
    "id": "1932079",
    "title": "굿모닝레지던스호텔휴",
    "address": "대전광역시 서구 둔산로73번길 21 (둔산동)",
    "phone": "",
    "latitude": "36.3523347925",
    "longitude": "127.3817016058",
    "image": "http://tong.visitkorea.or.kr/cms/resource/87/2584687_image2_1.jpg",
    "category": "관광호텔"
  },
  {
    "id": "2917270",
    "title": "그라벨호텔",
    "address": "제주특별자치도 제주시 일주서로 7316 (외도일동)",
    "phone": "",
    "latitude": "33.4924157657",
    "longitude": "126.4286648899",
    "image": "",
    "category": "관광호텔"
  },
  {
    "id": "2819450",
    "title": "그래비티 조선 서울 판교",
    "address": "경기도 성남시 분당구 판교역로146번길 2 (백현동)",
    "phone": "",
    "latitude": "37.3933767103",
    "longitude": "127.1101250514",
    "image": "http://tong.visitkorea.or.kr/cms/resource/56/3568956_image2_1.jpg",
    "category": "관광호텔"
  },
  {
    "id": "620794",
    "title": "그랜드 머큐어 앰배서더 창원",
    "address": "경상남도 창원시 성산구 원이대로 332",
    "phone": "",
    "latitude": "35.2393394091",
    "longitude": "128.6551886257",
    "image": "http://tong.visitkorea.or.kr/cms/resource/51/3525451_image2_1.jpg",
    "category": "관광호텔"
  },
  {
    "id": "3387829",
    "title": "그랜드 머큐어 앰버서더 서울 용산",
    "address": "서울특별시 용산구 청파로20길 95 (한강로3가)",
    "phone": "",
    "latitude": "37.5320052033",
    "longitude": "126.9630345182",
    "image": "",
    "category": "관광호텔"
  },
  {
    "id": "142728",
    "title": "그랜드 워커힐 서울",
    "address": "서울특별시 광진구 워커힐로 177",
    "phone": "",
    "latitude": "37.5552218298",
    "longitude": "127.1107898477",
    "image": "",
    "category": "관광호텔"
  },
  {
    "id": "142769",
    "title": "그랜드 인터컨티넨탈 서울 파르나스",
    "address": "서울특별시 강남구 테헤란로 521",
    "phone": "02-555-5656",
    "latitude": "37.5095984514",
    "longitude": "127.0608845757",
    "image": "http://tong.visitkorea.or.kr/cms/resource/45/2705645_image2_1.jpg",
    "category": "관광호텔"
  },
  {
    "id": "2913870",
    "title": "그랜드 인투라온 호텔 정선",
    "address": "강원특별자치도 정선군 사북읍 사북리 354-32",
    "phone": "",
    "latitude": "37.2267414821",
    "longitude": "128.8123847368",
    "image": "http://tong.visitkorea.or.kr/cms/resource/36/2921336_image2_1.jpg",
    "category": "관광호텔"
  },
  {
    "id": "2818890",
    "title": "그랜드 조선 부산",
    "address": "부산광역시 해운대구 해운대해변로 292 그랜드 조선 부산",
    "phone": "",
    "latitude": "35.1601048456",
    "longitude": "129.1631548469",
    "image": "http://tong.visitkorea.or.kr/cms/resource/07/3529807_image2_1.jpg",
    "category": "관광호텔"
  },
  {
    "id": "2819964",
    "title": "그랜드 조선 제주",
    "address": "제주특별자치도 서귀포시 중문관광로72번길 60",
    "phone": "",
    "latitude": "33.2501588629",
    "longitude": "126.4063028265",
    "image": "http://tong.visitkorea.or.kr/cms/resource/37/2819937_image2_1.jpg",
    "category": "관광호텔"
  },
  {
    "id": "142733",
    "title": "그랜드 하얏트 서울",
    "address": "서울특별시 용산구 소월로 322",
    "phone": "02-797-1234",
    "latitude": "37.5396549325",
    "longitude": "126.9974672756",
    "image": "http://tong.visitkorea.or.kr/cms/resource/49/3097349_image2_1.jpg",
    "category": "관광호텔"
  },
  {
    "id": "143090",
    "title": "그랜드 하얏트 인천",
    "address": "인천광역시 중구 영종해안남로321번길 208",
    "phone": "032-745-1234",
    "latitude": "37.4404402287",
    "longitude": "126.4574442965",
    "image": "http://tong.visitkorea.or.kr/cms/resource/42/1378142_image2_1.jpg",
    "category": "관광호텔"
  },
  {
    "id": "2876795",
    "title": "그랜드 하얏트 제주",
    "address": "제주특별자치도 제주시 노연로 12 (노형동)",
    "phone": "",
    "latitude": "33.4852923931",
    "longitude": "126.4814715703",
    "image": "http://tong.visitkorea.or.kr/cms/resource/83/2876783_image2_1.jpg",
    "category": "관광호텔"
  },
  {
    "id": "3076360",
    "title": "그랜드메르호텔제주",
    "address": "제주특별자치도 서귀포시 논짓물로 45 (하예동)",
    "phone": "",
    "latitude": "33.2396708139",
    "longitude": "126.3861298105",
    "image": "",
    "category": "관광호텔"
  },
  {
    "id": "2652384",
    "title": "그랜드시티호텔 창원[한국관광 품질인증/Korea Quality]",
    "address": "경상남도 창원시 성산구 중앙대로 78",
    "phone": "055-262-9090",
    "latitude": "35.2215279553",
    "longitude": "128.6791092398",
    "image": "http://tong.visitkorea.or.kr/cms/resource/80/2732080_image2_1.jpg",
    "category": "관광호텔"
  },
  {
    "id": "3470441",
    "title": "그랩 디 오션 송도",
    "address": "부산광역시 서구 송도해변로 97 (암남동)",
    "phone": "",
    "latitude": "35.0772669902",
    "longitude": "129.0178725220",
    "image": "",
    "category": "관광호텔"
  },
  {
    "id": "2816102",
    "title": "그레이193호텔",
    "address": "부산광역시 수영구 광안해변로278번길 42 오션브릿지",
    "phone": "010-6740-8889",
    "latitude": "35.1540103687",
    "longitude": "129.1245417048",
    "image": "http://tong.visitkorea.or.kr/cms/resource/61/2815961_image2_1.jpg",
    "category": "관광호텔"
  },
  {
    "id": "2902806",
    "title": "그레이호텔",
    "address": "강원특별자치도 강릉시 하슬라로192번길 6 (교동)",
    "phone": "",
    "latitude": "37.7667165432",
    "longitude": "128.8760764538",
    "image": "http://tong.visitkorea.or.kr/cms/resource/98/2902798_image2_1.jpg",
    "category": "관광호텔"
  },
  {
    "id": "3081864",
    "title": "그린피아관광호텔",
    "address": "경기도 화성시 세자로 438 (안녕동)",
    "phone": "",
    "latitude": "37.2038214009",
    "longitude": "126.9834446399",
    "image": "http://tong.visitkorea.or.kr/cms/resource/59/3081859_image2_1.JPG",
    "category": "관광호텔"
  },
  {
    "id": "3514681",
    "title": "글래드 강남 코엑스센터",
    "address": "서울특별시 강남구 테헤란로 610 (대치동)",
    "phone": "",
    "latitude": "37.5088763790",
    "longitude": "127.0645564837",
    "image": "http://tong.visitkorea.or.kr/cms/resource/52/3514552_image2_1.jpg",
    "category": "관광호텔"
  },
  {
    "id": "3465927",
    "title": "글래드 마포",
    "address": "서울특별시 마포구 마포대로 92 (도화동)",
    "phone": "",
    "latitude": "37.5433286707",
    "longitude": "126.9508880827",
    "image": "",
    "category": "관광호텔"
  },
  {
    "id": "3492920",
    "title": "글래드 여의도",
    "address": "서울특별시 영등포구 의사당대로 16 (여의도동)",
    "phone": "",
    "latitude": "37.5274632459",
    "longitude": "126.9172804818",
    "image": "http://tong.visitkorea.or.kr/cms/resource/93/3492893_image2_1.jpg",
    "category": "관광호텔"
  },
  {
    "id": "2708337",
    "title": "글로스터호텔 인천",
    "address": "인천광역시 남동구 소래역로 36",
    "phone": "032-460-1100",
    "latitude": "37.4003414436",
    "longitude": "126.7354589383",
    "image": "http://tong.visitkorea.or.kr/cms/resource/69/2707769_image2_1.jpg",
    "category": "관광호텔"
  },
  {
    "id": "3089186",
    "title": "글로스터호텔 제주",
    "address": "제주특별자치도 제주시 삼무로 57 (연동)",
    "phone": "",
    "latitude": "33.4901448115",
    "longitude": "126.4926621543",
    "image": "http://tong.visitkorea.or.kr/cms/resource/82/3089182_image2_1.jpg",
    "category": "관광호텔"
  },
  {
    "id": "136416",
    "title": "금수장관광호텔",
    "address": "광주광역시 동구 무등로321번길 2",
    "phone": "062-525-2111",
    "latitude": "35.1621787163",
    "longitude": "126.9184960636",
    "image": "http://tong.visitkorea.or.kr/cms/resource/46/1587546_image2_1.jpg",
    "category": "관광호텔"
  },
  {
    "id": "143003",
    "title": "김천파크 관광호텔",
    "address": "경상북도 김천시 대항면 황학동길 35-23",
    "phone": "054-437-8000",
    "latitude": "36.1160259279",
    "longitude": "128.0169236874",
    "image": "http://tong.visitkorea.or.kr/cms/resource/61/1893561_image2_1.jpg",
    "category": "관광호텔"
  },
  {
    "id": "3303810",
    "title": "나무호텔",
    "address": "서울특별시 광진구 아차산로76가길 12 (광장동)",
    "phone": "02-456-3271",
    "latitude": "37.5473643444",
    "longitude": "127.1072153970",
    "image": "http://tong.visitkorea.or.kr/cms/resource/94/3303794_image2_1.jpg",
    "category": "관광호텔"
  },
  {
    "id": "2930309",
    "title": "나봄 S&HOTEL",
    "address": "대전광역시 유성구 테크노중앙로 69 (관평동)",
    "phone": "",
    "latitude": "36.4259043560",
    "longitude": "127.3932957905",
    "image": "http://tong.visitkorea.or.kr/cms/resource/04/2930304_image2_1.jpg",
    "category": "관광호텔"
  },
  {
    "id": "143130",
    "title": "나이아가라호텔",
    "address": "서울특별시 강서구 양천로 743",
    "phone": "02-3660-4000",
    "latitude": "37.5492794642",
    "longitude": "126.8786333892",
    "image": "http://tong.visitkorea.or.kr/cms/resource/54/1805454_image2_1.jpg",
    "category": "관광호텔"
  },
  {
    "id": "2918636",
    "title": "나인브릭호텔",
    "address": "서울특별시 마포구 홍익로5길 32 (서교동)",
    "phone": "",
    "latitude": "37.5538352404",
    "longitude": "126.9205849920",
    "image": "http://tong.visitkorea.or.kr/cms/resource/56/2900456_image2_1.jpg",
    "category": "관광호텔"
  },
  {
    "id": "3076518",
    "title": "나인트리 프리미어 로카우스 호텔 서울 용산",
    "address": "서울특별시 용산구 한강대로23길 25 (한강로3가)",
    "phone": "",
    "latitude": "37.5276946173",
    "longitude": "126.9643650746",
    "image": "",
    "category": "관광호텔"
  },
  {
    "id": "3079823",
    "title": "나인트리호텔 동대문",
    "address": "서울특별시 중구 을지로 224 (을지로5가)",
    "phone": "",
    "latitude": "37.5666657811",
    "longitude": "127.0029493450",
    "image": "",
    "category": "관광호텔"
  },
  {
    "id": "1800943",
    "title": "나인트리호텔 명동",
    "address": "서울특별시 중구 명동10길 51",
    "phone": "02-750-0999",
    "latitude": "37.5616410620",
    "longitude": "126.9860454719",
    "image": "",
    "category": "관광호텔"
  },
  {
    "id": "3469427",
    "title": "나인호텔",
    "address": "경상남도 진주시 남강로 629-5 (본성동)",
    "phone": "010-9099-1257",
    "latitude": "35.1910400513",
    "longitude": "128.0802235776",
    "image": "",
    "category": "관광호텔"
  },
  {
    "id": "2710726",
    "title": "낙산디그니티호텔",
    "address": "강원특별자치도 양양군 양양읍 일출로 159-5",
    "phone": "033-671-4456",
    "latitude": "38.1085750898",
    "longitude": "128.6405454674",
    "image": "http://tong.visitkorea.or.kr/cms/resource/27/2746827_image2_1.jpg",
    "category": "관광호텔"
  },
  {
    "id": "2710618",
    "title": "낙산비치호텔",
    "address": "강원특별자치도 양양군 강현면 낙산사로 73",
    "phone": "",
    "latitude": "38.1234842767",
    "longitude": "128.6307431149",
    "image": "http://tong.visitkorea.or.kr/cms/resource/86/2746786_image2_1.jpg",
    "category": "관광호텔"
  },
  {
    "id": "137779",
    "title": "남해스포츠파크호텔",
    "address": "경상남도 남해군 서면 스포츠파크길 73",
    "phone": "",
    "latitude": "34.8041375134",
    "longitude": "127.8356967108",
    "image": "",
    "category": "관광호텔"
  },
  {
    "id": "3470541",
    "title": "넘버25 호텔 경주터미널점",
    "address": "경상북도 경주시 금성로259번길 17 (노서동)",
    "phone": "",
    "latitude": "35.8407568904",
    "longitude": "129.2052182485",
    "image": "",
    "category": "관광호텔"
  },
  {
    "id": "3470558",
    "title": "넘버25 호텔 기장 연화리점",
    "address": "부산광역시 기장군 기장읍 연화길 64",
    "phone": "",
    "latitude": "35.2192271784",
    "longitude": "129.2264338273",
    "image": "",
    "category": "관광호텔"
  },
  {
    "id": "3540330",
    "title": "넘버25호텔강릉역점",
    "address": "강원특별자치도 강릉시 옥가로 39 (옥천동)",
    "phone": "",
    "latitude": "37.7599983358",
    "longitude": "128.8996467605",
    "image": "",
    "category": "관광호텔"
  },
  {
    "id": "3464661",
    "title": "네스트호텔",
    "address": "인천광역시 중구 영종해안남로 19-5 (운서동)",
    "phone": "032-743-9245",
    "latitude": "37.4246137307",
    "longitude": "126.4253948792",
    "image": "http://tong.visitkorea.or.kr/cms/resource/15/3475015_image2_1.jpg",
    "category": "관광호텔"
  },
  {
    "id": "3387475",
    "title": "노보텔 스위트 앰배서더 서울 용산",
    "address": "서울특별시 용산구 청파로20길 95 (한강로3가)",
    "phone": "",
    "latitude": "37.5320052033",
    "longitude": "126.9630345182",
    "image": "",
    "category": "관광호텔"
  },
  {
    "id": "142721",
    "title": "노보텔 앰배서더 서울 강남",
    "address": "서울특별시 강남구 봉은사로 130 (역삼동)",
    "phone": "02-567-1101",
    "latitude": "37.5053372605",
    "longitude": "127.0289098282",
    "image": "http://tong.visitkorea.or.kr/cms/resource/27/3534327_image2_1.jpg",
    "category": "관광호텔"
  },
  {
    "id": "3337233",
    "title": "노보텔 앰배서더 서울 동대문 호텔 & 레지던스",
    "address": "서울특별시 중구 을지로 238 (을지로6가)",
    "phone": "",
    "latitude": "37.5663519553",
    "longitude": "127.0043936669",
    "image": "http://tong.visitkorea.or.kr/cms/resource/20/3337220_image2_1.jpg",
    "category": "관광호텔"
  },
  {
    "id": "3387114",
    "title": "노보텔 앰배서더 서울 용산",
    "address": "서울특별시 용산구 청파로20길 95 (한강로3가)",
    "phone": "",
    "latitude": "37.5320052033",
    "longitude": "126.9630345182",
    "image": "",
    "category": "관광호텔"
  },
  {
    "id": "3511808",
    "title": "노보텔 앰배서더 수원",
    "address": "경기도 수원시 팔달구 덕영대로 902 (매산로1가)",
    "phone": "",
    "latitude": "37.2685364102",
    "longitude": "126.9991164145",
    "image": "http://tong.visitkorea.or.kr/cms/resource/74/3511774_image2_1.jpg",
    "category": "관광호텔"
  },
  {
    "id": "2701043",
    "title": "노블 스테이 (Noble Stay)",
    "address": "광주광역시 광산구 임방울대로826번길 19-7",
    "phone": "062-445-7700",
    "latitude": "35.2168158192",
    "longitude": "126.8493230352",
    "image": "http://tong.visitkorea.or.kr/cms/resource/64/2698364_image2_1.jpg",
    "category": "관광호텔"
  },
  {
    "id": "2912307",
    "title": "노블리온 호텔",
    "address": "경상북도 포항시 남구 희망대로659번길 20 (대잠동)",
    "phone": "",
    "latitude": "36.0123513036",
    "longitude": "129.3470008960",
    "image": "http://tong.visitkorea.or.kr/cms/resource/03/2912303_image2_1.jpg",
    "category": "관광호텔"
  },
  {
    "id": "1871430",
    "title": "논산 백일헌 종택",
    "address": "충청남도 논산시 상월면 주곡길 45",
    "phone": "041-736-4166",
    "latitude": "36.2791002222",
    "longitude": "127.1516797155",
    "image": "",
    "category": "관광호텔"
  },
  {
    "id": "3469435",
    "title": "뉴그랜드호텔",
    "address": "경상남도 진주시 에나로 97 (충무공동)",
    "phone": "010-5778-8364",
    "latitude": "35.1778203786",
    "longitude": "128.1399936864",
    "image": "",
    "category": "관광호텔"
  },
  {
    "id": "142819",
    "title": "뉴동해 관광호텔",
    "address": "강원특별자치도 동해시 평릉길 1 (천곡동)",
    "phone": "033-533-9215",
    "latitude": "37.5267931319",
    "longitude": "129.1034078728",
    "image": "http://tong.visitkorea.or.kr/cms/resource/60/3013660_image2_1.jpg",
    "category": "관광호텔"
  },
  {
    "id": "2804300",
    "title": "뉴라온스테이",
    "address": "경상남도 진주시 영천강로 166 라온 스테이 인 페를라 2차",
    "phone": "055-751-1111",
    "latitude": "35.1784675200",
    "longitude": "128.1395409315",
    "image": "http://tong.visitkorea.or.kr/cms/resource/94/2803194_image2_1.jpg",
    "category": "관광호텔"
  },
  {
    "id": "143065",
    "title": "뉴베라관광호텔",
    "address": "충청북도 청주시 흥덕구 풍년로193번길 32",
    "phone": "043-235-8181",
    "latitude": "36.6280151794",
    "longitude": "127.4301591727",
    "image": "http://tong.visitkorea.or.kr/cms/resource/59/1597159_image2_1.jpg",
    "category": "관광호텔"
  },
  {
    "id": "142740",
    "title": "뉴서울호텔",
    "address": "서울특별시 중구 세종대로22길 16",
    "phone": "02-735-8800",
    "latitude": "37.5679762959",
    "longitude": "126.9781960083",
    "image": "http://tong.visitkorea.or.kr/cms/resource/37/2534437_image2_1.jpg",
    "category": "관광호텔"
  },
  {
    "id": "142763",
    "title": "뉴천지호텔",
    "address": "서울특별시 중구 을지로38길 20",
    "phone": "02-2265-6131",
    "latitude": "37.5658881006",
    "longitude": "127.0033243330",
    "image": "http://tong.visitkorea.or.kr/cms/resource/07/1371507_image2_1.jpg",
    "category": "관광호텔"
  },
  {
    "id": "1037300",
    "title": "다우리조텔[한국관광 품질인증/Korea Quality]",
    "address": "강원특별자치도 강릉시 강동면 정동등명길 43",
    "phone": "033-644-1771",
    "latitude": "37.7044625619",
    "longitude": "129.0148492225",
    "image": "http://tong.visitkorea.or.kr/cms/resource/17/2574517_image2_1.jpg",
    "category": "관광호텔"
  },
  {
    "id": "2918447",
    "title": "다인오세아노 호텔",
    "address": "제주특별자치도 제주시 애월읍 애월해안로 394",
    "phone": "",
    "latitude": "33.4725306183",
    "longitude": "126.3504804724",
    "image": "http://tong.visitkorea.or.kr/cms/resource/75/2877375_image2_1.jpg",
    "category": "관광호텔"
  },
  {
    "id": "142985",
    "title": "단양관광호텔",
    "address": "충청북도 단양군 단양읍 삼봉로 31",
    "phone": "043-423-7070",
    "latitude": "36.9820885696",
    "longitude": "128.3481446390",
    "image": "http://tong.visitkorea.or.kr/cms/resource/37/1595337_image2_1.jpg",
    "category": "관광호텔"
  },
  {
    "id": "2697421",
    "title": "달빛미소",
    "address": "전라남도 강진군 성전면 달빛한옥길 49",
    "phone": "",
    "latitude": "34.7405256433",
    "longitude": "126.7179158487",
    "image": "",
    "category": "관광호텔"
  },
  {
    "id": "3076467",
    "title": "담모라 호텔앤리조트",
    "address": "제주특별자치도 서귀포시 안덕면 일주서로 1975-11",
    "phone": "",
    "latitude": "33.2497489991",
    "longitude": "126.3060420916",
    "image": "http://tong.visitkorea.or.kr/cms/resource/94/3526494_image2_1.jpg",
    "category": "관광호텔"
  },
  {
    "id": "1937446",
    "title": "당진호텔",
    "address": "충청남도 당진시 송악읍 반촌로 192",
    "phone": "041-356-5757",
    "latitude": "36.9020874156",
    "longitude": "126.7014201395",
    "image": "",
    "category": "관광호텔"
  },
  {
    "id": "2721572",
    "title": "대구 메리어트 호텔",
    "address": "대구광역시 동구 동부로26길 6 (신천동)",
    "phone": "",
    "latitude": "35.8753644169",
    "longitude": "128.6276707967",
    "image": "http://tong.visitkorea.or.kr/cms/resource/53/2721553_image2_1.jpg",
    "category": "관광호텔"
  },
  {
    "id": "3483254",
    "title": "대구 수성 더 아르코 호텔 라이온즈파크점",
    "address": "대구광역시 수성구 알파시티1로40길 6 (대흥동)",
    "phone": "",
    "latitude": "35.8371114220",
    "longitude": "128.6823003874",
    "image": "http://tong.visitkorea.or.kr/cms/resource/40/3483340_image2_1.jpg",
    "category": "관광호텔"
  },
  {
    "id": "142884",
    "title": "대구그랜드호텔",
    "address": "대구광역시 수성구 동대구로 305",
    "phone": "053-742-0001",
    "latitude": "35.8576997042",
    "longitude": "128.6251881746",
    "image": "http://tong.visitkorea.or.kr/cms/resource/98/3569298_image2_1.jpg",
    "category": "관광호텔"
  },
  {
    "id": "142942",
    "title": "대둔산호텔",
    "address": "전북특별자치도 완주군 운주면 대둔산공원길 37",
    "phone": "063-263-1260~3",
    "latitude": "36.1162303106",
    "longitude": "127.3307375181",
    "image": "",
    "category": "관광호텔"
  },
  {
    "id": "2861312",
    "title": "대부도관광호텔마리나",
    "address": "경기도 안산시 단원구 사근여길 5 (대부북동)",
    "phone": "",
    "latitude": "37.2855963470",
    "longitude": "126.5731130027",
    "image": "",
    "category": "관광호텔"
  },
  {
    "id": "3075774",
    "title": "대전나무호텔",
    "address": "대전광역시 유성구 온천서로 30-6 (봉명동)",
    "phone": "",
    "latitude": "36.3568057720",
    "longitude": "127.3404801717",
    "image": "",
    "category": "관광호텔"
  },
  {
    "id": "2913368",
    "title": "대전라마다호텔",
    "address": "대전광역시 유성구 계룡로 127 (봉명동)",
    "phone": "",
    "latitude": "36.3532395885",
    "longitude": "127.3447160004",
    "image": "http://tong.visitkorea.or.kr/cms/resource/61/2913361_image2_1.jpg",
    "category": "관광호텔"
  },
  {
    "id": "2905374",
    "title": "더 마크 호텔",
    "address": "충청북도 청주시 흥덕구 가로수로1164번길 41-34 (강서동)",
    "phone": "",
    "latitude": "36.6256848648",
    "longitude": "127.4286732595",
    "image": "http://tong.visitkorea.or.kr/cms/resource/56/2905356_image2_1.jpg",
    "category": "관광호텔"
  },
  {
    "id": "2596750",
    "title": "더 비에스 호텔",
    "address": "부산광역시 동구 중앙대로236번길 7-11 (초량동)",
    "phone": "051-466-8400",
    "latitude": "35.1186044863",
    "longitude": "129.0426359082",
    "image": "http://tong.visitkorea.or.kr/cms/resource/55/2595455_image2_1.jpg",
    "category": "관광호텔"
  },
  {
    "id": "2531355",
    "title": "더 세리 리조트",
    "address": "제주특별자치도 서귀포시 법환상로2번길 97-17 (법환동)",
    "phone": "064-739-9966",
    "latitude": "33.2470442084",
    "longitude": "126.5120270623",
    "image": "http://tong.visitkorea.or.kr/cms/resource/84/2529184_image2_1.jpg",
    "category": "관광호텔"
  },
  {
    "id": "1871302",
    "title": "더 스테이호텔",
    "address": "경기도 가평군 가평읍 보납로 73",
    "phone": "031-581-5711",
    "latitude": "37.8319693258",
    "longitude": "127.5187446955",
    "image": "http://tong.visitkorea.or.kr/cms/resource/39/2993039_image2_1.jpg",
    "category": "관광호텔"
  },
  {
    "id": "143006",
    "title": "더 케이 호텔 경주",
    "address": "경상북도 경주시 엑스포로 45",
    "phone": "054-745-8100",
    "latitude": "35.8396308748",
    "longitude": "129.2917023695",
    "image": "http://tong.visitkorea.or.kr/cms/resource/46/1337346_image2_1.jpg",
    "category": "관광호텔"
  },
  {
    "id": "142725",
    "title": "더 플라자 호텔 서울",
    "address": "서울특별시 중구 소공로 119",
    "phone": "02-771-2200",
    "latitude": "37.5646794550",
    "longitude": "126.9780822232",
    "image": "http://tong.visitkorea.or.kr/cms/resource/26/3556826_image2_1.jpg",
    "category": "관광호텔"
  },
  {
    "id": "3082568",
    "title": "더낙산호텔",
    "address": "강원특별자치도 양양군 강현면 해맞이길 18",
    "phone": "",
    "latitude": "38.1198458197",
    "longitude": "128.6312015196",
    "image": "http://tong.visitkorea.or.kr/cms/resource/60/3082560_image2_1.jpg",
    "category": "관광호텔"
  },
  {
    "id": "3044528",
    "title": "더로얄호텔",
    "address": "경상남도 고성군 회화면 남해안대로 4146-10",
    "phone": "055-674-2299",
    "latitude": "35.0949923770",
    "longitude": "128.3840217453",
    "image": "",
    "category": "관광호텔"
  },
  {
    "id": "984650",
    "title": "더리버사이드 호텔",
    "address": "서울특별시 서초구 강남대로107길 6",
    "phone": "02-6710-1100",
    "latitude": "37.5187882827",
    "longitude": "127.0180965434",
    "image": "http://tong.visitkorea.or.kr/cms/resource/62/2503562_image2_1.jpg",
    "category": "관광호텔"
  },
  {
    "id": "3076176",
    "title": "더리센츠호텔 동대문",
    "address": "서울특별시 동대문구 천호대로 383 (장안동)",
    "phone": "",
    "latitude": "37.5623478944",
    "longitude": "127.0616663412",
    "image": "http://tong.visitkorea.or.kr/cms/resource/61/3534061_image2_1.jpg",
    "category": "관광호텔"
  },
  {
    "id": "2783770",
    "title": "더메이호텔",
    "address": "전북특별자치도 전주시 덕진구 기린대로 800 (팔복동1가)",
    "phone": "",
    "latitude": "35.8598887519",
    "longitude": "127.0957069152",
    "image": "http://tong.visitkorea.or.kr/cms/resource/91/2783791_image2_1.jpg",
    "category": "관광호텔"
  },
  {
    "id": "3545271",
    "title": "더베네치아스위트",
    "address": "강원특별자치도 춘천시 효자로 136 (효자동)",
    "phone": "",
    "latitude": "37.8746794828",
    "longitude": "127.7350792903",
    "image": "http://tong.visitkorea.or.kr/cms/resource/42/3545242_image2_1.jpg",
    "category": "관광호텔"
  },
  {
    "id": "142839",
    "title": "더베이스",
    "address": "충청북도 충주시 호암대로 8",
    "phone": "043-848-9900",
    "latitude": "36.9590806079",
    "longitude": "127.9268136349",
    "image": "http://tong.visitkorea.or.kr/cms/resource/27/1848227_image2_1.jpg",
    "category": "관광호텔"
  },
  {
    "id": "2595938",
    "title": "더뷰티호텔",
    "address": "강원특별자치도 강릉시 옥천로62번길 19",
    "phone": "",
    "latitude": "37.7615120471",
    "longitude": "128.8995078373",
    "image": "http://tong.visitkorea.or.kr/cms/resource/02/2596102_image2_1.jpg",
    "category": "관광호텔"
  },
  {
    "id": "3339599",
    "title": "더블트리 바이 힐튼 서울 판교",
    "address": "경기도 성남시 분당구 백현로 26 (정자동)",
    "phone": "",
    "latitude": "37.3803753356",
    "longitude": "127.1043509430",
    "image": "http://tong.visitkorea.or.kr/cms/resource/68/3341868_image2_1.jpg",
    "category": "관광호텔"
  },
  {
    "id": "3341885",
    "title": "더블트리 바이 힐튼 서울 판교 레지던스",
    "address": "경기도 성남시 분당구 백현로 26 (정자동)",
    "phone": "",
    "latitude": "37.3803753356",
    "longitude": "127.1043509430",
    "image": "http://tong.visitkorea.or.kr/cms/resource/68/3341868_image2_1.jpg",
    "category": "관광호텔"
  },
  {
    "id": "3090896",
    "title": "더스테이센추리호텔",
    "address": "제주특별자치도 제주시 애월읍 일주서로 7113",
    "phone": "",
    "latitude": "33.4848968405",
    "longitude": "126.4089334423",
    "image": "http://tong.visitkorea.or.kr/cms/resource/69/3562969_image2_1.JPG",
    "category": "관광호텔"
  },
  {
    "id": "2804265",
    "title": "더잭슨나인스호텔",
    "address": "강원특별자치도 춘천시 중앙로 193 더잭슨나인스호텔",
    "phone": "033-253-0000",
    "latitude": "37.8738097495",
    "longitude": "127.7141506657",
    "image": "http://tong.visitkorea.or.kr/cms/resource/21/2803021_image2_1.jpg",
    "category": "관광호텔"
  },
  {
    "id": "3401777",
    "title": "더케이호텔경주",
    "address": "경상북도 경주시 엑스포로 45 (신평동)",
    "phone": "",
    "latitude": "35.8370478188",
    "longitude": "129.2909580639",
    "image": "",
    "category": "관광호텔"
  },
  {
    "id": "3079888",
    "title": "더클래식호텔",
    "address": "전북특별자치도 완주군 이서면 오공로 21-19",
    "phone": "",
    "latitude": "35.8375211961",
    "longitude": "127.0577331035",
    "image": "",
    "category": "관광호텔"
  },
  {
    "id": "2528110",
    "title": "더퍼스트스테이 호텔",
    "address": "서울특별시 강서구 마곡동로4길 23 (마곡동)",
    "phone": "02-2600-8300",
    "latitude": "37.5596969407",
    "longitude": "126.8362119654",
    "image": "http://tong.visitkorea.or.kr/cms/resource/64/2529164_image2_1.jpg",
    "category": "관광호텔"
  },
  {
    "id": "3083920",
    "title": "더홍씨호텔 강릉",
    "address": "강원특별자치도 강릉시 교동광장로100번길 8 (교동)",
    "phone": "",
    "latitude": "37.7654611398",
    "longitude": "128.8763847983",
    "image": "http://tong.visitkorea.or.kr/cms/resource/17/3083917_image2_1.jpg",
    "category": "관광호텔"
  },
  {
    "id": "2759294",
    "title": "더화이트호텔",
    "address": "강원특별자치도 평창군 봉평면 태기로 228-95",
    "phone": "",
    "latitude": "37.5768141828",
    "longitude": "128.3333172901",
    "image": "http://tong.visitkorea.or.kr/cms/resource/92/2763192_image2_1.jpg",
    "category": "관광호텔"
  },
  {
    "id": "2594495",
    "title": "데이나이스호텔",
    "address": "충청남도 보령시 해수욕장8길 60",
    "phone": "",
    "latitude": "36.3125908818",
    "longitude": "126.5129250330",
    "image": "http://tong.visitkorea.or.kr/cms/resource/96/3544696_image2_1.jpg",
    "category": "관광호텔"
  },
  {
    "id": "2594928",
    "title": "데이즈호텔 앤 스위트 인천에어포트",
    "address": "인천광역시 중구 신도시남로142번길 6 (운서동)",
    "phone": "",
    "latitude": "37.4934735467",
    "longitude": "126.4915008349",
    "image": "http://tong.visitkorea.or.kr/cms/resource/99/2594899_image2_1.jpg",
    "category": "관광호텔"
  },
  {
    "id": "2918709",
    "title": "도노 1796 호텔",
    "address": "경기도 수원시 팔달구 신풍로 68 (장안동)",
    "phone": "",
    "latitude": "37.2870817480",
    "longitude": "127.0138784451",
    "image": "",
    "category": "관광호텔"
  },
  {
    "id": "3469446",
    "title": "돈키호텔",
    "address": "인천광역시 중구 우현로9번길 36 (사동)",
    "phone": "010-2663-0098",
    "latitude": "37.4695120175",
    "longitude": "126.6252170673",
    "image": "",
    "category": "관광호텔"
  },
  {
    "id": "1917811",
    "title": "동경호텔",
    "address": "경상남도 통영시 광도면 죽림5로 43",
    "phone": "055-641-1020",
    "latitude": "34.8854859532",
    "longitude": "128.4206990848",
    "image": "",
    "category": "관광호텔"
  },
  {
    "id": "2595021",
    "title": "동락원",
    "address": "전북특별자치도 전주시 완산구 은행로 33-6",
    "phone": "010-4951-9300",
    "latitude": "35.8168613026",
    "longitude": "127.1526585258",
    "image": "http://tong.visitkorea.or.kr/cms/resource/16/2595016_image2_1.jpg",
    "category": "관광호텔"
  },
  {
    "id": "1365352",
    "title": "동방관광호텔",
    "address": "경상남도 진주시 논개길 103",
    "phone": "055-760-1700",
    "latitude": "35.1934399618",
    "longitude": "128.0903837349",
    "image": "",
    "category": "관광호텔"
  },
  {
    "id": "142719",
    "title": "동서울 관광호텔",
    "address": "서울특별시 광진구 구의강변로 38",
    "phone": "02-455-1100",
    "latitude": "37.5342239288",
    "longitude": "127.0919227187",
    "image": "",
    "category": "관광호텔"
  },
  {
    "id": "3542939",
    "title": "동아호텔",
    "address": "강원특별자치도 강릉시 경강로 2080 (임당동)",
    "phone": "",
    "latitude": "37.7538267363",
    "longitude": "128.8949695949",
    "image": "",
    "category": "관광호텔"
  },
  {
    "id": "2481151",
    "title": "동해현진관광호텔",
    "address": "강원특별자치도 동해시 동굴로 125-3",
    "phone": "033-539-2000",
    "latitude": "37.5198414353",
    "longitude": "129.1177234705",
    "image": "",
    "category": "관광호텔"
  },
  {
    "id": "2595647",
    "title": "두바이호텔",
    "address": "광주광역시 서구 상무번영로 47 (치평동)",
    "phone": "062-370-0700, 010-5094-1400",
    "latitude": "35.1541368479",
    "longitude": "126.8527548561",
    "image": "http://tong.visitkorea.or.kr/cms/resource/02/2637802_image2_1.jpg",
    "category": "관광호텔"
  },
  {
    "id": "142814",
    "title": "드래곤밸리 호텔",
    "address": "강원특별자치도 평창군 대관령면 올림픽로 715",
    "phone": "033-330-7111",
    "latitude": "37.6509988422",
    "longitude": "128.7055814809",
    "image": "http://tong.visitkorea.or.kr/cms/resource/58/2763758_image2_1.jpg",
    "category": "관광호텔"
  },
  {
    "id": "1801311",
    "title": "드어반관광호텔",
    "address": "서울특별시 강서구 곰달래로24길 35",
    "phone": "0507-1418-6393",
    "latitude": "37.5290562581",
    "longitude": "126.8473923624",
    "image": "",
    "category": "관광호텔"
  },
  {
    "id": "3044532",
    "title": "디바인호텔",
    "address": "광주광역시 동구 양림로119번길 5 (학동)",
    "phone": "062-250-0700",
    "latitude": "35.1402867746",
    "longitude": "126.9203158958",
    "image": "http://tong.visitkorea.or.kr/cms/resource/98/3054398_image2_1.jpg",
    "category": "관광호텔"
  },
  {
    "id": "3031466",
    "title": "디아넥스호텔",
    "address": "제주특별자치도 서귀포시 안덕면 산록남로762번길 71",
    "phone": "",
    "latitude": "33.3030666935",
    "longitude": "126.3926444971",
    "image": "http://tong.visitkorea.or.kr/cms/resource/03/3571403_image2_1.jpg",
    "category": "관광호텔"
  },
  {
    "id": "2504658",
    "title": "딜라이트 호텔",
    "address": "서울특별시 송파구 오금로11길 21-9 (방이동)",
    "phone": "",
    "latitude": "37.5154403121",
    "longitude": "127.1093272239",
    "image": "http://tong.visitkorea.or.kr/cms/resource/07/3565907_image2_1.png",
    "category": "관광호텔"
  },
  {
    "id": "2847311",
    "title": "라까사호텔 광명",
    "address": "경기도 광명시 일직로12번길 22 (일직동)",
    "phone": "",
    "latitude": "37.4212860577",
    "longitude": "126.8819922336",
    "image": "",
    "category": "관광호텔"
  },
  {
    "id": "2593672",
    "title": "라르고빌리조트(웨이브하우스, 가든하우스)",
    "address": "인천광역시 강화군 해안남로2845번길 27 라르고빌리조트",
    "phone": "",
    "latitude": "37.6409018417",
    "longitude": "126.3909948401",
    "image": "http://tong.visitkorea.or.kr/cms/resource/38/2594738_image2_1.jpg",
    "category": "관광호텔"
  },
  {
    "id": "2569565",
    "title": "라마다 군산호텔",
    "address": "전북특별자치도 군산시 대학로 400",
    "phone": "",
    "latitude": "35.9589621493",
    "longitude": "126.6901516474",
    "image": "",
    "category": "관광호텔"
  },
  {
    "id": "2772398",
    "title": "라마다 바이 윈덤 구미 호텔",
    "address": "경상북도 구미시 인동중앙로3길 41 라마다 구미 호텔",
    "phone": "054-479-9080",
    "latitude": "36.1099172890",
    "longitude": "128.4183521711",
    "image": "http://tong.visitkorea.or.kr/cms/resource/03/2811903_image2_1.jpg",
    "category": "관광호텔"
  },
  {
    "id": "3049260",
    "title": "라마다 스위츠 거제",
    "address": "경상남도 거제시 일운면 거제대로 2631",
    "phone": "",
    "latitude": "34.8403376748",
    "longitude": "128.6994093553",
    "image": "http://tong.visitkorea.or.kr/cms/resource/10/3058010_image2_1.jpg",
    "category": "관광호텔"
  },
  {
    "id": "2708334",
    "title": "라마다 호텔앤스위트 서울남대문",
    "address": "서울특별시 중구 칠패로 27",
    "phone": "070-7730-9502",
    "latitude": "37.5599882243",
    "longitude": "126.9720106869",
    "image": "http://tong.visitkorea.or.kr/cms/resource/55/2707755_image2_1.jpg",
    "category": "관광호텔"
  },
  {
    "id": "2907277",
    "title": "라마다속초호텔",
    "address": "강원특별자치도 속초시 대포항희망길 106 (대포동)",
    "phone": "",
    "latitude": "38.1742974102",
    "longitude": "128.6101517316",
    "image": "http://tong.visitkorea.or.kr/cms/resource/63/2907263_image2_1.jpg",
    "category": "관광호텔"
  },
  {
    "id": "142801",
    "title": "라마다송도호텔",
    "address": "인천광역시 연수구 능허대로267번길 29",
    "phone": "032-832-2000",
    "latitude": "37.4142550819",
    "longitude": "126.6554241786",
    "image": "http://tong.visitkorea.or.kr/cms/resource/75/1577575_image2_1.jpg",
    "category": "관광호텔"
  },
  {
    "id": "2874683",
    "title": "라마다앙코르 바이윈덤 김포한강호텔",
    "address": "경기도 김포시 고촌읍 아라육로152번길 169",
    "phone": "",
    "latitude": "37.6013634210",
    "longitude": "126.7859014954",
    "image": "http://tong.visitkorea.or.kr/cms/resource/76/2874676_image2_1.jpg",
    "category": "관광호텔"
  },
  {
    "id": "3079939",
    "title": "라마다제주함덕호텔",
    "address": "제주특별자치도 제주시 조천읍 신북로 470",
    "phone": "",
    "latitude": "33.5431805011",
    "longitude": "126.6598853028",
    "image": "",
    "category": "관광호텔"
  },
  {
    "id": "701870",
    "title": "라마다프라자 광주호텔",
    "address": "광주광역시 서구 상무자유로 149",
    "phone": "062-717-7000",
    "latitude": "35.1520675999",
    "longitude": "126.8505745449",
    "image": "http://tong.visitkorea.or.kr/cms/resource/94/1587894_image2_1.jpg",
    "category": "관광호텔"
  },
  {
    "id": "2708659",
    "title": "라마다프라자 바이윈덤 여수",
    "address": "전라남도 여수시 돌산읍 강남로 11",
    "phone": "061-642-0000",
    "latitude": "34.7170457484",
    "longitude": "127.7482982400",
    "image": "http://tong.visitkorea.or.kr/cms/resource/05/2709005_image2_1.jpg",
    "category": "관광호텔"
  },
  {
    "id": "971242",
    "title": "라마다프라자 수원호텔",
    "address": "경기도 수원시 팔달구 중부대로 150",
    "phone": "031-230-0001",
    "latitude": "37.2777887112",
    "longitude": "127.0324436868",
    "image": "http://tong.visitkorea.or.kr/cms/resource/82/2431282_image2_1.jpg",
    "category": "관광호텔"
  },
  {
    "id": "3403857",
    "title": "라마다프라자호텔 자은도",
    "address": "전라남도 신안군 자은면 자은서부1길 163-101",
    "phone": "",
    "latitude": "34.8502605348",
    "longitude": "126.0407758115",
    "image": "http://tong.visitkorea.or.kr/cms/resource/13/3403813_image2_1.jpg",
    "category": "관광호텔"
  },
  {
    "id": "3425575",
    "title": "라마다플라자 충장호텔",
    "address": "광주광역시 동구 천변우로 369 (호남동)",
    "phone": "",
    "latitude": "35.1478052258",
    "longitude": "126.9117803505",
    "image": "http://tong.visitkorea.or.kr/cms/resource/30/3425430_image2_1.jpg",
    "category": "관광호텔"
  },
  {
    "id": "1503517",
    "title": "라마다호텔 동대문",
    "address": "서울특별시 중구 동호로 354",
    "phone": "02-2276-3500",
    "latitude": "37.5659630830",
    "longitude": "127.0028215990",
    "image": "",
    "category": "관광호텔"
  },
  {
    "id": "2757631",
    "title": "라마다호텔&스위트평창",
    "address": "강원특별자치도 평창군 대관령면 오목길 107",
    "phone": "033-333-1000",
    "latitude": "37.6595036538",
    "longitude": "128.7179634388",
    "image": "http://tong.visitkorea.or.kr/cms/resource/65/2762765_image2_1.jpg",
    "category": "관광호텔"
  },
  {
    "id": "142861",
    "title": "라메르호텔",
    "address": "부산광역시 동구 조방로34번길 9",
    "phone": "051-634-3001",
    "latitude": "35.1405246178",
    "longitude": "129.0623197090",
    "image": "",
    "category": "관광호텔"
  },
  {
    "id": "2708673",
    "title": "라발스호텔",
    "address": "부산광역시 영도구 봉래나루로 82",
    "phone": "051-790-1500",
    "latitude": "35.0945543359",
    "longitude": "129.0391368689",
    "image": "http://tong.visitkorea.or.kr/cms/resource/51/2709251_image2_1.jpg",
    "category": "관광호텔"
  },
  {
    "id": "2576326",
    "title": "라베르 관광호텔",
    "address": "경상남도 통영시 도남로 257-21",
    "phone": "055-646-8807, 010-5343-5598",
    "latitude": "34.8290146978",
    "longitude": "128.4322384535",
    "image": "",
    "category": "관광호텔"
  },
  {
    "id": "2708705",
    "title": "라비드아틀란호텔2",
    "address": "부산광역시 해운대구 구남로 37",
    "phone": "051-742-0700",
    "latitude": "35.1611685856",
    "longitude": "129.1615188489",
    "image": "http://tong.visitkorea.or.kr/cms/resource/53/2709453_image2_1.jpg",
    "category": "관광호텔"
  },
  {
    "id": "2905416",
    "title": "라이즈오토그래프컬렉션",
    "address": "서울특별시 마포구 양화로 130 (서교동)",
    "phone": "",
    "latitude": "37.5543879654",
    "longitude": "126.9212210297",
    "image": "http://tong.visitkorea.or.kr/cms/resource/98/2905398_image2_1.jpg",
    "category": "관광호텔"
  },
  {
    "id": "3044318",
    "title": "라이크호텔",
    "address": "광주광역시 동구 무등로321번길 20-5 (계림동)",
    "phone": "010-4092-3652",
    "latitude": "35.1637924342",
    "longitude": "126.9191431883",
    "image": "",
    "category": "관광호텔"
  },
  {
    "id": "2399572",
    "title": "라임호텔",
    "address": "전북특별자치도 전주시 덕진구 아중4길 13-3",
    "phone": "063-241-8300",
    "latitude": "35.8331653376",
    "longitude": "127.1718952761",
    "image": "http://tong.visitkorea.or.kr/cms/resource/15/2399415_image2_1.JPG",
    "category": "관광호텔"
  },
  {
    "id": "3091337",
    "title": "라트리호텔",
    "address": "경기도 의정부시 청사로6번길 19-13 (신곡동)",
    "phone": "",
    "latitude": "37.7498540505",
    "longitude": "127.0720072667",
    "image": "http://tong.visitkorea.or.kr/cms/resource/30/3091330_image2_1.JPG",
    "category": "관광호텔"
  },
  {
    "id": "3337718",
    "title": "라한셀렉트 경주",
    "address": "경상북도 경주시 보문로 338 (신평동)",
    "phone": "",
    "latitude": "35.8496156116",
    "longitude": "129.2786198974",
    "image": "http://tong.visitkorea.or.kr/cms/resource/06/3337706_image2_1.jpg",
    "category": "관광호텔"
  },
  {
    "id": "2945609",
    "title": "라한호텔 전주",
    "address": "전북특별자치도 전주시 완산구 풍남동3가 26-5 라한호텔 전주",
    "phone": "",
    "latitude": "35.8170751920",
    "longitude": "127.1540833932",
    "image": "http://tong.visitkorea.or.kr/cms/resource/68/3347368_image2_1.jpeg",
    "category": "관광호텔"
  },
  {
    "id": "2010024",
    "title": "라한호텔 포항",
    "address": "경상북도 포항시 북구 삼호로265번길 1",
    "phone": "054-230-7000, 7003",
    "latitude": "36.0645459792",
    "longitude": "129.3773689438",
    "image": "http://tong.visitkorea.or.kr/cms/resource/27/3533627_image2_1.jpg",
    "category": "관광호텔"
  },
  {
    "id": "2700971",
    "title": "락고재 서울 북촌 한옥호텔",
    "address": "서울특별시 종로구 계동길 49-23",
    "phone": "02-742-3410",
    "latitude": "37.5801833520",
    "longitude": "126.9860754996",
    "image": "",
    "category": "관광호텔"
  },
  {
    "id": "3579868",
    "title": "락고재 하회한옥호텔 기와본관",
    "address": "경상북도 안동시 풍천면 전서로 186-20",
    "phone": "",
    "latitude": "36.5514718044",
    "longitude": "128.5278716111",
    "image": "http://tong.visitkorea.or.kr/cms/resource/45/3579745_image2_1.png",
    "category": "관광호텔"
  },
  {
    "id": "2561880",
    "title": "랜딩관 제주신화월드 호텔 앤 리조트",
    "address": "제주특별자치도 서귀포시 안덕면 신화역사로304번길 38",
    "phone": "1670-8800",
    "latitude": "33.3072595277",
    "longitude": "126.3197479556",
    "image": "http://tong.visitkorea.or.kr/cms/resource/61/2561861_image2_1.jpg",
    "category": "관광호텔"
  },
  {
    "id": "2586384",
    "title": "레스케이프 호텔(L’Escape Hotel)",
    "address": "서울특별시 중구 퇴계로 67",
    "phone": "02-317-4000",
    "latitude": "37.5597189467",
    "longitude": "126.9795572285",
    "image": "http://tong.visitkorea.or.kr/cms/resource/20/2821120_image2_1.jpg",
    "category": "관광호텔"
  },
  {
    "id": "2894945",
    "title": "레스트호텔",
    "address": "경기도 김포시 태장로795번길 151",
    "phone": "",
    "latitude": "37.6399821341",
    "longitude": "126.6851123961",
    "image": "http://tong.visitkorea.or.kr/cms/resource/31/2894931_image2_1.JPG",
    "category": "관광호텔"
  },
  {
    "id": "143060",
    "title": "레이크힐스 호텔 속리산",
    "address": "충청북도 보은군 속리산면 법주사로 305",
    "phone": "043-542-5281",
    "latitude": "36.5345469134",
    "longitude": "127.8257652280",
    "image": "http://tong.visitkorea.or.kr/cms/resource/94/1595394_image2_1.jpg",
    "category": "관광호텔"
  },
  {
    "id": "3080539",
    "title": "렉스관광호텔",
    "address": "서울특별시 강남구 강남대로 588 (논현동)",
    "phone": "",
    "latitude": "37.5144221668",
    "longitude": "127.0205464440",
    "image": "http://tong.visitkorea.or.kr/cms/resource/35/3080535_image2_1.JPG",
    "category": "관광호텔"
  },
  {
    "id": "142979",
    "title": "렉스호텔",
    "address": "서울특별시 중구 퇴계로10길 23",
    "phone": "02-752-3191",
    "latitude": "37.5587135331",
    "longitude": "126.9809682400",
    "image": "",
    "category": "관광호텔"
  },
  {
    "id": "3469415",
    "title": "로얄엠포리움호텔",
    "address": "인천광역시 중구 은하수로 35 (중산동)",
    "phone": "032-752-5996",
    "latitude": "37.4918752573",
    "longitude": "126.5782901754",
    "image": "",
    "category": "관광호텔"
  },
  {
    "id": "142723",
    "title": "로얄호텔서울",
    "address": "서울특별시 중구 명동길 61 (명동1가)",
    "phone": "02-756-1112",
    "latitude": "37.5640963258",
    "longitude": "126.9857148773",
    "image": "http://tong.visitkorea.or.kr/cms/resource/50/2815050_image2_1.jpg",
    "category": "관광호텔"
  },
  {
    "id": "2522312",
    "title": "롤링힐스호텔",
    "address": "경기도 화성시 남양읍 시청로 290",
    "phone": "031-268-1000",
    "latitude": "37.1901676368",
    "longitude": "126.8387609237",
    "image": "http://tong.visitkorea.or.kr/cms/resource/67/2721267_image2_1.jpg",
    "category": "관광호텔"
  },
  {
    "id": "3465023",
    "title": "롯데리조트 부여",
    "address": "충청남도 부여군 규암면 백제문로 400",
    "phone": "041-939-1002",
    "latitude": "36.3039124464",
    "longitude": "126.9007876454",
    "image": "",
    "category": "관광호텔"
  },
  {
    "id": "2505908",
    "title": "롯데시티호텔 구로",
    "address": "서울특별시 구로구 디지털로 300",
    "phone": "02-6210-1000",
    "latitude": "37.4850844673",
    "longitude": "126.8966252225",
    "image": "http://tong.visitkorea.or.kr/cms/resource/65/2505865_image2_1.jpg",
    "category": "관광호텔"
  },
  {
    "id": "1556008",
    "title": "롯데시티호텔 김포공항",
    "address": "서울특별시 강서구 하늘길 38 (방화동)",
    "phone": "02-6116-1000",
    "latitude": "19.6944274800",
    "longitude": "117.9925662504",
    "image": "http://tong.visitkorea.or.kr/cms/resource/63/3578963_image2_1.jpg",
    "category": "관광호텔"
  },
  {
    "id": "1933910",
    "title": "롯데시티호텔 대전",
    "address": "대전광역시 유성구 엑스포로123번길 33 (도룡동)",
    "phone": "042-333-1000",
    "latitude": "36.3762378145",
    "longitude": "127.3930443863",
    "image": "http://tong.visitkorea.or.kr/cms/resource/88/3578988_image2_1.jpg",
    "category": "관광호텔"
  },
  {
    "id": "990208",
    "title": "롯데시티호텔 마포",
    "address": "서울특별시 마포구 마포대로 109",
    "phone": "02-6009-1000",
    "latitude": "37.5450590314",
    "longitude": "126.9512685547",
    "image": "http://tong.visitkorea.or.kr/cms/resource/11/1874611_image2_1.jpg",
    "category": "관광호텔"
  },
  {
    "id": "2504510",
    "title": "롯데시티호텔 명동",
    "address": "서울특별시 중구 삼일대로 362",
    "phone": "02-6112-1000",
    "latitude": "37.5669377042",
    "longitude": "126.9880590273",
    "image": "http://tong.visitkorea.or.kr/cms/resource/66/2504466_image2_1.jpg",
    "category": "관광호텔"
  },
  {
    "id": "2570790",
    "title": "롯데시티호텔 울산",
    "address": "울산광역시 남구 삼산로 204",
    "phone": "052-990-1000",
    "latitude": "35.5375767228",
    "longitude": "129.3296437331",
    "image": "",
    "category": "관광호텔"
  },
  {
    "id": "2046954",
    "title": "롯데시티호텔 제주",
    "address": "제주특별자치도 제주시 도령로 83",
    "phone": "064-730-1000",
    "latitude": "33.4906557686",
    "longitude": "126.4865515629",
    "image": "http://tong.visitkorea.or.kr/cms/resource/20/3577920_image2_1.jpg",
    "category": "관광호텔"
  },
  {
    "id": "2548198",
    "title": "롯데호텔 L7 강남",
    "address": "서울특별시 강남구 테헤란로 415",
    "phone": "02-2077-1000",
    "latitude": "37.5057681749",
    "longitude": "127.0516660784",
    "image": "http://tong.visitkorea.or.kr/cms/resource/97/2548197_image2_1.jpg",
    "category": "관광호텔"
  },
  {
    "id": "2504463",
    "title": "롯데호텔 L7 명동",
    "address": "서울특별시 중구 퇴계로 137",
    "phone": "02-6310-1000",
    "latitude": "37.5642712902",
    "longitude": "126.9848482845",
    "image": "http://tong.visitkorea.or.kr/cms/resource/48/2504448_image2_1.jpg",
    "category": "관광호텔"
  },
  {
    "id": "2907142",
    "title": "롯데호텔 L7홍대",
    "address": "서울특별시 마포구 양화로 141 롯데호텔 L7홍대",
    "phone": "",
    "latitude": "37.5558072531",
    "longitude": "126.9216848363",
    "image": "http://tong.visitkorea.or.kr/cms/resource/32/2907132_image2_1.jpg",
    "category": "관광호텔"
  },
  {
    "id": "142998",
    "title": "롯데호텔 부산",
    "address": "부산광역시 부산진구 가야대로 772 (부전동)",
    "phone": "051-810-1000",
    "latitude": "35.1573337296",
    "longitude": "129.0559892441",
    "image": "http://tong.visitkorea.or.kr/cms/resource/02/3019302_image2_1.jpg",
    "category": "관광호텔"
  },
  {
    "id": "143064",
    "title": "롯데호텔 울산",
    "address": "울산광역시 남구 삼산로 282 롯데호텔",
    "phone": "",
    "latitude": "35.5386767581",
    "longitude": "129.3380846328",
    "image": "http://tong.visitkorea.or.kr/cms/resource/68/1348068_image2_1.jpg",
    "category": "관광호텔"
  },
  {
    "id": "142766",
    "title": "롯데호텔 월드",
    "address": "서울특별시 송파구 올림픽로 240 (잠실동)",
    "phone": "",
    "latitude": "37.5123821225",
    "longitude": "127.0976311526",
    "image": "http://tong.visitkorea.or.kr/cms/resource/28/3566628_image2_1.jpeg",
    "category": "관광호텔"
  },
  {
    "id": "143025",
    "title": "롯데호텔 제주",
    "address": "제주특별자치도 서귀포시 중문관광로72번길 35",
    "phone": "064-731-1000",
    "latitude": "33.2487146442",
    "longitude": "126.4105247144",
    "image": "http://tong.visitkorea.or.kr/cms/resource/46/3538946_image2_1.jpg",
    "category": "관광호텔"
  },
  {
    "id": "142729",
    "title": "롯데호텔서울",
    "address": "서울특별시 중구 을지로 30 롯데호텔",
    "phone": "02-771-1000",
    "latitude": "37.5654016461",
    "longitude": "126.9810458210",
    "image": "http://tong.visitkorea.or.kr/cms/resource/56/2607356_image2_1.png",
    "category": "관광호텔"
  },
  {
    "id": "3497637",
    "title": "롯데호텔앤리조트 김해",
    "address": "경상남도 김해시 장유로 505 (신문동)",
    "phone": "",
    "latitude": "35.1811546012",
    "longitude": "128.8254447870",
    "image": "http://tong.visitkorea.or.kr/cms/resource/23/3497623_image2_1.jpg",
    "category": "관광호텔"
  },
  {
    "id": "2918735",
    "title": "루브호텔",
    "address": "경기도 김포시 대곶면 약암로 879",
    "phone": "",
    "latitude": "37.6324251296",
    "longitude": "126.5534690907",
    "image": "http://tong.visitkorea.or.kr/cms/resource/91/2877391_image2_1.jpg",
    "category": "관광호텔"
  },
  {
    "id": "3536362",
    "title": "루소호텔",
    "address": "강원특별자치도 강릉시 교동광장로100번길 12 (교동)",
    "phone": "",
    "latitude": "37.7659694155",
    "longitude": "128.8764708864",
    "image": "",
    "category": "관광호텔"
  },
  {
    "id": "3537703",
    "title": "루이스호텔(3성급)",
    "address": "강원특별자치도 강릉시 옥가로50번길 11-1 (옥천동)",
    "phone": "",
    "latitude": "37.7606649575",
    "longitude": "128.9013049239",
    "image": "",
    "category": "관광호텔"
  },
  {
    "id": "2902867",
    "title": "르네블루바이워커힐",
    "address": "강원특별자치도 고성군 심층수길 96",
    "phone": "",
    "latitude": "38.3322523946",
    "longitude": "128.5270043485",
    "image": "http://tong.visitkorea.or.kr/cms/resource/54/2902854_image2_1.jpg",
    "category": "관광호텔"
  },
  {
    "id": "3341540",
    "title": "르메르디앙 서울 명동",
    "address": "서울특별시 중구 명동8나길 38 (충무로1가)",
    "phone": "",
    "latitude": "37.5616882190",
    "longitude": "126.9827124411",
    "image": "http://tong.visitkorea.or.kr/cms/resource/78/3341478_image2_1.jpg",
    "category": "관광호텔"
  },
  {
    "id": "2445211",
    "title": "르본수원실크로드호텔",
    "address": "경기도 수원시 팔달구 경수대로466번길 28 (인계동)",
    "phone": "",
    "latitude": "37.2671509869",
    "longitude": "127.0286304415",
    "image": "http://tong.visitkorea.or.kr/cms/resource/48/3562948_image2_1.jpg",
    "category": "관광호텔"
  },
  {
    "id": "2544728",
    "title": "르이데아호텔",
    "address": "부산광역시 동구 중앙대로180번길 16-10 (초량동)",
    "phone": "051-441-0708",
    "latitude": "35.1121634949",
    "longitude": "129.0401307462",
    "image": "http://tong.visitkorea.or.kr/cms/resource/91/2544691_image2_1.JPG",
    "category": "관광호텔"
  },
  {
    "id": "3044557",
    "title": "리버사이드호텔",
    "address": "강원특별자치도 춘천시 신북읍 신샘밭로 745",
    "phone": "033-242-3002",
    "latitude": "37.9323738286",
    "longitude": "127.7917113070",
    "image": "http://tong.visitkorea.or.kr/cms/resource/46/3054846_image2_1.jpg",
    "category": "관광호텔"
  },
  {
    "id": "2652445",
    "title": "리버틴호텔 경주[한국관광 품질인증/Korea Quality]",
    "address": "경상북도 경주시 태종로685번길 23",
    "phone": "010-5540-4002",
    "latitude": "35.8405040944",
    "longitude": "129.2027406951",
    "image": "http://tong.visitkorea.or.kr/cms/resource/41/2652441_image2_1.jpg",
    "category": "관광호텔"
  },
  {
    "id": "142978",
    "title": "리베로호텔",
    "address": "부산광역시 해운대구 구남로29번길 21",
    "phone": "051-740-2111",
    "latitude": "35.1624489933",
    "longitude": "129.1612660580",
    "image": "http://tong.visitkorea.or.kr/cms/resource/37/3012137_image2_1.jpg",
    "category": "관광호텔"
  },
  {
    "id": "2848322",
    "title": "리브라이프 호텔",
    "address": "경기도 시흥시 중심상가1길 25 (정왕동)",
    "phone": "",
    "latitude": "37.3430619935",
    "longitude": "126.7362021268",
    "image": "",
    "category": "관광호텔"
  },
  {
    "id": "2910876",
    "title": "리센 오션파크 호텔",
    "address": "강원특별자치도 속초시 해오름로 167 (조양동)",
    "phone": "",
    "latitude": "38.1889677916",
    "longitude": "128.6032824529",
    "image": "http://tong.visitkorea.or.kr/cms/resource/56/2910856_image2_1.jpg",
    "category": "관광호텔"
  },
  {
    "id": "3075639",
    "title": "리우오션 레지던스",
    "address": "경상남도 거제시 일운면 옥림리",
    "phone": "",
    "latitude": "34.8514534601",
    "longitude": "128.7193323283",
    "image": "",
    "category": "관광호텔"
  },
  {
    "id": "3089840",
    "title": "리첼호텔",
    "address": "경상북도 안동시 관광단지로 346-69 (성곡동)",
    "phone": "",
    "latitude": "36.5680802316",
    "longitude": "128.7816208125",
    "image": "http://tong.visitkorea.or.kr/cms/resource/26/3089826_image2_1.JPG",
    "category": "관광호텔"
  },
  {
    "id": "1990929",
    "title": "리치다이아몬드호텔",
    "address": "서울특별시 강북구 삼양로 500-18",
    "phone": "02-905-9131",
    "latitude": "37.6476399283",
    "longitude": "127.0156236669",
    "image": "http://tong.visitkorea.or.kr/cms/resource/13/1990913_image2_1.jpg",
    "category": "관광호텔"
  },
  {
    "id": "2865958",
    "title": "리치스테이호텔",
    "address": "경기도 평택시 고덕중앙2로 77-6 (고덕동)",
    "phone": "",
    "latitude": "37.0458768688",
    "longitude": "127.0450712173",
    "image": "",
    "category": "관광호텔"
  },
  {
    "id": "3084957",
    "title": "리치호텔",
    "address": "제주특별자치도 제주시 애월읍 고내로13길 100",
    "phone": "",
    "latitude": "33.4720973090",
    "longitude": "126.3489500598",
    "image": "http://tong.visitkorea.or.kr/cms/resource/26/3084826_image2_1.jpg",
    "category": "관광호텔"
  },
  {
    "id": "1960922",
    "title": "마띠유호텔 여수",
    "address": "전라남도 여수시 오동도로 20",
    "phone": "061-662-3131~2",
    "latitude": "34.7451536512",
    "longitude": "127.7447783885",
    "image": "http://tong.visitkorea.or.kr/cms/resource/46/1960846_image2_1.JPG",
    "category": "관광호텔"
  },
  {
    "id": "139860",
    "title": "마레보 비치호텔",
    "address": "제주특별자치도 제주시 곽지1길 23 마레보비치호텔",
    "phone": "",
    "latitude": "33.4481853609",
    "longitude": "126.3041378290",
    "image": "http://tong.visitkorea.or.kr/cms/resource/46/3505946_image2_1.JPG",
    "category": "관광호텔"
  },
  {
    "id": "2593515",
    "title": "마루오",
    "address": "전라남도 나주시 배멧3길 5-8 (빛가람동)",
    "phone": "061-331-0700",
    "latitude": "35.0193064952",
    "longitude": "126.7857641309",
    "image": "http://tong.visitkorea.or.kr/cms/resource/90/2600690_image2_1.jpg",
    "category": "관광호텔"
  },
  {
    "id": "2849817",
    "title": "마루호텔",
    "address": "경기도 수원시 팔달구 고화로9번길 33 (매산로2가)",
    "phone": "",
    "latitude": "37.2696725176",
    "longitude": "127.0062823989",
    "image": "http://tong.visitkorea.or.kr/cms/resource/74/2849774_image2_1.jpg",
    "category": "관광호텔"
  },
  {
    "id": "3469416",
    "title": "마리호텔",
    "address": "서울특별시 강동구 양재대로111길 28 (길동)",
    "phone": "0507-1348-0942",
    "latitude": "37.5375465985",
    "longitude": "127.1381489723",
    "image": "",
    "category": "관광호텔"
  },
  {
    "id": "143103",
    "title": "마스터스관광호텔",
    "address": "광주광역시 서구 상무연하로 46",
    "phone": "062-382-7700",
    "latitude": "35.1522870190",
    "longitude": "126.8505273214",
    "image": "http://tong.visitkorea.or.kr/cms/resource/36/1371336_image2_1.jpg",
    "category": "관광호텔"
  },
  {
    "id": "2711378",
    "title": "마을호텔18번가",
    "address": "강원특별자치도 정선군 고한읍 고한2길 36",
    "phone": "070-4157-8487",
    "latitude": "37.2030227262",
    "longitude": "128.8508764495",
    "image": "http://tong.visitkorea.or.kr/cms/resource/56/2731256_image2_1.jpg",
    "category": "관광호텔"
  },
  {
    "id": "3379704",
    "title": "맹그로브 동대문",
    "address": "서울특별시 중구 퇴계로 334 (광희동2가)",
    "phone": "",
    "latitude": "37.5641772856",
    "longitude": "127.0087377770",
    "image": "http://tong.visitkorea.or.kr/cms/resource/25/3379725_image2_1.jpg",
    "category": "관광호텔"
  },
  {
    "id": "3379735",
    "title": "맹그로브 신설",
    "address": "서울특별시 동대문구 왕산로 22 (신설동)",
    "phone": "",
    "latitude": "37.5762289745",
    "longitude": "127.0260886324",
    "image": "http://tong.visitkorea.or.kr/cms/resource/36/3379736_image2_1.jpg",
    "category": "관광호텔"
  },
  {
    "id": "2917226",
    "title": "머큐어 앰배서더 서울 홍대",
    "address": "서울특별시 마포구 양화로 144 (동교동)",
    "phone": "",
    "latitude": "37.5553962029",
    "longitude": "126.9224097820",
    "image": "http://tong.visitkorea.or.kr/cms/resource/72/2916572_image2_1.jpg",
    "category": "관광호텔"
  },
  {
    "id": "3464865",
    "title": "머큐어 앰배서더 울산",
    "address": "울산광역시 북구 강동산하2로 7 (산하동)",
    "phone": "",
    "latitude": "35.6263660659",
    "longitude": "129.4410870540",
    "image": "",
    "category": "관광호텔"
  },
  {
    "id": "2852581",
    "title": "머큐어앰배서더 제주",
    "address": "제주특별자치도 서귀포시 안덕면 한창로 365",
    "phone": "",
    "latitude": "33.2926421455",
    "longitude": "126.3481791456",
    "image": "",
    "category": "관광호텔"
  },
  {
    "id": "2814170",
    "title": "메리머드호텔",
    "address": "충청남도 보령시 해수욕장8길 52",
    "phone": "041-933-3366",
    "latitude": "36.3129519486",
    "longitude": "126.5127722598",
    "image": "http://tong.visitkorea.or.kr/cms/resource/44/2811244_image2_1.jpg",
    "category": "관광호텔"
  },
  {
    "id": "1327006",
    "title": "메리어트 이그제큐티브 아파트먼트 서울 여의도",
    "address": "서울특별시 영등포구 여의대로 8 (여의도동)",
    "phone": "",
    "latitude": "37.5212667678",
    "longitude": "126.9186194232",
    "image": "http://tong.visitkorea.or.kr/cms/resource/66/3555066_image2_1.JPG",
    "category": "관광호텔"
  },
  {
    "id": "2561909",
    "title": "메리어트관 제주신화월드 호텔 앤 리조트",
    "address": "제주특별자치도 서귀포시 안덕면 신화역사로304번길 38",
    "phone": "1670-8800",
    "latitude": "33.3072595277",
    "longitude": "126.3197479556",
    "image": "http://tong.visitkorea.or.kr/cms/resource/03/2561903_image2_1.jpg",
    "category": "관광호텔"
  },
  {
    "id": "3079732",
    "title": "메리엘호텔",
    "address": "경기도 용인시 기흥구 신정로 235 (신갈동)",
    "phone": "",
    "latitude": "37.2890496733",
    "longitude": "127.0969819598",
    "image": "http://tong.visitkorea.or.kr/cms/resource/28/3079728_image2_1.jpg",
    "category": "관광호텔"
  },
  {
    "id": "2552651",
    "title": "메이플레이스 호텔 서울 동대문",
    "address": "서울특별시 종로구 율곡로 179 (원남동)",
    "phone": "",
    "latitude": "37.5761590471",
    "longitude": "126.9987605687",
    "image": "http://tong.visitkorea.or.kr/cms/resource/42/3562642_image2_1.jpg",
    "category": "관광호텔"
  },
  {
    "id": "3090853",
    "title": "메이플비치 골프&리조트",
    "address": "강원특별자치도 강릉시 강동면 염전길 255",
    "phone": "",
    "latitude": "37.7464569462",
    "longitude": "128.9758736492",
    "image": "http://tong.visitkorea.or.kr/cms/resource/45/3090845_image2_1.jpg",
    "category": "관광호텔"
  },
  {
    "id": "143066",
    "title": "메이필드호텔",
    "address": "서울특별시 강서구 방화대로21길 94",
    "phone": "02-2660-9000",
    "latitude": "37.5478813500",
    "longitude": "126.8194860451",
    "image": "http://tong.visitkorea.or.kr/cms/resource/79/3021879_image2_1.jpg",
    "category": "관광호텔"
  },
  {
    "id": "142957",
    "title": "메종 글래드 제주",
    "address": "제주특별자치도 제주시 노연로 80",
    "phone": "",
    "latitude": "33.4856341402",
    "longitude": "126.4889153601",
    "image": "http://tong.visitkorea.or.kr/cms/resource/39/3512239_image2_1.jpg",
    "category": "관광호텔"
  },
  {
    "id": "142747",
    "title": "메트로호텔",
    "address": "서울특별시 중구 명동9가길 14",
    "phone": "02-752-1112",
    "latitude": "37.5651989407",
    "longitude": "126.9837622461",
    "image": "http://tong.visitkorea.or.kr/cms/resource/24/2488124_image2_1.jpg",
    "category": "관광호텔"
  },
  {
    "id": "3469399",
    "title": "명지각",
    "address": "전북특별자치도 남원시 고샘길 57 (금동)",
    "phone": "",
    "latitude": "35.4050869382",
    "longitude": "127.3793408038",
    "image": "http://tong.visitkorea.or.kr/cms/resource/87/3469387_image2_1.jpg",
    "category": "관광호텔"
  },
  {
    "id": "3341609",
    "title": "목시 서울 명동",
    "address": "서울특별시 중구 명동8나길 38 (충무로1가)",
    "phone": "",
    "latitude": "37.5616882190",
    "longitude": "126.9827124411",
    "image": "http://tong.visitkorea.or.kr/cms/resource/76/3341576_image2_1.jpg",
    "category": "관광호텔"
  },
  {
    "id": "2019424",
    "title": "목포 마리나베이호텔",
    "address": "전라남도 목포시 해안로249번길 1",
    "phone": "061-247-9900",
    "latitude": "34.7867261261",
    "longitude": "126.3884104628",
    "image": "http://tong.visitkorea.or.kr/cms/resource/01/2019401_image2_1.JPG",
    "category": "관광호텔"
  },
  {
    "id": "143002",
    "title": "무등파크호텔",
    "address": "광주광역시 동구 지호로164번길 14-10",
    "phone": "062-226-0011, 062-221-2700",
    "latitude": "35.1487446022",
    "longitude": "126.9468605604",
    "image": "http://tong.visitkorea.or.kr/cms/resource/99/1371299_image2_1.jpg",
    "category": "관광호텔"
  },
  {
    "id": "142988",
    "title": "무주덕유산리조트 호텔티롤",
    "address": "전북특별자치도 무주군 설천면 만선로 185",
    "phone": "063-322-9000",
    "latitude": "35.8897992986",
    "longitude": "127.7313940660",
    "image": "http://tong.visitkorea.or.kr/cms/resource/88/1191188_image2_1.jpg",
    "category": "관광호텔"
  },
  {
    "id": "143126",
    "title": "문경관광호텔",
    "address": "경상북도 문경시 문경읍 새재2길 32-11",
    "phone": "054-571-8001",
    "latitude": "36.7611339103",
    "longitude": "128.0783640351",
    "image": "http://tong.visitkorea.or.kr/cms/resource/13/1068913_image2_1.jpg",
    "category": "관광호텔"
  },
  {
    "id": "2603674",
    "title": "문화공간 진",
    "address": "경상북도 경주시 동성로 83",
    "phone": "010-2717-3474",
    "latitude": "35.8465451636",
    "longitude": "129.2072456836",
    "image": "",
    "category": "관광호텔"
  },
  {
    "id": "2476860",
    "title": "밀리토피아호텔",
    "address": "경기도 성남시 수정구 위례대로 83",
    "phone": "031-727-9370",
    "latitude": "37.4678408899",
    "longitude": "127.1431282785",
    "image": "http://tong.visitkorea.or.kr/cms/resource/33/2476833_image2_1.jpg",
    "category": "관광호텔"
  },
  {
    "id": "2707453",
    "title": "바다향기",
    "address": "경상남도 통영시 광도면 죽림해안로 36",
    "phone": "055-644-0300",
    "latitude": "34.8872468645",
    "longitude": "128.4205518289",
    "image": "http://tong.visitkorea.or.kr/cms/resource/05/2709405_image2_1.jpg",
    "category": "관광호텔"
  },
  {
    "id": "398315",
    "title": "반도관광호텔",
    "address": "인천광역시 계양구 계양문화로17번길 8",
    "phone": "032-551-5959",
    "latitude": "37.5326288502",
    "longitude": "126.7353608145",
    "image": "http://tong.visitkorea.or.kr/cms/resource/51/1577351_image2_1.jpg",
    "category": "관광호텔"
  },
  {
    "id": "1045657",
    "title": "반얀트리 클럽 앤 스파 서울",
    "address": "서울특별시 중구 장충단로 60",
    "phone": "02-2250-8000",
    "latitude": "37.5501287700",
    "longitude": "127.0005250345",
    "image": "http://tong.visitkorea.or.kr/cms/resource/65/2719665_image2_1.jpg",
    "category": "관광호텔"
  },
  {
    "id": "2531514",
    "title": "백암스프링스호텔",
    "address": "경상북도 울진군 온천로 90 백암스프링스호텔",
    "phone": "054-787-3007",
    "latitude": "36.7208095949",
    "longitude": "129.3397168388",
    "image": "",
    "category": "관광호텔"
  },
  {
    "id": "142938",
    "title": "백양관광호텔",
    "address": "전라남도 장성군 북하면 백양로 941",
    "phone": "061-392-2114",
    "latitude": "35.4111304829",
    "longitude": "126.8813819635",
    "image": "http://tong.visitkorea.or.kr/cms/resource/89/1371589_image2_1.jpg",
    "category": "관광호텔"
  },
  {
    "id": "3085173",
    "title": "베니키아 JD관광호텔",
    "address": "경기도 남양주시 진접읍 해밀예당1로 50-44",
    "phone": "031-571-2266",
    "latitude": "37.7120549895",
    "longitude": "127.1875978065",
    "image": "http://tong.visitkorea.or.kr/cms/resource/58/3085158_image2_1.JPG",
    "category": "관광호텔"
  },
  {
    "id": "143118",
    "title": "베니키아 KCP호텔",
    "address": "강원특별자치도 양구군 양구읍 파로호로 993-19",
    "phone": "033-482-7700~3",
    "latitude": "38.1138840288",
    "longitude": "127.9807969534",
    "image": "",
    "category": "관광호텔"
  },
  {
    "id": "2006842",
    "title": "베니키아 노블 호텔",
    "address": "서울특별시 종로구 율곡로6길 13-3 노블호텔",
    "phone": "02-742-4025~9",
    "latitude": "37.5767449272",
    "longitude": "126.9896808239",
    "image": "",
    "category": "관광호텔"
  },
  {
    "id": "2016440",
    "title": "베니키아 센트럴 호텔",
    "address": "경상남도 통영시 광도면 춘원2로 49-20",
    "phone": "055-643-7001~2",
    "latitude": "34.9565139850",
    "longitude": "128.4135339473",
    "image": "",
    "category": "관광호텔"
  },
  {
    "id": "143008",
    "title": "베니키아 스위스로젠 호텔",
    "address": "경상북도 경주시 보문로 465-37 (신평동)",
    "phone": "",
    "latitude": "35.8405891164",
    "longitude": "129.2925689326",
    "image": "http://tong.visitkorea.or.kr/cms/resource/28/3555728_image2_1.jpg",
    "category": "관광호텔"
  },
  {
    "id": "1937524",
    "title": "베니키아 월미도 더블리스 호텔",
    "address": "인천광역시 중구 월미로 266",
    "phone": "032-764-9000",
    "latitude": "37.4726889345",
    "longitude": "126.5973223024",
    "image": "http://tong.visitkorea.or.kr/cms/resource/97/1937497_image2_1.JPG",
    "category": "관광호텔"
  },
  {
    "id": "496396",
    "title": "베니키아 전주한성 호텔",
    "address": "전북특별자치도 전주시 완산구 전주객사5길 43-3",
    "phone": "063-288-0014",
    "latitude": "35.8198802678",
    "longitude": "127.1448369202",
    "image": "http://tong.visitkorea.or.kr/cms/resource/70/3529770_image2_1.jpg",
    "category": "관광호텔"
  },
  {
    "id": "2038553",
    "title": "베니키아 중문호텔",
    "address": "제주특별자치도 서귀포시 천제연로 166",
    "phone": "064-802-8889",
    "latitude": "33.2519089231",
    "longitude": "126.4223958362",
    "image": "http://tong.visitkorea.or.kr/cms/resource/61/2038561_image2_1.jpg",
    "category": "관광호텔"
  },
  {
    "id": "1952929",
    "title": "베니키아 테크노밸리 호텔",
    "address": "대전광역시 유성구 테크노중앙로 57",
    "phone": "042-671-0500",
    "latitude": "36.4263737257",
    "longitude": "127.3921042185",
    "image": "http://tong.visitkorea.or.kr/cms/resource/09/1952909_image2_1.JPG",
    "category": "관광호텔"
  },
  {
    "id": "1772807",
    "title": "베니키아 프리미어 동해보양온천 컨벤션호텔",
    "address": "강원특별자치도 동해시 동해대로 6285 (망상동)",
    "phone": "033-530-0700",
    "latitude": "37.5927685440",
    "longitude": "129.0874100493",
    "image": "http://tong.visitkorea.or.kr/cms/resource/40/2741840_image2_1.jpg",
    "category": "관광호텔"
  },
  {
    "id": "1962921",
    "title": "베니키아 프리미어 마리안느호텔",
    "address": "부산광역시 해운대구 해운대해변로 310",
    "phone": "051-606-0600,0601",
    "latitude": "35.1615130502",
    "longitude": "129.1646880086",
    "image": "http://tong.visitkorea.or.kr/cms/resource/42/1962742_image2_1.jpg",
    "category": "관광호텔"
  },
  {
    "id": "2392458",
    "title": "베니키아 프리미어 해운대 호텔",
    "address": "부산광역시 해운대구 해운대해변로 317",
    "phone": "051-760-7000",
    "latitude": "35.1622629688",
    "longitude": "129.1648435300",
    "image": "",
    "category": "관광호텔"
  },
  {
    "id": "2010907",
    "title": "베니키아 프리미어 호텔 베르누이",
    "address": "서울특별시 구로구 경인로 229",
    "phone": "02-2683-9000",
    "latitude": "37.4974237964",
    "longitude": "126.8459628260",
    "image": "http://tong.visitkorea.or.kr/cms/resource/06/2010806_image2_1.png",
    "category": "관광호텔"
  },
  {
    "id": "1742887",
    "title": "베니키아 호텔 비즈인",
    "address": "강원특별자치도 원주시 만대로 7-1 (무실동)",
    "phone": "",
    "latitude": "37.3411920644",
    "longitude": "127.9238695373",
    "image": "http://tong.visitkorea.or.kr/cms/resource/11/3573911_image2_1.jpg",
    "category": "관광호텔"
  },
  {
    "id": "1937080",
    "title": "베니키아 호텔 산과 바다 대포항",
    "address": "강원특별자치도 속초시 동해대로 3691",
    "phone": "033-635-6644",
    "latitude": "38.1658400190",
    "longitude": "128.6079827477",
    "image": "http://tong.visitkorea.or.kr/cms/resource/78/1937078_image2_1.jpg",
    "category": "관광호텔"
  },
  {
    "id": "1981890",
    "title": "베니키아 호텔 제주",
    "address": "제주특별자치도 제주시 애월읍 애월해안로 554-10",
    "phone": "064-799-3544",
    "latitude": "33.4773025078",
    "longitude": "126.3628348454",
    "image": "",
    "category": "관광호텔"
  },
  {
    "id": "143129",
    "title": "베니키아 호텔 포항",
    "address": "경상북도 포항시 남구 중앙로 128",
    "phone": "054-282-2700",
    "latitude": "36.0245447795",
    "longitude": "129.3685236554",
    "image": "http://tong.visitkorea.or.kr/cms/resource/90/1337990_image2_1.jpg",
    "category": "관광호텔"
  },
  {
    "id": "3075633",
    "title": "베니키아더에이치호텔",
    "address": "경기도 화성시 남양읍 역골로 3-12",
    "phone": "",
    "latitude": "37.2004134872",
    "longitude": "126.8282421509",
    "image": "",
    "category": "관광호텔"
  },
  {
    "id": "3083319",
    "title": "베니키아양산호텔",
    "address": "경상남도 양산시 동면 금오10길 51",
    "phone": "",
    "latitude": "35.3148877360",
    "longitude": "129.0261014110",
    "image": "http://tong.visitkorea.or.kr/cms/resource/12/3083312_image2_1.jpg",
    "category": "관광호텔"
  },
  {
    "id": "1815097",
    "title": "베니키아호텔 여수",
    "address": "전라남도 여수시 시청서6길 19",
    "phone": "061-662-0001 (연결후 1번 프론트 선택)",
    "latitude": "34.7565620029",
    "longitude": "127.6591411456",
    "image": "http://tong.visitkorea.or.kr/cms/resource/33/3555333_image2_1.jpg",
    "category": "관광호텔"
  },
  {
    "id": "2577128",
    "title": "베스트루이스해밀턴호텔 창원점",
    "address": "경상남도 창원시 성산구 마디미로70번길 10",
    "phone": "055-261-2525",
    "latitude": "35.2195726491",
    "longitude": "128.6807730367",
    "image": "",
    "category": "관광호텔"
  },
  {
    "id": "1830621",
    "title": "베스트웨스턴 군산호텔",
    "address": "전북특별자치도 군산시 새만금북로 435",
    "phone": "063-469-1234",
    "latitude": "35.9485337543",
    "longitude": "126.5839780809",
    "image": "",
    "category": "관광호텔"
  },
  {
    "id": "143106",
    "title": "베스트웨스턴 프리미어 인천 에어포트 호텔",
    "address": "인천광역시 중구 공항로424번길 48-27",
    "phone": "032-743-1000",
    "latitude": "37.4411901422",
    "longitude": "126.4574859381",
    "image": "http://tong.visitkorea.or.kr/cms/resource/66/3003666_image2_1.jpg",
    "category": "관광호텔"
  },
  {
    "id": "2770436",
    "title": "베스트웨스턴 플러스 호텔세종(베스트웨스턴 플러스)",
    "address": "세종특별자치시 도움1로 7 (어진동)",
    "phone": "",
    "latitude": "36.5003156580",
    "longitude": "127.2584252953",
    "image": "http://tong.visitkorea.or.kr/cms/resource/71/2771971_image2_1.jpg",
    "category": "관광호텔"
  },
  {
    "id": "761536",
    "title": "베스트웨스턴 하버파크호텔",
    "address": "인천광역시 중구 제물량로 217",
    "phone": "032-770-9500",
    "latitude": "37.4721727209",
    "longitude": "126.6196286148",
    "image": "http://tong.visitkorea.or.kr/cms/resource/52/2848252_image2_1.jpg",
    "category": "관광호텔"
  },
  {
    "id": "2783515",
    "title": "베스트웨스턴플러스전주호텔",
    "address": "전북특별자치도 전주시 완산구 현무1길 41 (서노송동)",
    "phone": "",
    "latitude": "35.8224744551",
    "longitude": "127.1470199916",
    "image": "http://tong.visitkorea.or.kr/cms/resource/59/2783659_image2_1.jpg",
    "category": "관광호텔"
  },
  {
    "id": "2811461",
    "title": "베이몬드호텔",
    "address": "부산광역시 해운대구 해운대해변로209번가길 27",
    "phone": "051-702-0001",
    "latitude": "35.1595992286",
    "longitude": "129.1567804158",
    "image": "http://tong.visitkorea.or.kr/cms/resource/28/2808328_image2_1.png",
    "category": "관광호텔"
  },
  {
    "id": "2718006",
    "title": "벤티모 호텔 앤 레지던스 제주",
    "address": "제주특별자치도 제주시 연삼로 14 (연동)",
    "phone": "",
    "latitude": "33.4934583510",
    "longitude": "126.4937564282",
    "image": "http://tong.visitkorea.or.kr/cms/resource/21/3514421_image2_1.jpg",
    "category": "관광호텔"
  },
  {
    "id": "3469458",
    "title": "벨리노호텔",
    "address": "전북특별자치도 부안군 부안읍 번영로 76",
    "phone": "0503-5052-0284",
    "latitude": "35.7264254181",
    "longitude": "126.7285930792",
    "image": "",
    "category": "관광호텔"
  },
  {
    "id": "3082630",
    "title": "보스코아호텔",
    "address": "강원특별자치도 원주시 미래로 25 (반곡동)",
    "phone": "",
    "latitude": "37.3267810060",
    "longitude": "127.9865920769",
    "image": "http://tong.visitkorea.or.kr/cms/resource/12/3082612_image2_1.jpg",
    "category": "관광호텔"
  },
  {
    "id": "3465527",
    "title": "보코 서울 강남",
    "address": "서울특별시 강남구 도산대로 144 (논현동)",
    "phone": "",
    "latitude": "37.5178162906",
    "longitude": "127.0246265322",
    "image": "",
    "category": "관광호텔"
  },
  {
    "id": "3395428",
    "title": "보코 서울 명동",
    "address": "서울특별시 중구 퇴계로 52 (회현동1가)",
    "phone": "",
    "latitude": "37.5584718511",
    "longitude": "126.9785601324",
    "image": "http://tong.visitkorea.or.kr/cms/resource/07/3395007_image2_1.jpeg",
    "category": "관광호텔"
  },
  {
    "id": "3470763",
    "title": "본호텔",
    "address": "부산광역시 북구 낙동대로 1746-8 (구포동)",
    "phone": "",
    "latitude": "35.2090574567",
    "longitude": "128.9999843707",
    "image": "",
    "category": "관광호텔"
  },
  {
    "id": "2595914",
    "title": "볼튼호텔",
    "address": "광주광역시 서구 상무연하로 31",
    "phone": "",
    "latitude": "35.1510343734",
    "longitude": "126.8499468484",
    "image": "http://tong.visitkorea.or.kr/cms/resource/41/2630541_image2_1.jpg",
    "category": "관광호텔"
  },
  {
    "id": "2907760",
    "title": "봄스테이",
    "address": "강원특별자치도 춘천시 남춘로36번길 4 (효자동)",
    "phone": "",
    "latitude": "37.8641139852",
    "longitude": "127.7318854502",
    "image": "http://tong.visitkorea.or.kr/cms/resource/45/2907745_image2_1.jpg",
    "category": "관광호텔"
  },
  {
    "id": "142902",
    "title": "부곡 로얄관광호텔",
    "address": "경상남도 창녕군 부곡면 온천중앙로 3",
    "phone": "055-536-7300",
    "latitude": "35.4414154223",
    "longitude": "128.5858614292",
    "image": "",
    "category": "관광호텔"
  },
  {
    "id": "3075684",
    "title": "부곡스파디움따오기호텔",
    "address": "경상남도 창녕군 부곡면 온천중앙로 42",
    "phone": "",
    "latitude": "35.4389796388",
    "longitude": "128.5887806843",
    "image": "",
    "category": "관광호텔"
  },
  {
    "id": "986534",
    "title": "부산 비치 관광호텔",
    "address": "부산광역시 서구 등대로 113",
    "phone": "051-231-0750",
    "latitude": "35.0850162779",
    "longitude": "129.0262938007",
    "image": "http://tong.visitkorea.or.kr/cms/resource/53/1197453_image2_1.jpg",
    "category": "관광호텔"
  },
  {
    "id": "1215432",
    "title": "부산 센트럴호텔",
    "address": "부산광역시 연제구 중앙대로 1122",
    "phone": "051-866-6525",
    "latitude": "35.1877669046",
    "longitude": "129.0815722951",
    "image": "http://tong.visitkorea.or.kr/cms/resource/01/2640501_image2_1.jpg",
    "category": "관광호텔"
  },
  {
    "id": "142855",
    "title": "부산관광호텔",
    "address": "부산광역시 중구 광복로97번길 23",
    "phone": "051-241-4301",
    "latitude": "35.1003313844",
    "longitude": "129.0346565455",
    "image": "http://tong.visitkorea.or.kr/cms/resource/01/2024301_image2_1.jpg",
    "category": "관광호텔"
  },
  {
    "id": "2393422",
    "title": "부산비즈니스호텔",
    "address": "부산광역시 부산진구 부전로 67",
    "phone": "051-808-2000",
    "latitude": "35.1562338226",
    "longitude": "129.0543533051",
    "image": "http://tong.visitkorea.or.kr/cms/resource/07/2393407_image2_1.jpg",
    "category": "관광호텔"
  },
  {
    "id": "2917187",
    "title": "부티크호텔 XYM",
    "address": "경기도 평택시 도일유통길 13-31 (도일동)",
    "phone": "",
    "latitude": "37.0402507021",
    "longitude": "127.0990942652",
    "image": "http://tong.visitkorea.or.kr/cms/resource/39/2916539_image2_1.jpg",
    "category": "관광호텔"
  },
  {
    "id": "2917201",
    "title": "부티크호텔 지",
    "address": "충청북도 청주시 청원구 1순환로 166 (율량동)",
    "phone": "",
    "latitude": "36.6647926618",
    "longitude": "127.4941468603",
    "image": "http://tong.visitkorea.or.kr/cms/resource/52/2916552_image2_1.jpg",
    "category": "관광호텔"
  },
  {
    "id": "3049884",
    "title": "뷰호텔",
    "address": "경상남도 거제시 동부면 거제대로 934",
    "phone": "010-9008-4181",
    "latitude": "34.7735635084",
    "longitude": "128.6401884929",
    "image": "",
    "category": "관광호텔"
  },
  {
    "id": "2875427",
    "title": "브라운도트 고덕신도시점",
    "address": "경기도 평택시 고덕중앙로 200-19 (고덕동)",
    "phone": "",
    "latitude": "37.0473017141",
    "longitude": "127.0456655694",
    "image": "http://tong.visitkorea.or.kr/cms/resource/91/2875391_image2_1.jpg",
    "category": "관광호텔"
  },
  {
    "id": "3044608",
    "title": "브라운도트 안동문화의거리점",
    "address": "경상북도 안동시 문화광장길 16-13 (남부동)",
    "phone": "010-3595-2299",
    "latitude": "36.5639241989",
    "longitude": "128.7311865212",
    "image": "http://tong.visitkorea.or.kr/cms/resource/50/3054650_image2_1.jpg",
    "category": "관광호텔"
  },
  {
    "id": "3075703",
    "title": "브라운도트 항남점",
    "address": "경상남도 통영시 동충4길 53 (항남동)",
    "phone": "",
    "latitude": "34.8420991965",
    "longitude": "128.4238943920",
    "image": "http://tong.visitkorea.or.kr/cms/resource/83/3577983_image2_1.jpg",
    "category": "관광호텔"
  },
  {
    "id": "3049899",
    "title": "브라운도트 호텔 경주불국사점",
    "address": "경상북도 경주시 진현로1길 4 (진현동)",
    "phone": "010-5693-8258",
    "latitude": "35.7820685418",
    "longitude": "129.3243428220",
    "image": "http://tong.visitkorea.or.kr/cms/resource/09/3060109_image2_1.jpg",
    "category": "관광호텔"
  },
  {
    "id": "3044609",
    "title": "브라운도트 호텔 대구수성점",
    "address": "대구광역시 수성구 동대구로25길 33 (황금동)",
    "phone": "053-765-2400",
    "latitude": "35.8411237664",
    "longitude": "128.6232471403",
    "image": "http://tong.visitkorea.or.kr/cms/resource/72/3054872_image2_1.jpg",
    "category": "관광호텔"
  },
  {
    "id": "3470765",
    "title": "브라운도트 호텔 사상르네시떼",
    "address": "부산광역시 사상구 새벽로223번길 83 (괘법동)",
    "phone": "",
    "latitude": "35.1615179638",
    "longitude": "128.9795791131",
    "image": "",
    "category": "관광호텔"
  },
  {
    "id": "3044610",
    "title": "브라운도트 호텔 서면역점 비즈니스",
    "address": "부산광역시 부산진구 가야대로756번길 16 (부전동)",
    "phone": "051-808-6200",
    "latitude": "35.1566393270",
    "longitude": "129.0540422103",
    "image": "",
    "category": "관광호텔"
  },
  {
    "id": "2708665",
    "title": "브라운도트호텔 (장생포점)",
    "address": "울산광역시 남구 장생포고래로 211",
    "phone": "0503-5052-0693",
    "latitude": "35.5028009736",
    "longitude": "129.3773294441",
    "image": "http://tong.visitkorea.or.kr/cms/resource/69/2709169_image2_1.jpg",
    "category": "관광호텔"
  },
  {
    "id": "3469460",
    "title": "브라운도트호텔 광주용봉점",
    "address": "광주광역시 북구 저불로 55 (용봉동)",
    "phone": "010-5634-2626",
    "latitude": "35.1795263621",
    "longitude": "126.8951588030",
    "image": "",
    "category": "관광호텔"
  },
  {
    "id": "3044611",
    "title": "브라운도트호텔 남춘천점",
    "address": "강원특별자치도 춘천시 남춘로25번길 5 (퇴계동)",
    "phone": "033-251-3130",
    "latitude": "37.8636195707",
    "longitude": "127.7303883787",
    "image": "",
    "category": "관광호텔"
  },
  {
    "id": "3083398",
    "title": "브라운도트호텔 서면범천점",
    "address": "부산광역시 부산진구 황령대로7번길 20-11 (범천동)",
    "phone": "",
    "latitude": "35.1485125805",
    "longitude": "129.0606113054",
    "image": "http://tong.visitkorea.or.kr/cms/resource/19/3084219_image2_1.jpg",
    "category": "관광호텔"
  },
  {
    "id": "2769619",
    "title": "브라운도트호텔 서산점",
    "address": "충청남도 서산시 안견로 284 (읍내동)",
    "phone": "",
    "latitude": "36.7775502390",
    "longitude": "126.4519682848",
    "image": "http://tong.visitkorea.or.kr/cms/resource/38/2770438_image2_1.jpg",
    "category": "관광호텔"
  },
  {
    "id": "3083414",
    "title": "브라운도트호텔 송정점",
    "address": "부산광역시 해운대구 송정광어골로 30 (송정동)",
    "phone": "",
    "latitude": "35.1787978313",
    "longitude": "129.1973402500",
    "image": "http://tong.visitkorea.or.kr/cms/resource/07/3083407_image2_1.jpg",
    "category": "관광호텔"
  },
  {
    "id": "3469474",
    "title": "브라운도트호텔 인천 송도",
    "address": "인천광역시 연수구 능허대로 227-7 (옥련동)",
    "phone": "010-7210-5292",
    "latitude": "37.4162464474",
    "longitude": "126.6514883708",
    "image": "",
    "category": "관광호텔"
  },
  {
    "id": "3028497",
    "title": "브라운도트호텔 정관점",
    "address": "부산광역시 기장군 정관읍 산단1로 98-31",
    "phone": "",
    "latitude": "35.3161515953",
    "longitude": "129.1817794758",
    "image": "http://tong.visitkorea.or.kr/cms/resource/82/3028482_image2_1.JPG",
    "category": "관광호텔"
  },
  {
    "id": "3470276",
    "title": "브라운도트호텔 진주충무공점",
    "address": "경상남도 진주시 에나로 103-9 (충무공동)",
    "phone": "",
    "latitude": "35.1786230714",
    "longitude": "128.1402686411",
    "image": "",
    "category": "관광호텔"
  },
  {
    "id": "2770470",
    "title": "브라운도트호텔 포항 죽도점",
    "address": "경상북도 포항시 북구 죽도로40번길 51 (죽도동)",
    "phone": "",
    "latitude": "36.0292163567",
    "longitude": "129.3624351656",
    "image": "http://tong.visitkorea.or.kr/cms/resource/47/2771847_image2_1.jpg",
    "category": "관광호텔"
  },
  {
    "id": "2911712",
    "title": "브라운도트호텔 포항영일대점",
    "address": "경상북도 포항시 북구 해안로 113 (두호동)",
    "phone": "",
    "latitude": "36.0588022100",
    "longitude": "129.3786801066",
    "image": "http://tong.visitkorea.or.kr/cms/resource/01/2911701_image2_1.jpg",
    "category": "관광호텔"
  },
  {
    "id": "3016434",
    "title": "블루스토리 호텔",
    "address": "부산광역시 해운대구 해운대해변로237번길 11 (우동)",
    "phone": "",
    "latitude": "35.1599464255",
    "longitude": "129.1575108976",
    "image": "http://tong.visitkorea.or.kr/cms/resource/24/3016424_image2_1.jpg",
    "category": "관광호텔"
  },
  {
    "id": "2570731",
    "title": "블루오션뷰",
    "address": "울산광역시 울주군 서생면 진하해변길 74",
    "phone": "052-238-0006",
    "latitude": "35.3843247941",
    "longitude": "129.3459327284",
    "image": "",
    "category": "관광호텔"
  },
  {
    "id": "3075501",
    "title": "블룸비스타호텔앤컨퍼런스",
    "address": "경기도 양평군 강하면 강남로 316",
    "phone": "",
    "latitude": "37.5011392866",
    "longitude": "127.4207632184",
    "image": "",
    "category": "관광호텔"
  },
  {
    "id": "3076447",
    "title": "블룸호텔",
    "address": "제주특별자치도 서귀포시 중문관광로72번길 53 (색달동)",
    "phone": "",
    "latitude": "33.2498950313",
    "longitude": "126.4080998986",
    "image": "",
    "category": "관광호텔"
  },
  {
    "id": "2528106",
    "title": "비센트호텔",
    "address": "부산광역시 중구 충장대로9번길 64",
    "phone": "051-442-2338",
    "latitude": "35.1108108531",
    "longitude": "129.0393058555",
    "image": "http://tong.visitkorea.or.kr/cms/resource/99/2528799_image2_1.jpg",
    "category": "관광호텔"
  },
  {
    "id": "143107",
    "title": "비스타 워커힐 서울",
    "address": "서울특별시 광진구 워커힐로 177",
    "phone": "02-1670-0005, 1670-0005",
    "latitude": "37.5552218298",
    "longitude": "127.1107898477",
    "image": "http://tong.visitkorea.or.kr/cms/resource/67/2661267_image2_1.jpg",
    "category": "관광호텔"
  },
  {
    "id": "3469424",
    "title": "비지니스호텔듀",
    "address": "광주광역시 동구 구성로144번길 9 (수기동)",
    "phone": "062-234-7755",
    "latitude": "35.1490495142",
    "longitude": "126.9108692891",
    "image": "",
    "category": "관광호텔"
  },
  {
    "id": "139008",
    "title": "비치스토리호텔",
    "address": "제주특별자치도 제주시 조천읍 조함해안로 492-5",
    "phone": "064-784-7400",
    "latitude": "33.5421529255",
    "longitude": "126.6654098459",
    "image": "http://tong.visitkorea.or.kr/cms/resource/86/2596486_image2_1.jpg",
    "category": "관광호텔"
  },
  {
    "id": "3076459",
    "title": "비케이호텔 제주(BK호텔 제주)",
    "address": "제주특별자치도 서귀포시 칠십리로91번길 12 (서귀동)",
    "phone": "",
    "latitude": "33.2410651400",
    "longitude": "126.5642865558",
    "image": "http://tong.visitkorea.or.kr/cms/resource/29/3525329_image2_1.jpg",
    "category": "관광호텔"
  },
  {
    "id": "1507015",
    "title": "빅토리아호텔",
    "address": "전라남도 고흥군 도화면 천마로 2736-29",
    "phone": "061-832-0100",
    "latitude": "34.4905254297",
    "longitude": "127.3531301266",
    "image": "http://tong.visitkorea.or.kr/cms/resource/55/1504455_image2_1.jpg",
    "category": "관광호텔"
  },
  {
    "id": "3469413",
    "title": "빌리언웨스턴호텔 대구성서점",
    "address": "대구광역시 달서구 달서대로 467 (호산동)",
    "phone": "",
    "latitude": "35.8411824445",
    "longitude": "128.4913948644",
    "image": "",
    "category": "관광호텔"
  },
  {
    "id": "3563316",
    "title": "산청한방가족호텔",
    "address": "경상남도 산청군 금서면 동의보감로479번길 43",
    "phone": "",
    "latitude": "35.4387993581",
    "longitude": "127.8300195910",
    "image": "",
    "category": "관광호텔"
  },
  {
    "id": "143100",
    "title": "삼원프라자호텔",
    "address": "경기도 안양시 만안구 장내로139번길 7",
    "phone": "031-448-6671",
    "latitude": "37.3982005717",
    "longitude": "126.9226530689",
    "image": "http://tong.visitkorea.or.kr/cms/resource/18/1336918_image2_1.jpg",
    "category": "관광호텔"
  },
  {
    "id": "3075709",
    "title": "상대온천관광호텔",
    "address": "경상북도 경산시 남산면 상대리",
    "phone": "",
    "latitude": "35.7809225930",
    "longitude": "128.7924894889",
    "image": "",
    "category": "관광호텔"
  },
  {
    "id": "3079902",
    "title": "샐리스제주호텔",
    "address": "제주특별자치도 제주시 애월읍 고내로 46",
    "phone": "",
    "latitude": "33.4646924595",
    "longitude": "126.3417258544",
    "image": "",
    "category": "관광호텔"
  },
  {
    "id": "2651484",
    "title": "생비원[한국관광 품질인증/Korea Quality]",
    "address": "경상북도 고령군 덕곡면 노리2길 28",
    "phone": "010-6732-4578, 054-954-1528",
    "latitude": "35.8008451644",
    "longitude": "128.1766181862",
    "image": "http://tong.visitkorea.or.kr/cms/resource/91/2917691_image2_1.jpg",
    "category": "관광호텔"
  },
  {
    "id": "2531696",
    "title": "샤르망호텔",
    "address": "전라남도 목포시 신흥로59번길 5",
    "phone": "061-285-3300",
    "latitude": "34.8043192147",
    "longitude": "126.4265844446",
    "image": "",
    "category": "관광호텔"
  },
  {
    "id": "143092",
    "title": "샹그리아비치호텔",
    "address": "전라남도 목포시 평화로 79",
    "phone": "061-285-0100",
    "latitude": "34.7971395801",
    "longitude": "126.4334090151",
    "image": "http://tong.visitkorea.or.kr/cms/resource/37/1972237_image2_1.jpg",
    "category": "관광호텔"
  },
  {
    "id": "143014",
    "title": "샹보르 관광호텔",
    "address": "전라남도 여수시 공화남2길 20",
    "phone": "061-662-6111",
    "latitude": "34.7448342007",
    "longitude": "127.7423619411",
    "image": "",
    "category": "관광호텔"
  },
  {
    "id": "142965",
    "title": "서귀포칼호텔 (서귀포KAL호텔)",
    "address": "제주특별자치도 서귀포시 칠십리로 242",
    "phone": "064-733-2001",
    "latitude": "33.2443539282",
    "longitude": "126.5808072727",
    "image": "http://tong.visitkorea.or.kr/cms/resource/06/3564306_image2_1.jpg",
    "category": "관광호텔"
  },
  {
    "id": "3076473",
    "title": "서귀포호텔",
    "address": "제주특별자치도 서귀포시 상예로 319 (상예동)",
    "phone": "",
    "latitude": "33.2731172555",
    "longitude": "126.3946533249",
    "image": "",
    "category": "관광호텔"
  },
  {
    "id": "2561932",
    "title": "서머셋 제주신화월드",
    "address": "제주특별자치도 서귀포시 안덕면 신화역사로304번길 89",
    "phone": "1670-8800",
    "latitude": "33.3029183065",
    "longitude": "126.3175482431",
    "image": "http://tong.visitkorea.or.kr/cms/resource/65/2562265_image2_1.jpg",
    "category": "관광호텔"
  },
  {
    "id": "142722",
    "title": "서울가든호텔",
    "address": "서울특별시 마포구 마포대로 58",
    "phone": "",
    "latitude": "37.5408900188",
    "longitude": "126.9483050535",
    "image": "http://tong.visitkorea.or.kr/cms/resource/39/3562939_image2_1.jpg",
    "category": "관광호텔"
  },
  {
    "id": "142734",
    "title": "서울신라호텔",
    "address": "서울특별시 중구 동호로 249",
    "phone": "02-2233-3131",
    "latitude": "37.5559337349",
    "longitude": "127.0051688913",
    "image": "http://tong.visitkorea.or.kr/cms/resource/45/1903045_image2_1.jpg",
    "category": "관광호텔"
  },
  {
    "id": "2861201",
    "title": "서울투어리스트호텔",
    "address": "경기도 시흥시 군자천로 315 (정왕동)",
    "phone": "",
    "latitude": "37.3452866838",
    "longitude": "126.7333078839",
    "image": "",
    "category": "관광호텔"
  },
  {
    "id": "142751",
    "title": "서울프린스호텔",
    "address": "서울특별시 중구 퇴계로 130",
    "phone": "02-752-7111",
    "latitude": "37.5607300612",
    "longitude": "126.9863038076",
    "image": "",
    "category": "관광호텔"
  },
  {
    "id": "1964675",
    "title": "서울호텔",
    "address": "충청북도 음성군 대소면 삼양로 572-1",
    "phone": "043-881-2098",
    "latitude": "36.9736262157",
    "longitude": "127.4733901168",
    "image": "",
    "category": "관광호텔"
  },
  {
    "id": "985337",
    "title": "선셋호텔[한국관광 품질인증/Korea Quality]",
    "address": "부산광역시 해운대구 구남로 46",
    "phone": "051-730-9910",
    "latitude": "35.1601825829",
    "longitude": "129.1614299949",
    "image": "http://tong.visitkorea.or.kr/cms/resource/14/1347814_image2_1.jpg",
    "category": "관광호텔"
  },
  {
    "id": "3465127",
    "title": "세이지우드 홍천",
    "address": "강원특별자치도 홍천군 두촌면 광석로 898-87",
    "phone": "033-639-1600",
    "latitude": "37.8848409101",
    "longitude": "128.1102282201",
    "image": "",
    "category": "관광호텔"
  },
  {
    "id": "2603352",
    "title": "세인트존스 호텔",
    "address": "강원특별자치도 강릉시 창해로 307",
    "phone": "033-660-9000",
    "latitude": "37.7940780970",
    "longitude": "128.9186301059",
    "image": "http://tong.visitkorea.or.kr/cms/resource/54/2603354_image2_1.jpg",
    "category": "관광호텔"
  },
  {
    "id": "2913922",
    "title": "세인트존스호텔 파인 인피니티풀",
    "address": "강원특별자치도 강릉시 창해로 307 세인트존스호텔",
    "phone": "",
    "latitude": "37.7911618243",
    "longitude": "128.9215243801",
    "image": "http://tong.visitkorea.or.kr/cms/resource/58/2922358_image2_1.jpg",
    "category": "관광호텔"
  },
  {
    "id": "142727",
    "title": "세종호텔",
    "address": "서울특별시 중구 퇴계로 145",
    "phone": "",
    "latitude": "37.5613827927",
    "longitude": "126.9879480837",
    "image": "",
    "category": "관광호텔"
  },
  {
    "id": "2595523",
    "title": "센텀프리미어호텔",
    "address": "부산광역시 해운대구 센텀1로 17 (우동)",
    "phone": "051-755-9000",
    "latitude": "35.1669646046",
    "longitude": "129.1316129571",
    "image": "http://tong.visitkorea.or.kr/cms/resource/96/3486296_image2_1.jpg",
    "category": "관광호텔"
  },
  {
    "id": "143074",
    "title": "센트럴관광호텔",
    "address": "광주광역시 서구 상무연하로 68",
    "phone": "062-383-7575",
    "latitude": "35.1543590066",
    "longitude": "126.8504744966",
    "image": "http://tong.visitkorea.or.kr/cms/resource/10/1191010_image2_1.jpg",
    "category": "관광호텔"
  },
  {
    "id": "2531416",
    "title": "센트럴파크 호텔",
    "address": "부산광역시 중구 해관로 20",
    "phone": "051-243-8001",
    "latitude": "35.1005508289",
    "longitude": "129.0359786465",
    "image": "http://tong.visitkorea.or.kr/cms/resource/77/2669477_image2_1.jpg",
    "category": "관광호텔"
  },
  {
    "id": "3543041",
    "title": "소노문 해운대",
    "address": "부산광역시 해운대구 해운대해변로237번길 12 (우동)",
    "phone": "",
    "latitude": "35.1599575446",
    "longitude": "129.1579969661",
    "image": "http://tong.visitkorea.or.kr/cms/resource/61/3542961_image2_1.jpg",
    "category": "관광호텔"
  },
  {
    "id": "2496500",
    "title": "소노캄 고양",
    "address": "경기도 고양시 일산동구 태극로 20 (장항동)",
    "phone": "031-927-7700",
    "latitude": "37.6619807410",
    "longitude": "126.7508224383",
    "image": "http://tong.visitkorea.or.kr/cms/resource/55/2704255_image2_1.jpg",
    "category": "관광호텔"
  },
  {
    "id": "1785294",
    "title": "소노캄 여수",
    "address": "전라남도 여수시 오동도로 111",
    "phone": "061-660-5800",
    "latitude": "34.7413153702",
    "longitude": "127.7550498107",
    "image": "",
    "category": "관광호텔"
  },
  {
    "id": "3076761",
    "title": "소래호텔카카오",
    "address": "인천광역시 남동구 앵고개로948번길 48 (논현동)",
    "phone": "",
    "latitude": "37.4007330808",
    "longitude": "126.7363644005",
    "image": "",
    "category": "관광호텔"
  },
  {
    "id": "2853502",
    "title": "소르호텔",
    "address": "경기도 양평군 강하면 강남로 375",
    "phone": "",
    "latitude": "37.5040418281",
    "longitude": "127.4262293050",
    "image": "",
    "category": "관광호텔"
  },
  {
    "id": "2849882",
    "title": "소설스미스 호텔",
    "address": "경기도 수원시 권선구 경수대로384번길 27 (권선동)",
    "phone": "",
    "latitude": "37.2603628345",
    "longitude": "127.0258975459",
    "image": "http://tong.visitkorea.or.kr/cms/resource/69/2849869_image2_1.jpg",
    "category": "관광호텔"
  },
  {
    "id": "2991972",
    "title": "소테츠 호텔즈 더 스프라지르 서울 동대문",
    "address": "서울특별시 중구 장충단로 226 (광희동2가)",
    "phone": "",
    "latitude": "37.5647716435",
    "longitude": "127.0077767369",
    "image": "http://tong.visitkorea.or.kr/cms/resource/70/2991970_image2_1.jpg",
    "category": "관광호텔"
  },
  {
    "id": "2992010",
    "title": "소테츠 호텔즈 더 스프라지르 서울 명동",
    "address": "서울특별시 중구 남대문로5길 15 (북창동)",
    "phone": "",
    "latitude": "37.5621269853",
    "longitude": "126.9787544559",
    "image": "http://tong.visitkorea.or.kr/cms/resource/08/2992008_image2_1.JPG",
    "category": "관광호텔"
  },
  {
    "id": "3337577",
    "title": "소피텔 앰배서더 서울 호텔&서비스드 레지던스",
    "address": "서울특별시 송파구 잠실로 209 (신천동)",
    "phone": "",
    "latitude": "37.5139237687",
    "longitude": "127.1063803122",
    "image": "http://tong.visitkorea.or.kr/cms/resource/53/3337553_image2_1.jpg",
    "category": "관광호텔"
  },
  {
    "id": "3451070",
    "title": "속초 관광호텔 베리트",
    "address": "강원특별자치도 속초시 교동로1길 10 (교동)",
    "phone": "",
    "latitude": "38.2003132604",
    "longitude": "128.5810202313",
    "image": "http://tong.visitkorea.or.kr/cms/resource/54/3451054_image2_1.jpg",
    "category": "관광호텔"
  },
  {
    "id": "2595893",
    "title": "솔라리아 니시테츠호텔 부산",
    "address": "부산광역시 부산진구 서면로 20 (부전동)",
    "phone": "051-802-8586",
    "latitude": "35.1523732152",
    "longitude": "129.0582002983",
    "image": "http://tong.visitkorea.or.kr/cms/resource/68/2595468_image2_1.jpg",
    "category": "관광호텔"
  },
  {
    "id": "2707452",
    "title": "솔호텔",
    "address": "전북특별자치도 전주시 덕진구 아중2길 22-4 (우아동2가)",
    "phone": "063-261-7000",
    "latitude": "35.8295185545",
    "longitude": "127.1733063572",
    "image": "http://tong.visitkorea.or.kr/cms/resource/82/3533982_image2_1.jpg",
    "category": "관광호텔"
  },
  {
    "id": "142850",
    "title": "송도비치 관광호텔",
    "address": "부산광역시 서구 암남공원로 9",
    "phone": "051-254-2000",
    "latitude": "35.0746422422",
    "longitude": "129.0155866811",
    "image": "",
    "category": "관광호텔"
  },
  {
    "id": "143163",
    "title": "송정호텔",
    "address": "부산광역시 해운대구 송정해변로 28",
    "phone": "051-702-7766",
    "latitude": "35.1811060124",
    "longitude": "129.2030396910",
    "image": "",
    "category": "관광호텔"
  },
  {
    "id": "142840",
    "title": "수안보상록호텔",
    "address": "충청북도 충주시 수안보면 주정산로 22",
    "phone": "043-880-3716",
    "latitude": "36.8476028878",
    "longitude": "127.9884862852",
    "image": "http://tong.visitkorea.or.kr/cms/resource/98/3005898_image2_1.jpg",
    "category": "관광호텔"
  },
  {
    "id": "142833",
    "title": "수안보파크호텔",
    "address": "충청북도 충주시 수안보면 탑골1길 36",
    "phone": "043-846-2331",
    "latitude": "36.8437892949",
    "longitude": "127.9807981939",
    "image": "http://tong.visitkorea.or.kr/cms/resource/15/1338415_image2_1.jpg",
    "category": "관광호텔"
  },
  {
    "id": "787644",
    "title": "쉐라톤 그랜드 인천 호텔",
    "address": "인천광역시 연수구 컨벤시아대로 153",
    "phone": "032-835-1000",
    "latitude": "37.3902882437",
    "longitude": "126.6454035333",
    "image": "http://tong.visitkorea.or.kr/cms/resource/70/1867970_image2_1.jpg",
    "category": "관광호텔"
  },
  {
    "id": "3090665",
    "title": "슈바이처도르프호텔",
    "address": "충청남도 천안시 서북구 성정공원5로 42 (성정동)",
    "phone": "",
    "latitude": "36.8275398864",
    "longitude": "127.1422601301",
    "image": "http://tong.visitkorea.or.kr/cms/resource/44/3090644_image2_1.JPG",
    "category": "관광호텔"
  },
  {
    "id": "142765",
    "title": "스위스 그랜드 호텔",
    "address": "서울특별시 서대문구 연희로 353 (홍은동)",
    "phone": "",
    "latitude": "37.5885203694",
    "longitude": "126.9357881816",
    "image": "http://tong.visitkorea.or.kr/cms/resource/89/3534089_image2_1.jpg",
    "category": "관광호텔"
  },
  {
    "id": "1844334",
    "title": "스위트 호텔 남원",
    "address": "전북특별자치도 남원시 주천면 원천로 217",
    "phone": "063-630-7102",
    "latitude": "35.4081316482",
    "longitude": "127.4144681765",
    "image": "",
    "category": "관광호텔"
  },
  {
    "id": "2783477",
    "title": "스카이탑호텔",
    "address": "인천광역시 중구 영종대로196번길 15-7 (운서동)",
    "phone": "",
    "latitude": "37.4913572868",
    "longitude": "126.5006445023",
    "image": "http://tong.visitkorea.or.kr/cms/resource/12/2791012_image2_1.jpg",
    "category": "관광호텔"
  },
  {
    "id": "2870003",
    "title": "스타비아호텔",
    "address": "경기도 김포시 태장로795번길 147 (장기동)",
    "phone": "",
    "latitude": "37.6403237533",
    "longitude": "126.6846707604",
    "image": "http://tong.visitkorea.or.kr/cms/resource/37/2869937_image2_1.jpg",
    "category": "관광호텔"
  },
  {
    "id": "143036",
    "title": "스타즈 호텔 제주 로베로(구 로베로호텔)",
    "address": "제주특별자치도 제주시 관덕로 26",
    "phone": "010-7549-9737",
    "latitude": "33.5128872053",
    "longitude": "126.5220229746",
    "image": "http://tong.visitkorea.or.kr/cms/resource/24/1339724_image2_1.jpg",
    "category": "관광호텔"
  },