[
  {
    "id": "2701000",
    "title": "호텔이스트 (현 애슈리모텔)",
    "address": "강원특별자치도 동해시 동해대로 5031-1",
    "phone": "033-521-3589",
    "latitude": "37.4953690931",
    "longitude": "129.1094360779",
    "image": "http://tong.visitkorea.or.kr/cms/resource/45/2698445_image2_1.jpg",
    "category": "모텔",
    "original_category": "관광호텔"
  },
  {
    "id": "2950408",
    "title": "가비원모텔[한국관광 품질인증/Korea Quality]",
    "address": "경상남도 하동군 화개로 13",
    "phone": "010-3060-2843",
    "latitude": "35.1897988120",
    "longitude": "127.6231054334",
    "image": "http://tong.visitkorea.or.kr/cms/resource/67/3009367_image2_1.jpg",
    "category": "모텔",
    "original_category": "콘도미니엄"
  },
  {
    "id": "3535524",
    "title": "강릉엘모텔",
    "address": "강원특별자치도 강릉시 성덕포남로149번길 14 (포남동)",
    "phone": "",
    "latitude": "37.7650285176",
    "longitude": "128.9103095331",
    "image": "",
    "category": "모텔",
    "original_category": "콘도미니엄"
  },
  {
    "id": "136962",
    "title": "강천각모텔",
    "address": "전북특별자치도 순창군 팔덕면 강천산길 85",
    "phone": "063-652-9930",
    "latitude": "35.4086478499",
    "longitude": "127.0688154117",
    "image": "",
    "category": "모텔",
    "original_category": "콘도미니엄"
  },
  {
    "id": "628541",
    "title": "갤러리하우스모텔",
    "address": "강원특별자치도 화천군 화천읍 중앙로2길 31-10",
    "phone": "033-441-7999",
    "latitude": "38.1034772614",
    "longitude": "127.7045446926",
    "image": "http://tong.visitkorea.or.kr/cms/resource/70/3486370_image2_1.jpg",
    "category": "모텔",
    "original_category": "콘도미니엄"
  },
  {
    "id": "139224",
    "title": "갤럭시 모텔",
    "address": "강원특별자치도 정선군 사북읍 소금강로 3489",
    "phone": "033-592-9923",
    "latitude": "37.2294806274",
    "longitude": "128.8420903297",
    "image": "http://tong.visitkorea.or.kr/cms/resource/20/207320_image2_1.jpg",
    "category": "모텔",
    "original_category": "콘도미니엄"
  },
  {
    "id": "1144607",
    "title": "경원BIZ모텔",
    "address": "울산광역시 동구 녹수7길 58",
    "phone": "052-233-2000",
    "latitude": "35.5151783876",
    "longitude": "129.4317771276",
    "image": "http://tong.visitkorea.or.kr/cms/resource/53/2606153_image2_1.JPG",
    "category": "모텔",
    "original_category": "콘도미니엄"
  },
  {
    "id": "2579485",
    "title": "공룡모텔",
    "address": "경상남도 고성군 거류면 거류로 142",
    "phone": "055-672-9758",
    "latitude": "34.9683674137",
    "longitude": "128.3688625323",
    "image": "",
    "category": "모텔",
    "original_category": "콘도미니엄"
  },
  {
    "id": "137324",
    "title": "광림모텔",
    "address": "강원특별자치도 속초시 청대로 2",
    "phone": "033-636-0096",
    "latitude": "38.1839433186",
    "longitude": "128.6002939920",
    "image": "http://tong.visitkorea.or.kr/cms/resource/85/709585_image2_1.jpg",
    "category": "모텔",
    "original_category": "콘도미니엄"
  },
  {
    "id": "3049856",
    "title": "구룡포 까르페 모텔",
    "address": "경상북도 포항시 남구 구룡포읍 호미로 249-10",
    "phone": "010-5522-7440",
    "latitude": "35.9916632324",
    "longitude": "129.5579941120",
    "image": "http://tong.visitkorea.or.kr/cms/resource/82/3059282_image2_1.jpg",
    "category": "모텔",
    "original_category": "콘도미니엄"
  },
  {
    "id": "3534426",
    "title": "굿모닝모텔",
    "address": "강원특별자치도 강릉시 창해로 293 (강문동)",
    "phone": "",
    "latitude": "37.7902536057",
    "longitude": "128.9220243630",
    "image": "",
    "category": "모텔",
    "original_category": "콘도미니엄"
  },
  {
    "id": "137981",
    "title": "그랜드 모텔",
    "address": "전라남도 완도군 완도읍 개포로56번길 41",
    "phone": "061-554-2200",
    "latitude": "34.3181846283",
    "longitude": "126.7498315599",
    "image": "http://tong.visitkorea.or.kr/cms/resource/47/1972147_image2_1.jpg",
    "category": "모텔",
    "original_category": "콘도미니엄"
  },
  {
    "id": "2651804",
    "title": "그랜드모텔[한국관광 품질인증/Korea Quality]",
    "address": "충청남도 예산군 예산읍 충서로 1344",
    "phone": "041-334-8934",
    "latitude": "36.7271043609",
    "longitude": "126.8345989455",
    "image": "http://tong.visitkorea.or.kr/cms/resource/89/3042989_image2_1.jpg",
    "category": "모텔",
    "original_category": "콘도미니엄"
  },
  {
    "id": "137644",
    "title": "그린모텔",
    "address": "강원특별자치도 철원군 동송읍 창동로 2405",
    "phone": "033-455-2170/1138",
    "latitude": "38.1873124871",
    "longitude": "127.2867693147",
    "image": "http://tong.visitkorea.or.kr/cms/resource/32/597632_image2_1.jpg",
    "category": "모텔",
    "original_category": "콘도미니엄"
  },
  {
    "id": "2593245",
    "title": "기린모텔",
    "address": "전북특별자치도 무주군 무주읍 단천로 74",
    "phone": "010-4120-5562",
    "latitude": "36.0076401692",
    "longitude": "127.6592195217",
    "image": "http://tong.visitkorea.or.kr/cms/resource/93/3021693_image2_1.jpg",
    "category": "모텔",
    "original_category": "콘도미니엄"
  },
  {
    "id": "138836",
    "title": "까펠라 모텔",
    "address": "대전광역시 유성구 한밭대로492번길 16-32",
    "phone": "042-823-0953",
    "latitude": "36.3587724087",
    "longitude": "127.3514708022",
    "image": "http://tong.visitkorea.or.kr/cms/resource/48/1945948_image2_1.jpg",
    "category": "모텔",
    "original_category": "콘도미니엄"
  },
  {
    "id": "626319",
    "title": "꿈의궁전모텔",
    "address": "강원특별자치도 철원군 서면 와수1로 7",
    "phone": "033-458-6153",
    "latitude": "38.2376954791",
    "longitude": "127.4365929699",
    "image": "http://tong.visitkorea.or.kr/cms/resource/65/3342365_image2_1.jpg",
    "category": "모텔",
    "original_category": "콘도미니엄"
  },
  {
    "id": "3547676",
    "title": "나인모텔(9MOTEL)",
    "address": "강원특별자치도 강릉시 강릉대로 267-1 (교동)",
    "phone": "",
    "latitude": "37.7616870066",
    "longitude": "128.8984829242",
    "image": "",
    "category": "모텔",
    "original_category": "콘도미니엄"
  },
  {
    "id": "595573",
    "title": "나폴리모텔",
    "address": "경상남도 통영시 통영해안로 355",
    "phone": "055-646-0202",
    "latitude": "34.8448572610",
    "longitude": "128.4261052378",
    "image": "http://tong.visitkorea.or.kr/cms/resource/85/1899785_image2_1.jpg",
    "category": "모텔",
    "original_category": "콘도미니엄"
  },
  {
    "id": "139069",
    "title": "녹천모텔",
    "address": "경기도 포천시 내촌면 금강로2606번길 23",
    "phone": "031-532-2737",
    "latitude": "37.8015067567",
    "longitude": "127.2461565494",
    "image": "http://tong.visitkorea.or.kr/cms/resource/82/204682_image2_1.jpg",
    "category": "모텔",
    "original_category": "콘도미니엄"
  },
  {
    "id": "1470072",
    "title": "다빈치모텔",
    "address": "강원특별자치도 강릉시 헌화로 920-40",
    "phone": "",
    "latitude": "37.6829822412",
    "longitude": "129.0419780047",
    "image": "http://tong.visitkorea.or.kr/cms/resource/55/2992955_image2_1.jpg",
    "category": "모텔",
    "original_category": "콘도미니엄"
  },
  {
    "id": "1144770",
    "title": "다이아모텔",
    "address": "전라남도 여수시 교동남1길 6-3",
    "phone": "061-663-3347",
    "latitude": "34.7396735106",
    "longitude": "127.7333017539",
    "image": "http://tong.visitkorea.or.kr/cms/resource/64/1151064_image2_1.jpg",
    "category": "모텔",
    "original_category": "콘도미니엄"
  },
  {
    "id": "3537693",
    "title": "대일모텔",
    "address": "강원특별자치도 강릉시 동부시장길 37 (옥천동)",
    "phone": "",
    "latitude": "37.7613704209",
    "longitude": "128.9007466190",
    "image": "",
    "category": "모텔",
    "original_category": "콘도미니엄"
  },
  {
    "id": "2569522",
    "title": "더샾모텔",
    "address": "전북특별자치도 군산시 서래내길 39",
    "phone": "063-445-7970",
    "latitude": "35.9780105740",
    "longitude": "126.7252146856",
    "image": "",
    "category": "모텔",
    "original_category": "콘도미니엄"
  },
  {
    "id": "706836",
    "title": "더엠모텔",
    "address": "부산광역시 수영구 민락수변로7번길 20",
    "phone": "051-751-7891",
    "latitude": "35.1553518905",
    "longitude": "129.1248277550",
    "image": "http://tong.visitkorea.or.kr/cms/resource/49/709849_image2_1.jpg",
    "category": "모텔",
    "original_category": "콘도미니엄"
  },
  {
    "id": "2578549",
    "title": "동경모텔",
    "address": "경상남도 거제시 장평3로6길 10-1",
    "phone": "055-636-8208",
    "latitude": "34.8920497310",
    "longitude": "128.6102101845",
    "image": "",
    "category": "모텔",
    "original_category": "콘도미니엄"
  },
  {
    "id": "3537689",
    "title": "동경모텔",
    "address": "강원특별자치도 강릉시 옥천로 66-8 (옥천동)",
    "phone": "",
    "latitude": "37.7601344138",
    "longitude": "128.8987607250",
    "image": "",
    "category": "모텔",
    "original_category": "콘도미니엄"
  },
  {
    "id": "3547877",
    "title": "동궁장모텔",
    "address": "강원특별자치도 강릉시 경강로 2220 (포남동)",
    "phone": "",
    "latitude": "37.7624842914",
    "longitude": "128.9064099634",
    "image": "",
    "category": "모텔",
    "original_category": "콘도미니엄"
  },
  {
    "id": "622333",
    "title": "동방모텔",
    "address": "강원특별자치도 영월군 영월읍 단종로 3-1",
    "phone": "033-373-4921",
    "latitude": "37.1839065112",
    "longitude": "128.4679279848",
    "image": "http://tong.visitkorea.or.kr/cms/resource/10/3342210_image2_1.jpg",
    "category": "모텔",
    "original_category": "콘도미니엄"
  },
  {
    "id": "3532542",
    "title": "동해휘닉스모텔",
    "address": "강원특별자치도 강릉시 연곡면 진고개로 2726-6",
    "phone": "",
    "latitude": "37.8590412060",
    "longitude": "128.8370271163",
    "image": "",
    "category": "모텔",
    "original_category": "콘도미니엄"
  },
  {
    "id": "3547666",
    "title": "드림모텔",
    "address": "강원특별자치도 강릉시 창해로 473 (강문동)",
    "phone": "",
    "latitude": "37.8027519269",
    "longitude": "128.9101194924",
    "image": "",
    "category": "모텔",
    "original_category": "콘도미니엄"
  },
  {
    "id": "3470260",
    "title": "똘레랑스모텔",
    "address": "경상남도 거제시 옥포로4길 32-1 (옥포동)",
    "phone": "0507-1496-3538",
    "latitude": "34.8916680038",
    "longitude": "128.6968248814",
    "image": "",
    "category": "모텔",
    "original_category": "콘도미니엄"
  },
  {
    "id": "3049881",
    "title": "라인69모텔",
    "address": "경상남도 거제시 서문로 80-1 (고현동)",
    "phone": "010-2425-4533",
    "latitude": "34.8898474614",
    "longitude": "128.6247339793",
    "image": "http://tong.visitkorea.or.kr/cms/resource/21/3059921_image2_1.jpg",
    "category": "모텔",
    "original_category": "콘도미니엄"
  },
  {
    "id": "3469452",
    "title": "럭셔리 G 모텔",
    "address": "인천광역시 미추홀구 토금북로18번길 11 (용현동)",
    "phone": "032-886-2393",
    "latitude": "37.4543445307",
    "longitude": "126.6362692579",
    "image": "",
    "category": "모텔",
    "original_category": "콘도미니엄"
  },
  {
    "id": "725425",
    "title": "렉시모텔(구 에덴파크)",
    "address": "전라남도 여수시 봉산남5길 11",
    "phone": "061-641-7376",
    "latitude": "34.7347572534",
    "longitude": "127.7251359267",
    "image": "http://tong.visitkorea.or.kr/cms/resource/62/726762_image2_1.jpg",
    "category": "모텔",
    "original_category": "콘도미니엄"
  },
  {
    "id": "2761671",
    "title": "로얄모텔",
    "address": "강원특별자치도 평창군 평창읍 백오1길 44",
    "phone": "",
    "latitude": "37.3682560998",
    "longitude": "128.3944096783",
    "image": "http://tong.visitkorea.or.kr/cms/resource/27/2769427_image2_1.jpg",
    "category": "모텔",
    "original_category": "콘도미니엄"
  },
  {
    "id": "649024",
    "title": "리버스모텔",
    "address": "전라남도 장흥군 장흥읍 장흥대로 3528",
    "phone": "061-864-9200",
    "latitude": "34.6786051704",
    "longitude": "126.9057952724",
    "image": "http://tong.visitkorea.or.kr/cms/resource/83/1972183_image2_1.jpg",
    "category": "모텔",
    "original_category": "콘도미니엄"
  },
  {
    "id": "3532563",
    "title": "리베라모텔",
    "address": "강원특별자치도 강릉시 용지로 147 (옥천동)",
    "phone": "",
    "latitude": "37.7617620598",
    "longitude": "128.9016770787",
    "image": "",
    "category": "모텔",
    "original_category": "콘도미니엄"
  },
  {
    "id": "3044558",
    "title": "리젠시모텔",
    "address": "광주광역시 동구 양림로115번길 26 (학동)",
    "phone": "010-9753-2543",
    "latitude": "35.1414088430",
    "longitude": "126.9186937888",
    "image": "http://tong.visitkorea.or.kr/cms/resource/40/3054440_image2_1.jpg",
    "category": "모텔",
    "original_category": "콘도미니엄"
  },
  {
    "id": "626875",
    "title": "리젠트모텔",
    "address": "강원특별자치도 춘천시 공지로461번길 14",
    "phone": "033-251-2274",
    "latitude": "37.8733403893",
    "longitude": "127.7157477565",
    "image": "http://tong.visitkorea.or.kr/cms/resource/72/588472_image2_1.jpg",
    "category": "모텔",
    "original_category": "콘도미니엄"
  },
  {
    "id": "725491",
    "title": "리츠모텔",
    "address": "전라남도 여수시 거북선공원1길 8",
    "phone": "061-683-1066",
    "latitude": "34.7612893522",
    "longitude": "127.6650044016",
    "image": "http://tong.visitkorea.or.kr/cms/resource/29/726929_image2_1.jpg",
    "category": "모텔",
    "original_category": "콘도미니엄"
  },
  {
    "id": "1964059",
    "title": "리츠모텔",
    "address": "인천광역시 서구 칠천왕로7번길 19",
    "phone": "032-578-2520",
    "latitude": "37.5070389910",
    "longitude": "126.6694203241",
    "image": "",
    "category": "모텔",
    "original_category": "콘도미니엄"
  },
  {
    "id": "625996",
    "title": "리치모텔",
    "address": "강원특별자치도 정선군 고한읍 고한2길 52",
    "phone": "033-592-3241",
    "latitude": "37.2026755570",
    "longitude": "128.8515597322",
    "image": "http://tong.visitkorea.or.kr/cms/resource/86/601586_image2_1.jpg",
    "category": "모텔",
    "original_category": "콘도미니엄"
  },
  {
    "id": "2569615",
    "title": "링스모텔",
    "address": "전북특별자치도 군산시 장미1길 23",
    "phone": "0507-1302-6070",
    "latitude": "35.9872482349",
    "longitude": "126.7150709094",
    "image": "",
    "category": "모텔",
    "original_category": "콘도미니엄"
  },
  {
    "id": "3535436",
    "title": "마운틴모텔",
    "address": "강원특별자치도 강릉시 경강로2268번길 5 (포남동)",
    "phone": "",
    "latitude": "37.7654034764",
    "longitude": "128.9104428427",
    "image": "",
    "category": "모텔",
    "original_category": "콘도미니엄"
  },
  {
    "id": "1632504",
    "title": "마이다스모텔",
    "address": "경상남도 거창군 가조면 온천길 44",
    "phone": "055-941-1183",
    "latitude": "35.6961181523",
    "longitude": "128.0233845558",
    "image": "",
    "category": "모텔",
    "original_category": "콘도미니엄"
  },
  {
    "id": "1365755",
    "title": "맨하탄모텔",
    "address": "전북특별자치도 순창군 순창읍 대동로 41",
    "phone": "063-653-6600",
    "latitude": "35.3667789074",
    "longitude": "127.1457707800",
    "image": "",
    "category": "모텔",
    "original_category": "콘도미니엄"
  },
  {
    "id": "3533780",
    "title": "메인모텔",
    "address": "강원특별자치도 강릉시 옥계면 현내시장길 17",
    "phone": "",
    "latitude": "37.6132402349",
    "longitude": "129.0390026513",
    "image": "",
    "category": "모텔",
    "original_category": "콘도미니엄"
  },
  {
    "id": "3540321",
    "title": "모나리자모텔",
    "address": "강원특별자치도 강릉시 옥천로 72-7 (교동)",
    "phone": "",
    "latitude": "37.7608259975",
    "longitude": "128.8986107171",
    "image": "",
    "category": "모텔",
    "original_category": "콘도미니엄"
  },
  {
    "id": "620219",
    "title": "모아모텔",
    "address": "강원특별자치도 속초시 영금정로5길 1",
    "phone": "033-636-1846",
    "latitude": "38.2129315849",
    "longitude": "128.5989487641",
    "image": "http://tong.visitkorea.or.kr/cms/resource/62/3071462_image2_1.jpg",
    "category": "모텔",
    "original_category": "콘도미니엄"
  },
  {
    "id": "3537735",
    "title": "모텔 드라마",
    "address": "강원특별자치도 강릉시 옥천로 72-9 (교동)",
    "phone": "",
    "latitude": "37.7609565399",
    "longitude": "128.8986940389",
    "image": "",
    "category": "모텔",
    "original_category": "콘도미니엄"
  },
  {
    "id": "1882243",
    "title": "모텔 마리나",
    "address": "인천광역시 옹진군 영흥면 선재로 311",
    "phone": "032-889-4045",
    "latitude": "37.2524575364",
    "longitude": "126.5166468290",
    "image": "http://tong.visitkorea.or.kr/cms/resource/54/1882254_image2_1.JPG",
    "category": "모텔",
    "original_category": "콘도미니엄"
  },
  {
    "id": "725338",
    "title": "모텔 마이다스",
    "address": "전라남도 여수시 봉산남7길 17-8",
    "phone": "061-643-1600",
    "latitude": "34.7325019414",
    "longitude": "127.7246638028",
    "image": "http://tong.visitkorea.or.kr/cms/resource/26/726626_image2_1.jpg",
    "category": "모텔",
    "original_category": "콘도미니엄"
  },
  {
    "id": "3540945",
    "title": "모텔 산토리니",
    "address": "강원특별자치도 강릉시 창해로 473 (강문동)",
    "phone": "",
    "latitude": "37.8027519269",
    "longitude": "128.9101194924",
    "image": "",
    "category": "모텔",
    "original_category": "콘도미니엄"
  },
  {
    "id": "1367683",
    "title": "모텔 엘도라도",
    "address": "경상남도 하동군 금남면 경충로 178-18",
    "phone": "055-884-0042",
    "latitude": "34.9581099895",
    "longitude": "127.8844495941",
    "image": "",
    "category": "모텔",
    "original_category": "콘도미니엄"
  },
  {
    "id": "725431",
    "title": "모텔 투헤븐",
    "address": "전라남도 여수시 시청동3길 35-16",
    "phone": "061-683-3090",
    "latitude": "34.7570342868",
    "longitude": "127.6657794417",
    "image": "http://tong.visitkorea.or.kr/cms/resource/84/726784_image2_1.jpg",
    "category": "모텔",
    "original_category": "콘도미니엄"
  },
  {
    "id": "3535334",
    "title": "모텔 휴",
    "address": "강원특별자치도 강릉시 경강로2302번길 7 (포남동)",
    "phone": "",
    "latitude": "37.7669339166",
    "longitude": "128.9135758472",
    "image": "",
    "category": "모텔",
    "original_category": "콘도미니엄"
  },
  {
    "id": "1770188",
    "title": "모텔나무",
    "address": "경기도 수원시 장안구 창훈로80번길 18 (연무동)",
    "phone": "",
    "latitude": "37.2987056523",
    "longitude": "127.0279351773",
    "image": "http://tong.visitkorea.or.kr/cms/resource/65/3555965_image2_1.jpg",
    "category": "모텔",
    "original_category": "콘도미니엄"
  },
  {
    "id": "137159",
    "title": "모텔라마다",
    "address": "충청남도 천안시 동남구 목천읍 동평3길 71",
    "phone": "041-557-5511",
    "latitude": "36.7757615191",
    "longitude": "127.2425441872",
    "image": "http://tong.visitkorea.or.kr/cms/resource/32/1964232_image2_1.jpg",
    "category": "모텔",
    "original_category": "콘도미니엄"
  },
  {
    "id": "3535210",
    "title": "모텔몽",
    "address": "강원특별자치도 강릉시 교동광장로 116 (교동)",
    "phone": "",
    "latitude": "37.7643418440",
    "longitude": "128.8774041850",
    "image": "",
    "category": "모텔",
    "original_category": "콘도미니엄"
  },
  {
    "id": "1498031",
    "title": "모텔신라",
    "address": "경상남도 통영시 동충4길 51",
    "phone": "055-643-3361",
    "latitude": "34.8419853191",
    "longitude": "128.4238249566",
    "image": "http://tong.visitkorea.or.kr/cms/resource/55/1493455_image2_1.jpg",
    "category": "모텔",
    "original_category": "콘도미니엄"
  },
  {
    "id": "1366164",
    "title": "모텔탑",
    "address": "전라남도 순천시 별량면 금치길 111",
    "phone": "061-746-7171",
    "latitude": "34.8462193839",
    "longitude": "127.3808632694",
    "image": "",
    "category": "모텔",
    "original_category": "콘도미니엄"
  },
  {
    "id": "1209406",
    "title": "모텔티",
    "address": "전라남도 여수시 교동남1길 6-12",
    "phone": "061-665-5757",
    "latitude": "34.7398707061",
    "longitude": "127.7330323280",
    "image": "http://tong.visitkorea.or.kr/cms/resource/23/1351823_image2_1.JPG",
    "category": "모텔",
    "original_category": "콘도미니엄"
  },
  {
    "id": "3532568",
    "title": "모텔포시즌",
    "address": "강원특별자치도 강릉시 옥천로62번길 9 (옥천동)",
    "phone": "",
    "latitude": "37.7605899235",
    "longitude": "128.8990940143",
    "image": "",
    "category": "모텔",
    "original_category": "콘도미니엄"
  },
  {
    "id": "139223",
    "title": "모텔힐",
    "address": "강원특별자치도 강릉시 사천면 방동길 43-12",
    "phone": "033-643-8985, 033-642-8985",
    "latitude": "37.8180574154",
    "longitude": "128.8550962011",
    "image": "http://tong.visitkorea.or.kr/cms/resource/12/2992512_image2_1.jpg",
    "category": "모텔",
    "original_category": "콘도미니엄"
  },
  {
    "id": "3534790",
    "title": "몽블랑모텔",
    "address": "강원특별자치도 강릉시 교동광장로100번길 8-5 (교동)",
    "phone": "",
    "latitude": "37.7657666662",
    "longitude": "128.8767208695",
    "image": "",
    "category": "모텔",
    "original_category": "콘도미니엄"
  },
  {
    "id": "138868",
    "title": "미라벨모텔",
    "address": "부산광역시 동구 중앙대로179번길 6",
    "phone": "051-467-5252",
    "latitude": "35.1136799603",
    "longitude": "129.0384336305",
    "image": "http://tong.visitkorea.or.kr/cms/resource/91/1899091_image2_1.jpg",
    "category": "모텔",
    "original_category": "콘도미니엄"
  },
  {
    "id": "137328",
    "title": "미라지모텔",
    "address": "강원특별자치도 속초시 동해대로 4164",
    "phone": "033-635-0325",
    "latitude": "38.1911948613",
    "longitude": "128.5801983686",
    "image": "http://tong.visitkorea.or.kr/cms/resource/53/709653_image2_1.jpg",
    "category": "모텔",
    "original_category": "콘도미니엄"
  },
  {
    "id": "3537664",
    "title": "미성장모텔",
    "address": "강원특별자치도 강릉시 옥천로65번길 10-2 (옥천동)",
    "phone": "",
    "latitude": "37.7591400727",
    "longitude": "128.8981635873",
    "image": "",
    "category": "모텔",
    "original_category": "콘도미니엄"
  },
  {
    "id": "3049860",
    "title": "미조탕모텔",
    "address": "경상남도 남해군 미조면 미조로14번길 6",
    "phone": "055-867-7737, 010-8741-5002",
    "latitude": "34.7126208898",
    "longitude": "128.0467945136",
    "image": "",
    "category": "모텔",
    "original_category": "콘도미니엄"
  },
  {
    "id": "1905562",
    "title": "밀라노모텔",
    "address": "제주특별자치도 서귀포시 솔동산로10번길 2",
    "phone": "064-733-5421",
    "latitude": "33.2439814775",
    "longitude": "126.5638198640",
    "image": "",
    "category": "모텔",
    "original_category": "콘도미니엄"
  },
  {
    "id": "3044606",
    "title": "바다둥지모텔&펜션",
    "address": "강원특별자치도 양양군 현북면 하조대1길 102-1",
    "phone": "010-9145-0290",
    "latitude": "38.0220589143",
    "longitude": "128.7202437187",
    "image": "http://tong.visitkorea.or.kr/cms/resource/43/3054343_image2_1.jpg",
    "category": "모텔",
    "original_category": "콘도미니엄"
  },
  {
    "id": "138486",
    "title": "바닷가모텔",
    "address": "전라남도 해남군 송지면 땅끝해안로 1354-12",
    "phone": "061-535-5757",
    "latitude": "34.3511383002",
    "longitude": "126.5204592274",
    "image": "http://tong.visitkorea.or.kr/cms/resource/01/1972201_image2_1.jpg",
    "category": "모텔",
    "original_category": "콘도미니엄"
  },
  {
    "id": "139818",
    "title": "바닷가모텔",
    "address": "강원특별자치도 양양군 강현면 해맞이길 8-17",
    "phone": "033-671-8871",
    "latitude": "38.1193208720",
    "longitude": "128.6307599091",
    "image": "",
    "category": "모텔",
    "original_category": "콘도미니엄"
  },
  {
    "id": "250596",
    "title": "발렌타인모텔",
    "address": "충청북도 충주시 동량면 동산로 54",
    "phone": "043-852-8253",
    "latitude": "37.0260375782",
    "longitude": "127.9693412292",
    "image": "http://tong.visitkorea.or.kr/cms/resource/42/1853042_image2_1.jpg",
    "category": "모텔",
    "original_category": "콘도미니엄"
  },
  {
    "id": "1138765",
    "title": "베니스모텔",
    "address": "전라남도 목포시 북항로149번길 8",
    "phone": "061-243-0588",
    "latitude": "34.8025184576",
    "longitude": "126.3679868872",
    "image": "http://tong.visitkorea.or.kr/cms/resource/08/1972208_image2_1.jpg",
    "category": "모텔",
    "original_category": "콘도미니엄"
  },
  {
    "id": "1748010",
    "title": "보보스모텔",
    "address": "인천광역시 연수구 능허대로104번길 59",
    "phone": "032-831-2141",
    "latitude": "37.4216539314",
    "longitude": "126.6389338101",
    "image": "http://tong.visitkorea.or.kr/cms/resource/15/1745615_image2_1.jpg",
    "category": "모텔",
    "original_category": "콘도미니엄"
  },
  {
    "id": "138848",
    "title": "보성관광모텔",
    "address": "전라남도 보성군 보성읍 현충로 6",
    "phone": "061-853-7474",
    "latitude": "34.7633096027",
    "longitude": "127.0745200246",
    "image": "http://tong.visitkorea.or.kr/cms/resource/48/1151048_image2_1.jpg",
    "category": "모텔",
    "original_category": "콘도미니엄"
  },
  {
    "id": "138574",
    "title": "브릿지모텔",
    "address": "부산광역시 수영구 광안해변로 155",
    "phone": "051-755-0583<br />051-755-0573",
    "latitude": "35.1487079999",
    "longitude": "129.1145593854",
    "image": "http://tong.visitkorea.or.kr/cms/resource/51/218151_image2_1.jpg",
    "category": "모텔",
    "original_category": "콘도미니엄"
  },
  {
    "id": "1932126",
    "title": "브이모텔",
    "address": "부산광역시 서구 송도해변로 201",
    "phone": "051-257-2841",
    "latitude": "35.0792362939",
    "longitude": "129.0221693171",
    "image": "http://tong.visitkorea.or.kr/cms/resource/72/1930772_image2_1.JPG",
    "category": "모텔",
    "original_category": "콘도미니엄"
  },
  {
    "id": "3540290",
    "title": "브이모텔",
    "address": "강원특별자치도 강릉시 용지각길 33 (포남동)",
    "phone": "",
    "latitude": "37.7624426320",
    "longitude": "128.9065543962",
    "image": "",
    "category": "모텔",
    "original_category": "콘도미니엄"
  },
  {
    "id": "1503294",
    "title": "브이온천모텔",
    "address": "울산광역시 울주군 상북면 알프스온천2길 10",
    "phone": "052-254-1700",
    "latitude": "35.5535452256",
    "longitude": "129.0787735261",
    "image": "http://tong.visitkorea.or.kr/cms/resource/43/1502643_image2_1.jpg",
    "category": "모텔",
    "original_category": "콘도미니엄"
  },
  {
    "id": "2569737",
    "title": "블루모텔",
    "address": "전북특별자치도 군산시 백릉안1길 9",
    "phone": "063-442-8261",
    "latitude": "35.9694394486",
    "longitude": "126.7321476209",
    "image": "",
    "category": "모텔",
    "original_category": "콘도미니엄"
  },
  {
    "id": "138559",
    "title": "블루밍모텔",
    "address": "경상남도 거제시 옥포로6길 33",
    "phone": "055-687-7238",
    "latitude": "34.8924178957",
    "longitude": "128.6954999765",
    "image": "http://tong.visitkorea.or.kr/cms/resource/55/1981355_image2_1.jpg",
    "category": "모텔",
    "original_category": "콘도미니엄"
  },
  {
    "id": "3469423",
    "title": "블루비치모텔",
    "address": "경상남도 거제시 옥포로6길 16 (옥포동)",
    "phone": "010-3557-4944",
    "latitude": "34.8908236272",
    "longitude": "128.6953583651",
    "image": "",
    "category": "모텔",
    "original_category": "콘도미니엄"
  },
  {
    "id": "1635552",
    "title": "블루원 모텔",
    "address": "전북특별자치도 전주시 덕진구 용산2길 18",
    "phone": "063-251-3385",
    "latitude": "35.8355227038",
    "longitude": "127.1316710167",
    "image": "",
    "category": "모텔",
    "original_category": "콘도미니엄"
  },
  {
    "id": "137097",
    "title": "블루힐 모텔",
    "address": "충청남도 태안군 태안읍 중앙로 227-8",
    "phone": "041-675-0166",
    "latitude": "36.7495233041",
    "longitude": "126.3126677529",
    "image": "http://tong.visitkorea.or.kr/cms/resource/26/711026_image2_1.jpg",
    "category": "모텔",
    "original_category": "콘도미니엄"
  },
  {
    "id": "3536410",
    "title": "비너스모텔",
    "address": "강원특별자치도 강릉시 율곡로2874번길 42 (교동)",
    "phone": "",
    "latitude": "37.7624674778",
    "longitude": "128.8987967607",
    "image": "",
    "category": "모텔",
    "original_category": "콘도미니엄"
  },
  {
    "id": "2595879",
    "title": "비치모텔",
    "address": "부산광역시 영도구 하리해안길 10-9 비치모텔",
    "phone": "010-2951-7230",
    "latitude": "35.0692440569",
    "longitude": "129.0813283358",
    "image": "http://tong.visitkorea.or.kr/cms/resource/64/2686464_image2_1.jpg",
    "category": "모텔",
    "original_category": "콘도미니엄"
  },
  {
    "id": "1998207",
    "title": "비치콘도모텔",
    "address": "충청남도 태안군 근흥면 신진도길 4",
    "phone": "041-675-0877",
    "latitude": "36.6785646330",
    "longitude": "126.1383020788",
    "image": "http://tong.visitkorea.or.kr/cms/resource/97/1998197_image2_1.jpg",
    "category": "모텔",
    "original_category": "콘도미니엄"
  },
  {
    "id": "3535302",
    "title": "비치힐모텔",
    "address": "강원특별자치도 강릉시 강동면 헌화로 976-4",
    "phone": "",
    "latitude": "37.6853958266",
    "longitude": "129.0407363745",
    "image": "",
    "category": "모텔",
    "original_category": "콘도미니엄"
  },
  {
    "id": "495774",
    "title": "빅토리아모텔",
    "address": "전라남도 목포시 하당남부로61번길 22",
    "phone": "061-287-1002",
    "latitude": "34.8021222906",
    "longitude": "126.4296758915",
    "image": "",
    "category": "모텔",
    "original_category": "콘도미니엄"
  },
  {
    "id": "3547776",
    "title": "사파리모텔",
    "address": "강원특별자치도 강릉시 경강로2268번길 7 (포남동)",
    "phone": "",
    "latitude": "37.7652868267",
    "longitude": "128.9105928330",
    "image": "",
    "category": "모텔",
    "original_category": "콘도미니엄"
  },
  {
    "id": "2582026",
    "title": "삼광모텔",
    "address": "전라남도 목포시 호남로 38",
    "phone": "061-242-5856",
    "latitude": "34.7945473767",
    "longitude": "126.3828746524",
    "image": "",
    "category": "모텔",
    "original_category": "콘도미니엄"
  },
  {
    "id": "1367953",
    "title": "삼미모텔",
    "address": "전라남도 고흥군 도양읍 목넘가는길 10",
    "phone": "061-844-8686",
    "latitude": "34.5277731160",
    "longitude": "127.1336373070",
    "image": "",
    "category": "모텔",
    "original_category": "콘도미니엄"
  },
  {
    "id": "3536399",
    "title": "삼부모텔",
    "address": "강원특별자치도 강릉시 강릉대로 261-6 (교동)",
    "phone": "",
    "latitude": "37.7615120157",
    "longitude": "128.8978996488",
    "image": "",
    "category": "모텔",
    "original_category": "콘도미니엄"
  },
  {
    "id": "620120",
    "title": "삼척비치모텔",
    "address": "강원특별자치도 삼척시 테마타운길 53",
    "phone": "033-576-0163",
    "latitude": "37.4675790176",
    "longitude": "129.1691010341",
    "image": "http://tong.visitkorea.or.kr/cms/resource/47/1991747_image2_1.JPG",
    "category": "모텔",
    "original_category": "콘도미니엄"
  },
  {
    "id": "641920",
    "title": "새만금모텔",
    "address": "전북특별자치도 부안군 변산면 변산로 1751",
    "phone": "063-583-2114",
    "latitude": "35.6942983083",
    "longitude": "126.5520818617",
    "image": "http://tong.visitkorea.or.kr/cms/resource/70/636370_image2_1.jpg",
    "category": "모텔",
    "original_category": "콘도미니엄"
  },
  {
    "id": "2528107",
    "title": "샤니모텔",
    "address": "전북특별자치도 부안군 동중3길 18",
    "phone": "063-584-9935",
    "latitude": "35.7284141920",
    "longitude": "126.7351424447",
    "image": "http://tong.visitkorea.or.kr/cms/resource/98/2992998_image2_1.jpg",
    "category": "모텔",
    "original_category": "콘도미니엄"
  },
  {
    "id": "725472",
    "title": "샵모텔",
    "address": "전라남도 여수시 시청동2길 22-1",
    "phone": "061-685-1901",
    "latitude": "34.7590590257",
    "longitude": "127.6638101185",
    "image": "http://tong.visitkorea.or.kr/cms/resource/10/759910_image2_1.jpg",
    "category": "모텔",
    "original_category": "콘도미니엄"
  },
  {
    "id": "1268116",
    "title": "샾모텔",
    "address": "충청남도 태안군 소원면 서해로 20-6",
    "phone": "041-672-3339",
    "latitude": "36.7840997505",
    "longitude": "126.1428100177",
    "image": "",
    "category": "모텔",
    "original_category": "콘도미니엄"
  },
  {
    "id": "3535259",
    "title": "센트럴모텔",
    "address": "강원특별자치도 강릉시 강릉대로228번길 15 (옥천동)",
    "phone": "",
    "latitude": "37.7576207699",
    "longitude": "128.8964026817",
    "image": "",
    "category": "모텔",
    "original_category": "콘도미니엄"
  },
  {
    "id": "3536413",
    "title": "셀몬모텔",
    "address": "강원특별자치도 강릉시 율곡로2874번길 33 (교동)",
    "phone": "",
    "latitude": "37.7622008249",
    "longitude": "128.8979079601",
    "image": "",
    "category": "모텔",
    "original_category": "콘도미니엄"
  },
  {
    "id": "3536900",
    "title": "소금강모텔",
    "address": "강원특별자치도 강릉시 연곡면 싸리골길 5",
    "phone": "",
    "latitude": "37.8473289602",
    "longitude": "128.7089057116",
    "image": "",
    "category": "모텔",
    "original_category": "콘도미니엄"
  },
  {
    "id": "3536424",
    "title": "솔빛모텔",
    "address": "강원특별자치도 강릉시 옥천로 66-20 (옥천동)",
    "phone": "",
    "latitude": "37.7607065726",
    "longitude": "128.8989079163",
    "image": "",
    "category": "모텔",
    "original_category": "콘도미니엄"
  },
  {
    "id": "621231",
    "title": "송이모텔",
    "address": "강원특별자치도 양양군 강현면 일출로 34",
    "phone": "033-671-4488",
    "latitude": "38.1169267103",
    "longitude": "128.6309682982",
    "image": "http://tong.visitkorea.or.kr/cms/resource/66/597066_image2_1.jpg",
    "category": "모텔",
    "original_category": "콘도미니엄"
  },
  {
    "id": "3049824",
    "title": "쇼모텔",
    "address": "경상북도 안동시 옥동3길 41-6 (옥동)",
    "phone": "054-852-8666",
    "latitude": "36.5616878070",
    "longitude": "128.7027474443",
    "image": "http://tong.visitkorea.or.kr/cms/resource/19/3059019_image2_1.jpg",
    "category": "모텔",
    "original_category": "콘도미니엄"
  },
  {
    "id": "3049883",
    "title": "수산궁모텔",
    "address": "경상북도 안동시 대안로 18 (태화동)",
    "phone": "054-854-9300",
    "latitude": "36.5652598474",
    "longitude": "128.7147573857",
    "image": "http://tong.visitkorea.or.kr/cms/resource/79/3059979_image2_1.jpg",
    "category": "모텔",
    "original_category": "콘도미니엄"
  },
  {
    "id": "2543891",
    "title": "수산모텔",
    "address": "강원특별자치도 양양군 수산1길 45-5 수산모텔",
    "phone": "033-672-7848",
    "latitude": "38.0792457743",
    "longitude": "128.6718768743",
    "image": "http://tong.visitkorea.or.kr/cms/resource/38/2690838_image2_1.jpg",
    "category": "모텔",
    "original_category": "콘도미니엄"
  },
  {
    "id": "2038218",
    "title": "쉬자모텔",
    "address": "강원특별자치도 강릉시 중기안길 17",
    "phone": "010-3488-7441",
    "latitude": "37.7617842999",
    "longitude": "128.9027019856",
    "image": "",
    "category": "모텔",
    "original_category": "콘도미니엄"
  },
  {
    "id": "3049914",
    "title": "스카이모텔",
    "address": "경상북도 안동시 석주로 211-1 (상아동)",
    "phone": "010-7475-8959",
    "latitude": "36.5783730667",
    "longitude": "128.7586003355",
    "image": "http://tong.visitkorea.or.kr/cms/resource/71/3059771_image2_1.jpg",
    "category": "모텔",
    "original_category": "콘도미니엄"
  },
  {
    "id": "1144737",
    "title": "스카이모텔(여수)",
    "address": "전라남도 여수시 교동남1길 5-5",
    "phone": "061-662-7780",
    "latitude": "34.7398429483",
    "longitude": "127.7340155761",
    "image": "http://tong.visitkorea.or.kr/cms/resource/31/1151131_image2_1.jpg",
    "category": "모텔",
    "original_category": "콘도미니엄"
  },
  {
    "id": "2582154",
    "title": "스타모텔",
    "address": "전라남도 목포시 번영로 28",
    "phone": "061-282-7010",
    "latitude": "34.8018889780",
    "longitude": "126.4293370378",
    "image": "",
    "category": "모텔",
    "original_category": "콘도미니엄"
  },
  {
    "id": "620411",
    "title": "시나브로 모텔",
    "address": "강원특별자치도 속초시 엑스포로 13",
    "phone": "033-636-5959",
    "latitude": "38.1909867418",
    "longitude": "128.5899502673",
    "image": "http://tong.visitkorea.or.kr/cms/resource/20/596120_image2_1.jpg",
    "category": "모텔",
    "original_category": "콘도미니엄"
  },
  {
    "id": "3469425",
    "title": "시대장모텔",
    "address": "강원특별자치도 태백시 먹거리길 26 (황지동)",
    "phone": "010-9258-3848",
    "latitude": "37.1764589430",
    "longitude": "128.9863234756",
    "image": "",
    "category": "모텔",
    "original_category": "콘도미니엄"
  },
  {
    "id": "3535269",
    "title": "시드니모텔(구 피크닉모텔)",
    "address": "강원특별자치도 강릉시 강릉대로 84 (홍제동)",
    "phone": "",
    "latitude": "37.7538736825",
    "longitude": "128.8810875106",
    "image": "",
    "category": "모텔",
    "original_category": "콘도미니엄"
  },
  {
    "id": "3532543",
    "title": "신리모텔",
    "address": "강원특별자치도 강릉시 주문진읍 해안2길 6-1",
    "phone": "",
    "latitude": "37.8847269050",
    "longitude": "128.8260273121",
    "image": "",
    "category": "모텔",
    "original_category": "콘도미니엄"
  },
  {
    "id": "3547821",
    "title": "신아모텔",
    "address": "강원특별자치도 강릉시 주문진읍 주문로 128",
    "phone": "",
    "latitude": "37.8944980499",
    "longitude": "128.8288684188",
    "image": "",
    "category": "모텔",
    "original_category": "콘도미니엄"
  },
  {
    "id": "3547789",
    "title": "썸모텔",
    "address": "강원특별자치도 강릉시 정원로 60 (교동)",
    "phone": "",
    "latitude": "37.7626308886",
    "longitude": "128.8752322115",
    "image": "",
    "category": "모텔",
    "original_category": "콘도미니엄"
  },
  {
    "id": "2569975",
    "title": "쏠모텔",
    "address": "전북특별자치도 군산시 상나운3길 11",
    "phone": "063-468-4482",
    "latitude": "35.9636533117",
    "longitude": "126.6919624750",
    "image": "",
    "category": "모텔",
    "original_category": "콘도미니엄"
  },
  {
    "id": "136578",
    "title": "씨엘모텔(CL모텔)",
    "address": "서울특별시 강서구 강서로5나길 136",
    "phone": "02-2692-8866",
    "latitude": "37.5283923241",
    "longitude": "126.8405846688",
    "image": "http://tong.visitkorea.or.kr/cms/resource/44/1867544_image2_1.jpg",
    "category": "모텔",
    "original_category": "콘도미니엄"
  },
  {
    "id": "3049320",
    "title": "아네뜨모텔",
    "address": "경상남도 고성군 고성읍 남해안대로 2205",
    "phone": "0502-1391-3533",
    "latitude": "34.9425698647",
    "longitude": "128.3443125771",
    "image": "",
    "category": "모텔",
    "original_category": "콘도미니엄"
  },
  {
    "id": "1267838",
    "title": "아드리아모텔",
    "address": "충청남도 태안군 소원면 만리포1길 9",
    "phone": "041-672-6711",
    "latitude": "36.7844080400",
    "longitude": "126.1423156104",
    "image": "",
    "category": "모텔",
    "original_category": "콘도미니엄"
  },
  {
    "id": "1764617",
    "title": "아비숑모텔",
    "address": "경기도 동두천시 강변로94번길 6",
    "phone": "031-864-2003",
    "latitude": "37.8792108585",
    "longitude": "127.0531108275",
    "image": "",
    "category": "모텔",
    "original_category": "콘도미니엄"
  },
  {
    "id": "2517013",
    "title": "아산 웨스턴모텔",
    "address": "충청남도 아산시 음봉면 아산온천로243번길 96",
    "phone": "041-541-0570",
    "latitude": "36.8554672211",
    "longitude": "126.9852457507",
    "image": "http://tong.visitkorea.or.kr/cms/resource/96/2516996_image2_1.jpg",
    "category": "모텔",
    "original_category": "콘도미니엄"
  },
  {
    "id": "1848277",
    "title": "아이리스모텔",
    "address": "강원특별자치도 속초시 동해대로 3887",
    "phone": "033-638-3688",
    "latitude": "38.1822462995",
    "longitude": "128.6005940177",
    "image": "",
    "category": "모텔",
    "original_category": "콘도미니엄"
  },
  {
    "id": "3539408",
    "title": "안인장모텔 (안인모텔)",
    "address": "강원특별자치도 강릉시 강동면 안인진길 19",
    "phone": "",
    "latitude": "37.7343863540",
    "longitude": "128.9879090519",
    "image": "",
    "category": "모텔",
    "original_category": "콘도미니엄"
  },
  {
    "id": "681597",
    "title": "알프스모텔",
    "address": "강원특별자치도 태백시 서황지로 16-11",
    "phone": "033-552-2620",
    "latitude": "37.1731871612",
    "longitude": "128.9896704973",
    "image": "http://tong.visitkorea.or.kr/cms/resource/95/684995_image2_1.jpg",
    "category": "모텔",
    "original_category": "콘도미니엄"
  },
  {
    "id": "820041",
    "title": "알프스온천모텔",
    "address": "울산광역시 울주군 상북면 알프스온천2길 9",
    "phone": "010-3252-4751",
    "latitude": "35.5536063454",
    "longitude": "129.0796067849",
    "image": "http://tong.visitkorea.or.kr/cms/resource/84/1215884_image2_1.jpg",
    "category": "모텔",
    "original_category": "콘도미니엄"
  },
  {
    "id": "495898",
    "title": "앙상블모텔",
    "address": "충청남도 공주시 전막1길 6-35",
    "phone": "041-854-9922",
    "latitude": "36.4702501517",
    "longitude": "127.1289349493",
    "image": "http://tong.visitkorea.or.kr/cms/resource/27/1871627_image2_1.jpg",
    "category": "모텔",
    "original_category": "콘도미니엄"
  },
  {
    "id": "136422",
    "title": "애플모텔",
    "address": "광주광역시 서구 월드컵4강로181번길 35-1",
    "phone": "062-382-7540",
    "latitude": "35.1520095234",
    "longitude": "126.8654010129",
    "image": "http://tong.visitkorea.or.kr/cms/resource/74/742974_image2_1.jpg",
    "category": "모텔",
    "original_category": "콘도미니엄"
  },
  {
    "id": "1855164",
    "title": "양구 테마모텔",
    "address": "강원특별자치도 양구군 양구읍 사명길 84-10",
    "phone": "033-482-3113",
    "latitude": "38.1059128904",
    "longitude": "127.9889853378",
    "image": "",
    "category": "모텔",
    "original_category": "콘도미니엄"
  },
  {
    "id": "620477",
    "title": "에이스모텔",
    "address": "강원특별자치도 속초시 중앙로 445",
    "phone": "033-636-3626",
    "latitude": "38.2268408186",
    "longitude": "128.5856912001",
    "image": "http://tong.visitkorea.or.kr/cms/resource/64/596164_image2_1.jpg",
    "category": "모텔",
    "original_category": "콘도미니엄"
  },
  {
    "id": "3532545",
    "title": "에이스모텔",
    "address": "강원특별자치도 강릉시 율곡로2874번길 44 (교동)",
    "phone": "",
    "latitude": "37.7625563579",
    "longitude": "128.8988745287",
    "image": "",
    "category": "모텔",
    "original_category": "콘도미니엄"
  },
  {
    "id": "3049857",
    "title": "에이치모텔",
    "address": "경상북도 안동시 강남14길 76 (정상동)",
    "phone": "010-2212-5496",
    "latitude": "36.5492676358",
    "longitude": "128.7363864839",
    "image": "http://tong.visitkorea.or.kr/cms/resource/04/3059304_image2_1.jpg",
    "category": "모텔",
    "original_category": "콘도미니엄"
  },
  {
    "id": "3535323",
    "title": "에쿠스모텔",
    "address": "강원특별자치도 강릉시 홍제로85번길 34 (홍제동)",
    "phone": "",
    "latitude": "37.7533209621",
    "longitude": "128.8807486691",
    "image": "",
    "category": "모텔",
    "original_category": "콘도미니엄"
  },
  {
    "id": "138575",
    "title": "엘리제모텔",
    "address": "부산광역시 중구 대청로126번길 22",
    "phone": "051-241-4008",
    "latitude": "35.1009951881",
    "longitude": "129.0340176940",
    "image": "http://tong.visitkorea.or.kr/cms/resource/85/1899085_image2_1.jpg",
    "category": "모텔",
    "original_category": "콘도미니엄"
  },
  {
    "id": "3538535",
    "title": "엘마르모텔",
    "address": "강원특별자치도 강릉시 창해로 23 (견소동)",
    "phone": "",
    "latitude": "37.7740114782",
    "longitude": "128.9444367362",
    "image": "",
    "category": "모텔",
    "original_category": "콘도미니엄"
  },
  {
    "id": "2582398",
    "title": "엠모텔",
    "address": "전라남도 목포시 호남로64번길 13",
    "phone": "061-244-1717",
    "latitude": "34.7930392544",
    "longitude": "126.3853966882",
    "image": "",
    "category": "모텔",
    "original_category": "콘도미니엄"
  },
  {
    "id": "3539766",
    "title": "엠모텔",
    "address": "강원특별자치도 강릉시 강동면 산성우리길 13",
    "phone": "",
    "latitude": "37.6790295693",
    "longitude": "129.0240464053",
    "image": "",
    "category": "모텔",
    "original_category": "콘도미니엄"
  },
  {
    "id": "2021025",
    "title": "엠버서더 모텔",
    "address": "전라남도 순천시 상사호길 130",
    "phone": "061-745-4422",
    "latitude": "34.9215486170",
    "longitude": "127.4730866028",
    "image": "",
    "category": "모텔",
    "original_category": "콘도미니엄"
  },
  {
    "id": "2582407",
    "title": "엠보스모텔",
    "address": "전라남도 목포시 장미로 79",
    "phone": "061-285-2211",
    "latitude": "34.8043303704",
    "longitude": "126.4293814194",
    "image": "",
    "category": "모텔",
    "original_category": "콘도미니엄"
  },
  {
    "id": "1963992",
    "title": "엠유(MU)모텔",
    "address": "전라남도 목포시 옥암로54번길 41",
    "phone": "061-282-3666",
    "latitude": "34.8062802052",
    "longitude": "126.4326866363",
    "image": "",
    "category": "모텔",
    "original_category": "콘도미니엄"
  },
  {
    "id": "725524",
    "title": "여천모텔",
    "address": "전라남도 여수시 시청동2길 36",
    "phone": "061-685-8051",
    "latitude": "34.7578647010",
    "longitude": "127.6629879988",
    "image": "http://tong.visitkorea.or.kr/cms/resource/10/727010_image2_1.jpg",
    "category": "모텔",
    "original_category": "콘도미니엄"
  },
  {
    "id": "3049904",
    "title": "연모텔",
    "address": "경상북도 안동시 서부시장2길 55 (태화동)",
    "phone": "010-6641-5636",
    "latitude": "36.5659348037",
    "longitude": "128.7165210984",
    "image": "http://tong.visitkorea.or.kr/cms/resource/51/3060051_image2_1.jpg",
    "category": "모텔",
    "original_category": "콘도미니엄"
  },
  {
    "id": "2570237",
    "title": "예스모텔",
    "address": "전북특별자치도 군산시 가도안1길 61",
    "phone": "063-464-6081",
    "latitude": "35.9466919480",
    "longitude": "126.5633855268",
    "image": "",
    "category": "모텔",
    "original_category": "콘도미니엄"
  },
  {
    "id": "3049906",
    "title": "오렌지모텔",
    "address": "강원특별자치도 양양군 강현면 물치1길 22-1",
    "phone": "010-5612-5510",
    "latitude": "38.1549857190",
    "longitude": "128.6076247852",
    "image": "http://tong.visitkorea.or.kr/cms/resource/99/3059099_image2_1.jpg",
    "category": "모텔",
    "original_category": "콘도미니엄"
  },
  {
    "id": "3474180",
    "title": "오렌지모텔",
    "address": "경상북도 포항시 남구 오천읍 원동로131번길 6-10",
    "phone": "",
    "latitude": "35.9751232200",
    "longitude": "129.4016555109",
    "image": "",
    "category": "모텔",
    "original_category": "콘도미니엄"
  },
  {
    "id": "3539761",
    "title": "오아시스모텔",
    "address": "강원특별자치도 강릉시 강동면 헌화로 899",
    "phone": "",
    "latitude": "37.6795770836",
    "longitude": "129.0422475308",
    "image": "",
    "category": "모텔",
    "original_category": "콘도미니엄"
  },
  {
    "id": "496377",
    "title": "오즈모텔",
    "address": "강원특별자치도 횡성군 횡성읍 앞들동남로 7",
    "phone": "033-345-4100",
    "latitude": "37.4856820511",
    "longitude": "127.9848570217",
    "image": "http://tong.visitkorea.or.kr/cms/resource/21/1816221_image2_1.jpg",
    "category": "모텔",
    "original_category": "콘도미니엄"
  },
  {
    "id": "2570308",
    "title": "오케이모텔",
    "address": "전북특별자치도 군산시 백릉안5길 59",
    "phone": "063-446-6600",
    "latitude": "35.9702643621",
    "longitude": "126.7325808941",
    "image": "",
    "category": "모텔",
    "original_category": "콘도미니엄"
  },
  {
    "id": "2578282",
    "title": "오페라 모텔",
    "address": "경상남도 통영시 광도면 죽림5로 25-25",
    "phone": "0507-1361-5315",
    "latitude": "34.8869024578",
    "longitude": "128.4205046198",
    "image": "",
    "category": "모텔",
    "original_category": "콘도미니엄"
  },
  {
    "id": "250593",
    "title": "오페라모텔",
    "address": "전라남도 여수시 돌산읍 강남1길 39-17",
    "phone": "061-644-5005",
    "latitude": "34.7198315759",
    "longitude": "127.7499341373",
    "image": "http://tong.visitkorea.or.kr/cms/resource/24/826124_image2_1.jpg",
    "category": "모텔",
    "original_category": "콘도미니엄"
  },
  {
    "id": "137799",
    "title": "온천모텔사우나",
    "address": "경상남도 하동군 화개면 화개로 413",
    "phone": "010-3866-2694",
    "latitude": "35.2207955842",
    "longitude": "127.6383088482",
    "image": "",
    "category": "모텔",
    "original_category": "콘도미니엄"
  },
  {
    "id": "3532464",
    "title": "올인모텔",
    "address": "강원특별자치도 강릉시 중앙시장2길 10-6 (성남동)",
    "phone": "",
    "latitude": "37.7515992406",
    "longitude": "128.8962528812",
    "image": "",
    "category": "모텔",
    "original_category": "콘도미니엄"
  },
  {
    "id": "2019448",
    "title": "워싱턴모텔",
    "address": "전라남도 목포시 평화로83번길 3-2",
    "phone": "061-283-7781",
    "latitude": "34.7972006755",
    "longitude": "126.4329146128",
    "image": "",
    "category": "모텔",
    "original_category": "콘도미니엄"
  },
  {
    "id": "3532232",
    "title": "워싱턴모텔",
    "address": "강원특별자치도 강릉시 홍제로85번길 14 (홍제동)",
    "phone": "",
    "latitude": "37.7545403002",
    "longitude": "128.8825290268",
    "image": "",
    "category": "모텔",
    "original_category": "콘도미니엄"
  },
  {
    "id": "816294",
    "title": "원모텔",
    "address": "강원특별자치도 원주시 현충로 20-7",
    "phone": "033-732-0100",
    "latitude": "37.3579768373",
    "longitude": "127.9561911307",
    "image": "http://tong.visitkorea.or.kr/cms/resource/72/819672_image2_1.jpg",
    "category": "모텔",
    "original_category": "콘도미니엄"
  },
  {
    "id": "137321",
    "title": "위너스모텔",
    "address": "강원특별자치도 속초시 먹거리2길 33",
    "phone": "0507-1383-3838",
    "latitude": "38.1939555814",
    "longitude": "128.5766069419",
    "image": "http://tong.visitkorea.or.kr/cms/resource/10/735310_image2_1.jpg",
    "category": "모텔",
    "original_category": "콘도미니엄"
  },
  {
    "id": "598461",
    "title": "위너스모텔",
    "address": "강원특별자치도 강릉시 주문진읍 해안로 1725-3",
    "phone": "0507-1334-8046",
    "latitude": "37.8890931048",
    "longitude": "128.8280547711",
    "image": "",
    "category": "모텔",
    "original_category": "콘도미니엄"
  },
  {
    "id": "137953",
    "title": "이그니스모텔(구 맨하탄모텔)",
    "address": "부산광역시 동래구 중앙대로1473번길 14-13",
    "phone": "051-557-4450",
    "latitude": "35.2181857451",
    "longitude": "129.0829824485",
    "image": "http://tong.visitkorea.or.kr/cms/resource/69/1899069_image2_1.jpg",
    "category": "모텔",
    "original_category": "콘도미니엄"
  },
  {
    "id": "681455",
    "title": "이지스모텔",
    "address": "강원특별자치도 태백시 서황지로 88",
    "phone": "033-553-9980",
    "latitude": "37.1767227498",
    "longitude": "128.9836292639",
    "image": "http://tong.visitkorea.or.kr/cms/resource/81/684881_image2_1.jpg",
    "category": "모텔",
    "original_category": "콘도미니엄"
  },
  {
    "id": "3044630",
    "title": "장평모텔",
    "address": "강원특별자치도 평창군 용평면 금송길 15-7",
    "phone": "033-333-7100",
    "latitude": "37.5855924626",
    "longitude": "128.4131126044",
    "image": "",
    "category": "모텔",
    "original_category": "콘도미니엄"
  },
  {
    "id": "2040229",
    "title": "전주 아리울모텔",
    "address": "전북특별자치도 전주시 덕진구 가리내로 29-2",
    "phone": "063-251-5436",
    "latitude": "35.8338756866",
    "longitude": "127.1326904135",
    "image": "",
    "category": "모텔",
    "original_category": "콘도미니엄"
  },
  {
    "id": "3535304",
    "title": "정동진모텔",
    "address": "강원특별자치도 강릉시 강동면 헌화로 1007-13",
    "phone": "",
    "latitude": "37.6853763235",
    "longitude": "129.0376199888",
    "image": "",
    "category": "모텔",
    "original_category": "콘도미니엄"
  },
  {
    "id": "3539720",
    "title": "정동휘닉스모텔",
    "address": "강원특별자치도 강릉시 강동면 헌화로 1007-15",
    "phone": "",
    "latitude": "37.6852291131",
    "longitude": "129.0373366853",
    "image": "",
    "category": "모텔",
    "original_category": "콘도미니엄"
  },
  {
    "id": "725539",
    "title": "제우스모텔",
    "address": "전라남도 여수시 봉산남7길 13",
    "phone": "061-641-1122",
    "latitude": "34.7326074738",
    "longitude": "127.7239888590",
    "image": "http://tong.visitkorea.or.kr/cms/resource/40/727040_image2_1.jpg",
    "category": "모텔",
    "original_category": "콘도미니엄"
  },
  {
    "id": "3049859",
    "title": "제이모텔",
    "address": "경상남도 남해군 남해읍 화전로38번길 25",
    "phone": "010-6358-3558",
    "latitude": "34.8370820786",
    "longitude": "127.8949545733",
    "image": "",
    "category": "모텔",
    "original_category": "콘도미니엄"
  },
  {
    "id": "690104",
    "title": "제일모텔",
    "address": "충청남도 태안군 원북면 옥파로 1147",
    "phone": "041-674-7221",
    "latitude": "36.8970460880",
    "longitude": "126.2048625183",
    "image": "http://tong.visitkorea.or.kr/cms/resource/82/1897082_image2_1.jpg",
    "category": "모텔",
    "original_category": "콘도미니엄"
  },
  {
    "id": "620493",
    "title": "조광모텔",
    "address": "강원특별자치도 속초시 청초호반로 301",
    "phone": "033-636-0338",
    "latitude": "38.2021021210",
    "longitude": "128.5902915557",
    "image": "http://tong.visitkorea.or.kr/cms/resource/90/709790_image2_1.jpg",
    "category": "모텔",
    "original_category": "콘도미니엄"
  },
  {
    "id": "1366960",
    "title": "종점모텔펜션",
    "address": "전라남도 여수시 돌산읍 향일암로 134",
    "phone": "061-644-4737",
    "latitude": "34.5987904204",
    "longitude": "127.7996967499",
    "image": "",
    "category": "모텔",
    "original_category": "콘도미니엄"
  },
  {
    "id": "2583156",
    "title": "지중해모텔",
    "address": "전라남도 목포시 평화로 65-6",
    "phone": "061-284-7733",
    "latitude": "34.7967479362",
    "longitude": "126.4321063618",
    "image": "",
    "category": "모텔",
    "original_category": "콘도미니엄"
  },
  {
    "id": "620529",
    "title": "청초비치 모텔",
    "address": "강원특별자치도 속초시 동해대로 4092",
    "phone": "033-636-6071~2",
    "latitude": "38.1900617990",
    "longitude": "128.5873533097",
    "image": "http://tong.visitkorea.or.kr/cms/resource/94/217894_image2_1.jpg",
    "category": "모텔",
    "original_category": "콘도미니엄"
  },
  {
    "id": "3049908",
    "title": "청해장 모텔",
    "address": "강원특별자치도 양양군 양양읍 서원길 8",
    "phone": "010-6225-7673",
    "latitude": "38.1097498128",
    "longitude": "128.6333266414",
    "image": "http://tong.visitkorea.or.kr/cms/resource/29/3060129_image2_1.jpg",
    "category": "모텔",
    "original_category": "콘도미니엄"
  },
  {
    "id": "319567",
    "title": "체리모텔",
    "address": "광주광역시 서구 상무연하로 45",
    "phone": "062-385-8888",
    "latitude": "35.1523342269",
    "longitude": "126.8499579261",
    "image": "http://tong.visitkorea.or.kr/cms/resource/87/1885687_image2_1.jpg",
    "category": "모텔",
    "original_category": "콘도미니엄"
  },
  {
    "id": "725559",
    "title": "카라모텔",
    "address": "전라남도 여수시 무선6길 42-4",
    "phone": "061-692-2877",
    "latitude": "34.7758819142",
    "longitude": "127.6506802851",
    "image": "http://tong.visitkorea.or.kr/cms/resource/55/727055_image2_1.jpg",
    "category": "모텔",
    "original_category": "콘도미니엄"
  },
  {
    "id": "3547640",
    "title": "캣츠모텔",
    "address": "강원특별자치도 강릉시 하슬라로 150 (교동)",
    "phone": "",
    "latitude": "37.7632752464",
    "longitude": "128.8746155812",
    "image": "",
    "category": "모텔",
    "original_category": "콘도미니엄"
  },
  {
    "id": "3539959",
    "title": "코리아모텔",
    "address": "강원특별자치도 강릉시 주문진읍 신리천로 36",
    "phone": "",
    "latitude": "37.8846769299",
    "longitude": "128.8270105585",
    "image": "",
    "category": "모텔",
    "original_category": "콘도미니엄"
  },
  {
    "id": "3469650",
    "title": "코지모텔",
    "address": "경기도 이천시 부발읍 경충대로2285번길 31",
    "phone": "0503-5051-9153",
    "latitude": "37.2632011060",
    "longitude": "127.4721320408",
    "image": "",
    "category": "모텔",
    "original_category": "콘도미니엄"
  },
  {
    "id": "3469426",
    "title": "퀸모텔",
    "address": "경상남도 거제시 옥포로2길 39-2 (옥포동)",
    "phone": "0503-5059-1438",
    "latitude": "34.8918818979",
    "longitude": "128.6984302918",
    "image": "",
    "category": "모텔",
    "original_category": "콘도미니엄"
  },
  {
    "id": "627320",
    "title": "큐모텔",
    "address": "강원특별자치도 춘천시 춘천로186번길 10",
    "phone": "033-256-4334",
    "latitude": "37.8758265627",
    "longitude": "127.7345904121",
    "image": "http://tong.visitkorea.or.kr/cms/resource/92/588892_image2_1.jpg",
    "category": "모텔",
    "original_category": "콘도미니엄"
  },
  {
    "id": "2570473",
    "title": "크로바모텔",
    "address": "전북특별자치도 군산시 부곡3길 15-5",
    "phone": "063-461-6222",
    "latitude": "35.9617257224",
    "longitude": "126.6901182454",
    "image": "",
    "category": "모텔",
    "original_category": "콘도미니엄"
  },
  {
    "id": "3044641",
    "title": "크리스탈모텔",
    "address": "충청남도 아산시 음봉면 아산온천로157번길 7-9",
    "phone": "041-541-8001",
    "latitude": "36.8560836212",
    "longitude": "126.9741800660",
    "image": "",
    "category": "모텔",
    "original_category": "콘도미니엄"
  },
  {
    "id": "3049898",
    "title": "크리스탈모텔",
    "address": "경상남도 거제시 장승포로2길 29 (장승포동)",
    "phone": "010-8937-0304",
    "latitude": "34.8676351485",
    "longitude": "128.7283616684",
    "image": "http://tong.visitkorea.or.kr/cms/resource/18/3060118_image2_1.jpg",
    "category": "모텔",
    "original_category": "콘도미니엄"
  },
  {
    "id": "3534459",
    "title": "타워텔, 타워모텔",
    "address": "강원특별자치도 강릉시 성덕포남로153번길 8 (포남동)",
    "phone": "",
    "latitude": "37.7657867660",
    "longitude": "128.9104567183",
    "image": "",
    "category": "모텔",
    "original_category": "콘도미니엄"
  },
  {
    "id": "2571003",
    "title": "타임모텔",
    "address": "울산광역시 중구 학성로 147",
    "phone": "010-7328-7962",
    "latitude": "35.5565662058",
    "longitude": "129.3270517578",
    "image": "",
    "category": "모텔",
    "original_category": "콘도미니엄"
  },
  {
    "id": "1908596",
    "title": "탑모텔",
    "address": "부산광역시 동구 중앙대로196번길 12-15",
    "phone": "051-462-3755",
    "latitude": "35.1132967050",
    "longitude": "129.0403584742",
    "image": "http://tong.visitkorea.or.kr/cms/resource/20/1958020_image2_1.JPG",
    "category": "모텔",
    "original_category": "콘도미니엄"
  },
  {
    "id": "2720873",
    "title": "태기산장모텔",
    "address": "강원특별자치도 횡성군 둔내면 경강로둔방11길 8",
    "phone": "",
    "latitude": "37.5177409577",
    "longitude": "128.2128882557",
    "image": "http://tong.visitkorea.or.kr/cms/resource/61/2720861_image2_1.jpg",
    "category": "모텔",
    "original_category": "콘도미니엄"
  },
  {
    "id": "137315",
    "title": "태평모텔",
    "address": "전라남도 진도군 진도읍 남동1길 65",
    "phone": "061-542-7000",
    "latitude": "34.4808835114",
    "longitude": "126.2655591346",
    "image": "http://tong.visitkorea.or.kr/cms/resource/56/1972256_image2_1.jpg",
    "category": "모텔",
    "original_category": "콘도미니엄"
  },
  {
    "id": "627386",
    "title": "테마모텔",
    "address": "강원특별자치도 춘천시 방송길36번길 73-10",
    "phone": "033-254-0355<br />033-254-0356",
    "latitude": "37.8734626086",
    "longitude": "127.7163449206",
    "image": "http://tong.visitkorea.or.kr/cms/resource/09/589009_image2_1.jpg",
    "category": "모텔",
    "original_category": "콘도미니엄"
  },
  {
    "id": "3049826",
    "title": "톰지모텔",
    "address": "경상남도 진주시 순환로559번길 10-4 (평거동)",
    "phone": "010-4840-3947",
    "latitude": "35.1738110485",
    "longitude": "128.0585398220",
    "image": "http://tong.visitkorea.or.kr/cms/resource/09/3059209_image2_1.jpg",
    "category": "모텔",
    "original_category": "콘도미니엄"
  },
  {
    "id": "595795",
    "title": "통영 퀸모텔",
    "address": "경상남도 통영시 통영해안로 285",
    "phone": "",
    "latitude": "34.8414159645",
    "longitude": "128.4252776227",
    "image": "http://tong.visitkorea.or.kr/cms/resource/39/3577339_image2_1.jpg",
    "category": "모텔",
    "original_category": "콘도미니엄"
  },
  {
    "id": "725614",
    "title": "트윈스모텔",
    "address": "전라남도 여수시 둔덕3길 12",
    "phone": "061-653-3200",
    "latitude": "34.7680670064",
    "longitude": "127.7017399040",
    "image": "http://tong.visitkorea.or.kr/cms/resource/40/727240_image2_1.jpg",
    "category": "모텔",
    "original_category": "콘도미니엄"
  },
  {
    "id": "620133",
    "title": "티오피모텔",
    "address": "강원특별자치도 삼척시 중앙시장2길 32",
    "phone": "033-574-8858",
    "latitude": "37.4433456633",
    "longitude": "129.1674185975",
    "image": "http://tong.visitkorea.or.kr/cms/resource/84/2487984_image2_1.jpg",
    "category": "모텔",
    "original_category": "콘도미니엄"
  },
  {
    "id": "658851",
    "title": "티파니모텔",
    "address": "강원특별자치도 횡성군 둔내면 고원남로 141",
    "phone": "033-344-2274",
    "latitude": "37.4977793259",
    "longitude": "128.2101640956",
    "image": "http://tong.visitkorea.or.kr/cms/resource/76/825076_image2_1.jpg",
    "category": "모텔",
    "original_category": "콘도미니엄"
  },
  {
    "id": "3049822",
    "title": "파라곤모텔",
    "address": "경상남도 거제시 옥포로4길 35 (옥포동)",
    "phone": "010-4018-3466",
    "latitude": "34.8920374020",
    "longitude": "128.6965526731",
    "image": "http://tong.visitkorea.or.kr/cms/resource/07/3059007_image2_1.jpg",
    "category": "모텔",
    "original_category": "콘도미니엄"
  },
  {
    "id": "2580562",
    "title": "파라다이스모텔",
    "address": "경상남도 통영시 안개2길 18",
    "phone": "055-644-9688",
    "latitude": "34.8583308215",
    "longitude": "128.4298712226",
    "image": "",
    "category": "모텔",
    "original_category": "콘도미니엄"
  },
  {
    "id": "3049901",
    "title": "파라오 모텔",
    "address": "경상남도 거제시 서문로6길 17 (고현동)",
    "phone": "010-9322-0043",
    "latitude": "34.8875754399",
    "longitude": "128.6217731862",
    "image": "",
    "category": "모텔",
    "original_category": "콘도미니엄"
  },
  {
    "id": "2582882",
    "title": "파라오모텔",
    "address": "전라남도 목포시 통일대로 60",
    "phone": "061-285-3091",
    "latitude": "34.7994837243",
    "longitude": "126.4312230406",
    "image": "",
    "category": "모텔",
    "original_category": "콘도미니엄"
  },
  {
    "id": "2570400",
    "title": "파이체르(구 짬모텔)",
    "address": "전북특별자치도 군산시 미원1길 9",
    "phone": "063-442-9337",
    "latitude": "35.9804656949",
    "longitude": "126.7161820966",
    "image": "",
    "category": "모텔",
    "original_category": "콘도미니엄"
  },
  {
    "id": "1681319",
    "title": "파인모텔",
    "address": "충청남도 보령시 해수욕장2길 9",
    "phone": "041-931-7172<br />041-931-7174",
    "latitude": "36.3052390351",
    "longitude": "126.5180580960",
    "image": "",
    "category": "모텔",
    "original_category": "콘도미니엄"
  },
  {
    "id": "3537663",
    "title": "팔레스모텔",
    "address": "강원특별자치도 강릉시 옥천로 68 (옥천동)",
    "phone": "033-647-7157",
    "latitude": "37.7600705267",
    "longitude": "128.8984663091",
    "image": "",
    "category": "모텔",
    "original_category": "콘도미니엄"
  },
  {
    "id": "681618",
    "title": "패스텔모텔",
    "address": "강원특별자치도 태백시 서황지로 16-8 (황지동)",
    "phone": "033-553-1881",
    "latitude": "37.1729649679",
    "longitude": "128.9898510439",
    "image": "http://tong.visitkorea.or.kr/cms/resource/73/3342473_image2_1.jpg",
    "category": "모텔",
    "original_category": "콘도미니엄"
  },
  {
    "id": "1834278",
    "title": "폭시모텔",
    "address": "부산광역시 해운대구 구남로18번길 35",
    "phone": "051-744-1006",
    "latitude": "35.1612518506",
    "longitude": "129.1583441226",
    "image": "http://tong.visitkorea.or.kr/cms/resource/05/1834305_image2_1.JPG",
    "category": "모텔",
    "original_category": "콘도미니엄"
  },
  {
    "id": "3469670",
    "title": "퐁네프모텔",
    "address": "경상북도 포항시 남구 희망대로659번길 19 (대잠동)",
    "phone": "0503-5050-0614",
    "latitude": "36.0126679259",
    "longitude": "129.3465620360",
    "image": "",
    "category": "모텔",
    "original_category": "콘도미니엄"
  },
  {
    "id": "3044645",
    "title": "프라다모텔",
    "address": "경상남도 거제시 장평로 72 (장평동)",
    "phone": "055-636-7772, 055-636-7773",
    "latitude": "34.8913275791",
    "longitude": "128.6096047007",
    "image": "http://tong.visitkorea.or.kr/cms/resource/66/3055266_image2_1.jpg",
    "category": "모텔",
    "original_category": "콘도미니엄"
  },
  {
    "id": "2582915",
    "title": "플러스모텔",
    "address": "전라남도 목포시 신흥로69번길 18",
    "phone": "061-285-1066",
    "latitude": "34.8057107346",
    "longitude": "126.4271871361",
    "image": "",
    "category": "모텔",
    "original_category": "콘도미니엄"
  },
  {
    "id": "3540179",
    "title": "피크닉모텔",
    "address": "강원특별자치도 강릉시 홍제로85번길 24 (홍제동)",
    "phone": "",
    "latitude": "37.7539486802",
    "longitude": "128.8814124790",
    "image": "",
    "category": "모텔",
    "original_category": "콘도미니엄"
  },
  {
    "id": "2019344",
    "title": "필모텔",
    "address": "인천광역시 부평구 백범로442번길 17-2",
    "phone": "032-429-0191",
    "latitude": "37.4691606435",
    "longitude": "126.7024211460",
    "image": "",
    "category": "모텔",
    "original_category": "콘도미니엄"
  },
  {
    "id": "3049862",
    "title": "하얀 모텔",
    "address": "서울특별시 동대문구 장한로 31 (장안동)",
    "phone": "02-2246-3399",
    "latitude": "37.5643477429",
    "longitude": "127.0661436539",
    "image": "http://tong.visitkorea.or.kr/cms/resource/30/3059530_image2_1.jpg",
    "category": "모텔",
    "original_category": "콘도미니엄"
  },
  {
    "id": "3044646",
    "title": "하얀성모텔",
    "address": "경상북도 안동시 광명로 178 (옥동)",
    "phone": "054-858-5700",
    "latitude": "36.5629515457",
    "longitude": "128.7024141043",
    "image": "http://tong.visitkorea.or.kr/cms/resource/08/3054908_image2_1.jpg",
    "category": "모텔",
    "original_category": "콘도미니엄"
  },
  {
    "id": "495941",
    "title": "하우트모텔",
    "address": "전라남도 화순군 도곡면 온천1길 18-15",
    "phone": "061-379-1700",
    "latitude": "35.0290296492",
    "longitude": "126.9064865621",
    "image": "http://tong.visitkorea.or.kr/cms/resource/71/1972271_image2_1.jpg",
    "category": "모텔",
    "original_category": "콘도미니엄"
  },
  {
    "id": "3534515",
    "title": "하이모텔",
    "address": "강원특별자치도 강릉시 동부시장길 39 (옥천동)",
    "phone": "",
    "latitude": "37.7615092941",
    "longitude": "128.9007688349",
    "image": "",
    "category": "모텔",
    "original_category": "콘도미니엄"
  },
  {
    "id": "1746290",
    "title": "하이텔모텔",
    "address": "경기도 여주시 강변북로 69 (오학동)",
    "phone": "",
    "latitude": "37.3027163130",
    "longitude": "127.6422905256",
    "image": "http://tong.visitkorea.or.kr/cms/resource/75/3523375_image2_1.jpg",
    "category": "모텔",
    "original_category": "콘도미니엄"
  },
  {
    "id": "620771",
    "title": "해맞이모텔",
    "address": "강원특별자치도 속초시 영금정로 34",
    "phone": "033-637-0009",
    "latitude": "38.2122178056",
    "longitude": "128.6003097739",
    "image": "http://tong.visitkorea.or.kr/cms/resource/39/1816239_image2_1.jpg",
    "category": "모텔",
    "original_category": "콘도미니엄"
  },
  {
    "id": "3539522",
    "title": "해맞이모텔",
    "address": "강원특별자치도 강릉시 강동면 율곡로 1847-21",
    "phone": "",
    "latitude": "37.7326810119",
    "longitude": "128.9887340303",
    "image": "",
    "category": "모텔",
    "original_category": "콘도미니엄"
  },
  {
    "id": "136726",
    "title": "해양모텔",
    "address": "전라남도 목포시 통일대로 11-1",
    "phone": "061-282-9172",
    "latitude": "34.7979254845",
    "longitude": "126.4262401853",
    "image": "http://tong.visitkorea.or.kr/cms/resource/83/1972283_image2_1.jpg",
    "category": "모텔",
    "original_category": "콘도미니엄"
  },
  {
    "id": "3539462",
    "title": "해오름모텔",
    "address": "강원특별자치도 강릉시 강동면 정동역길 18-5",
    "phone": "",
    "latitude": "37.6909589091",
    "longitude": "129.0323564001",
    "image": "",
    "category": "모텔",
    "original_category": "콘도미니엄"
  },
  {
    "id": "3532544",
    "title": "해피모텔",
    "address": "강원특별자치도 강릉시 주문진읍 시장길 23",
    "phone": "",
    "latitude": "37.8897374544",
    "longitude": "128.8270215118",
    "image": "",
    "category": "모텔",
    "original_category": "콘도미니엄"
  },
  {
    "id": "3049882",
    "title": "해피큐모텔",
    "address": "경상북도 안동시 광석4길 11 (광석동)",
    "phone": "054-855-0099, 010-7664-6399",
    "latitude": "36.5664570776",
    "longitude": "128.7224150046",
    "image": "http://tong.visitkorea.or.kr/cms/resource/01/3060101_image2_1.jpg",
    "category": "모텔",
    "original_category": "콘도미니엄"
  },
  {
    "id": "3044647",
    "title": "헤라모텔",
    "address": "경상남도 고성군 회화면 구만로 1334",
    "phone": "055-672-9805",
    "latitude": "35.0904899842",
    "longitude": "128.3773196728",
    "image": "http://tong.visitkorea.or.kr/cms/resource/25/3054325_image2_1.jpg",
    "category": "모텔",
    "original_category": "콘도미니엄"
  },
  {
    "id": "1830999",
    "title": "헬리오스모텔",
    "address": "강원특별자치도 속초시 장사항해안길 33 (장사동)",
    "phone": "033-632-7676",
    "latitude": "38.2246883505",
    "longitude": "128.5887271028",
    "image": "http://tong.visitkorea.or.kr/cms/resource/95/2577195_image2_1.jpg",
    "category": "모텔",
    "original_category": "콘도미니엄"
  },
  {
    "id": "621076",
    "title": "현대모텔",
    "address": "강원특별자치도 양구군 양구읍 관공서로 15-1",
    "phone": "033-482-1233",
    "latitude": "38.1073238590",
    "longitude": "127.9901463004",
    "image": "http://tong.visitkorea.or.kr/cms/resource/90/599690_image2_1.jpg",
    "category": "모텔",
    "original_category": "콘도미니엄"
  },
  {
    "id": "3538399",
    "title": "현대모텔",
    "address": "강원특별자치도 강릉시 사천면 방동길 61",
    "phone": "",
    "latitude": "37.8186879185",
    "longitude": "128.8561405319",
    "image": "",
    "category": "모텔",
    "original_category": "콘도미니엄"
  },
  {
    "id": "1632474",
    "title": "화이트모텔",
    "address": "전북특별자치도 진안군 주천면 동상주천로 1648",
    "phone": "063-432-5337",
    "latitude": "35.9807716703",
    "longitude": "127.3829114844",
    "image": "",
    "category": "모텔",
    "original_category": "콘도미니엄"
  },
  {
    "id": "3469000",
    "title": "효성모텔",
    "address": "경상남도 남해군 남해읍 화전로 52-1",
    "phone": "",
    "latitude": "34.8359349831",
    "longitude": "127.8948296135",
    "image": "",
    "category": "모텔",
    "original_category": "콘도미니엄"
  },
  {
    "id": "3044520",
    "title": "CF모텔",
    "address": "경상남도 남해군 남해읍 화전로122번길 28",
    "phone": "055-864-6678",
    "latitude": "34.8420621126",
    "longitude": "127.8970570391",
    "image": "http://tong.visitkorea.or.kr/cms/resource/47/3054647_image2_1.jpg",
    "category": "모텔",
    "original_category": "콘도미니엄"
  },
  {
    "id": "2637906",
    "title": "H(에이치)모텔[한국관광 품질인증/Korea Quality]",
    "address": "전북특별자치도 군산시 죽성로 33-5 홍인장모텔",
    "phone": "063-442-8941",
    "latitude": "35.9871732799",
    "longitude": "126.7172012764",
    "image": "http://tong.visitkorea.or.kr/cms/resource/55/2637055_image2_1.jpg",
    "category": "모텔",
    "original_category": "콘도미니엄"
  },
  {
    "id": "2581363",
    "title": "H모텔",
    "address": "전라남도 목포시 비파로124번길 16-1",
    "phone": "061-285-2032",
    "latitude": "34.8093602808",
    "longitude": "126.4245928328",
    "image": "",
    "category": "모텔",
    "original_category": "콘도미니엄"
  },
  {
    "id": "2574653",
    "title": "IN모텔",
    "address": "경상남도 통영시 광도면 죽림해안로 118-15",
    "phone": "055-648-1828",
    "latitude": "34.8804809797",
    "longitude": "128.4219379972",
    "image": "",
    "category": "모텔",
    "original_category": "콘도미니엄"
  },
  {
    "id": "3049878",
    "title": "JOY 모텔",
    "address": "경상북도 경주시 안강읍 화전중앙길 5",
    "phone": "010-3867-0887",
    "latitude": "35.9930648858",
    "longitude": "129.2160934967",
    "image": "http://tong.visitkorea.or.kr/cms/resource/70/3059670_image2_1.jpg",
    "category": "모텔",
    "original_category": "콘도미니엄"
  },
  {
    "id": "1993996",
    "title": "J모텔(제이모텔)",
    "address": "부산광역시 수영구 수영로 589-1",
    "phone": "051-756-2336",
    "latitude": "35.1584874276",
    "longitude": "129.1127926040",
    "image": "http://tong.visitkorea.or.kr/cms/resource/05/1994205_image2_1.jpg",
    "category": "모텔",
    "original_category": "콘도미니엄"
  },
  {
    "id": "1882463",
    "title": "K-모텔",
    "address": "인천광역시 중구 연안부두로55번길 4-3",
    "phone": "032-888-6336",
    "latitude": "37.4533301209",
    "longitude": "126.6000114828",
    "image": "http://tong.visitkorea.or.kr/cms/resource/20/1926520_image2_1.JPG",
    "category": "모텔",
    "original_category": "콘도미니엄"
  },
  {
    "id": "3537637",
    "title": "K모텔",
    "address": "강원특별자치도 강릉시 옥천로71번길 3 (옥천동)",
    "phone": "",
    "latitude": "37.7599260894",
    "longitude": "128.8979830237",
    "image": "",
    "category": "모텔",
    "original_category": "콘도미니엄"
  },
  {
    "id": "2574703",
    "title": "LA모텔",
    "address": "경상남도 통영시 정동1길 14",
    "phone": "055-646-4545",
    "latitude": "34.8455156158",
    "longitude": "128.4314158693",
    "image": "",
    "category": "모텔",
    "original_category": "콘도미니엄"
  },
  {
    "id": "139768",
    "title": "L모텔",
    "address": "울산광역시 울주군 서생면 깨목2길 11",
    "phone": "052-239-0118",
    "latitude": "35.3818694735",
    "longitude": "129.3437774286",
    "image": "http://tong.visitkorea.or.kr/cms/resource/68/218268_image2_1.jpg",
    "category": "모텔",
    "original_category": "콘도미니엄"
  },
  {
    "id": "3470359",
    "title": "mtm모텔",
    "address": "경상남도 창원시 성산구 마디미로70번길 6 (상남동)",
    "phone": "",
    "latitude": "35.2193365742",
    "longitude": "128.6812813317",
    "image": "",
    "category": "모텔",
    "original_category": "콘도미니엄"
  },
  {
    "id": "2579320",
    "title": "on온모텔",
    "address": "경상남도 고성군 고성읍 동외로151번길 24",
    "phone": "055-674-1018~9",
    "latitude": "34.9751575304",
    "longitude": "128.3246995418",
    "image": "",
    "category": "모텔",
    "original_category": "콘도미니엄"
  },
  {
    "id": "3535176",
    "title": "SKY모텔",
    "address": "강원특별자치도 강릉시 교동광장로100번길 13 (교동)",
    "phone": "",
    "latitude": "37.7661860499",
    "longitude": "128.8761209106",
    "image": "",
    "category": "모텔",
    "original_category": "콘도미니엄"
  },
  {
    "id": "2574909",
    "title": "V모텔",
    "address": "경상남도 통영시 광도면 죽림해안로 118-17",
    "phone": "055-641-4134",
    "latitude": "34.8805087499",
    "longitude": "128.4217157939",
    "image": "",
    "category": "모텔",
    "original_category": "콘도미니엄"
  },
  {
    "id": "2571584",
    "title": "V온천모텔",
    "address": "울산광역시 울주군 상북면 알프스온천2길 10",
    "phone": "052-254-1700",
    "latitude": "35.5535452256",
    "longitude": "129.0787735261",
    "image": "",
    "category": "모텔",
    "original_category": "콘도미니엄"
  },
  {
    "id": "2038293",
    "title": "W모텔",
    "address": "강원특별자치도 철원군 갈말읍 명성로 114-1",
    "phone": "033-452-5487",
    "latitude": "38.1420153797",
    "longitude": "127.3071465641",
    "image": "",
    "category": "모텔",
    "original_category": "콘도미니엄"
  },
  {
    "id": "660078",
    "title": "W모텔(구 쉘모텔)",
    "address": "인천광역시 강화군 길상면 해안남로 13-15",
    "phone": "032-937-8235",
    "latitude": "37.6265393594",
    "longitude": "126.5339265984",
    "image": "http://tong.visitkorea.or.kr/cms/resource/01/1888201_image2_1.jpg",
    "category": "모텔",
    "original_category": "콘도미니엄"
  },
  {
    "id": "1634785",
    "title": "XO모텔",
    "address": "전북특별자치도 전주시 덕진구 용산1길 17-1",
    "phone": "010-8207-2682",
    "latitude": "35.8351949536",
    "longitude": "127.1311155193",
    "image": "",
    "category": "모텔",
    "original_category": "콘도미니엄"
  },
  {
    "id": "2577101",
    "title": "리츠모텔",
    "address": "경상남도 창원시 성산구 용지로 64",
    "phone": "055-279-0244",
    "latitude": "35.2216917699",
    "longitude": "128.6760400592",
    "image": "",
    "category": "모텔",
    "original_category": "펜션"
  },
  {
    "id": "1932645",
    "title": "그람피하우스",
    "address": "충청남도 태안군 남면 안면대로 1110-30",
    "phone": "041-675-6653",
    "latitude": "36.6565756082",
    "longitude": "126.3079150768",
    "image": "http://tong.visitkorea.or.kr/cms/resource/55/2597755_image2_1.jpg",
    "category": "모텔"
  },
  {
    "id": "3049910",
    "title": "동해 스테이",
    "address": "강원특별자치도 동해시 한섬로 136-4 (천곡동)",
    "phone": "010-2020-8910",
    "latitude": "37.5208941211",
    "longitude": "129.1192260813",
    "image": "http://tong.visitkorea.or.kr/cms/resource/43/3060143_image2_1.jpg",
    "category": "모텔"
  },
  {
    "id": "3310791",
    "title": "또 다른 이야기",
    "address": "전라남도 보성군 웅치면 대산길 8",
    "phone": "010-5405-6277",
    "latitude": "34.7114699949",
    "longitude": "127.0160819954",
    "image": "http://tong.visitkorea.or.kr/cms/resource/74/3310774_image2_1.jpg",
    "category": "모텔"
  },
  {
    "id": "3082668",
    "title": "로오우",
    "address": "경상북도 영덕군 병곡면 흰돌로 116",
    "phone": "",
    "latitude": "36.6149008432",
    "longitude": "129.4119913846",
    "image": "http://tong.visitkorea.or.kr/cms/resource/60/3082960_image2_1.jpg",
    "category": "모텔"
  },
  {
    "id": "2925797",
    "title": "엘시티 레지던스",
    "address": "부산광역시 해운대구 달맞이길 30 (중동, 엘시티)",
    "phone": "",
    "latitude": "35.1619491796",
    "longitude": "129.1683126815",
    "image": "http://tong.visitkorea.or.kr/cms/resource/57/2928957_image2_1.jpg",
    "category": "모텔"
  },
  {
    "id": "3464880",
    "title": "오라카이 인사동 스위츠",
    "address": "서울특별시 종로구 인사동4길 18 (낙원동)",
    "phone": "",
    "latitude": "37.5730564254",
    "longitude": "126.9873589182",
    "image": "",
    "category": "모텔"
  },
  {
    "id": "3383407",
    "title": "유원재",
    "address": "충청북도 충주시 수안보면 주정산로 6",
    "phone": "",
    "latitude": "36.8490721678",
    "longitude": "127.9887612186",
    "image": "http://tong.visitkorea.or.kr/cms/resource/82/3383382_image2_1.jpg",
    "category": "모텔"
  },
  {
    "id": "3316414",
    "title": "조강276(DMZ 평화의 길 거점센터)",
    "address": "경기도 김포시 월곶면 용강로250번길 104",
    "phone": "031-8049-3960",
    "latitude": "37.7418764745",
    "longitude": "126.5655065940",
    "image": "http://tong.visitkorea.or.kr/cms/resource/07/3316407_image2_1.jpg",
    "category": "모텔"
  },
  {
    "id": "2731553",
    "title": "펠릭스바이STX",
    "address": "부산광역시 해운대구 해운대로 620 해운대 라뮤에뜨",
    "phone": "051-969-5016",
    "latitude": "35.1630016570",
    "longitude": "129.1584801742",
    "image": "http://tong.visitkorea.or.kr/cms/resource/69/2816269_image2_1.jpg",
    "category": "모텔"
  },
  {
    "id": "3543710",
    "title": "풀스테이 스테이펫 홍천",
    "address": "강원특별자치도 홍천군 화촌면 답연밭길 5-2",
    "phone": "",
    "latitude": "37.7382952558",
    "longitude": "128.0277873179",
    "image": "http://tong.visitkorea.or.kr/cms/resource/04/3543704_image2_1.jpg",
    "category": "모텔"
  }
]