[
  {
    "id": "2913780",
    "title": "나디아민박",
    "address": "강원특별자치도 삼척시 근덕면 덕산해변길 144-6",
    "phone": "",
    "latitude": "37.3851232734",
    "longitude": "129.2422775823",
    "image": "http://tong.visitkorea.or.kr/cms/resource/10/2920910_image2_1.jpg",
    "category": "민박",
    "original_category": "유스호스텔"
  },
  {
    "id": "1344503",
    "title": "낙안큰샘민박",
    "address": "전라남도 순천시 낙안면 읍성안길 145",
    "phone": "",
    "latitude": "34.9066035522",
    "longitude": "127.3390654198",
    "image": "",
    "category": "민박",
    "original_category": "유스호스텔"
  },
  {
    "id": "2801985",
    "title": "다람쥐민박",
    "address": "제주특별자치도 제주시 조천읍 함덕14길 20-2",
    "phone": "",
    "latitude": "33.5406392026",
    "longitude": "126.6653098892",
    "image": "",
    "category": "민박",
    "original_category": "유스호스텔"
  },
  {
    "id": "2695737",
    "title": "다온민박",
    "address": "경상북도 안동시 풍천면 하회남촌길 53-20",
    "phone": "",
    "latitude": "36.5370871629",
    "longitude": "128.5186450663",
    "image": "",
    "category": "민박",
    "original_category": "유스호스텔"
  },
  {
    "id": "2577499",
    "title": "섬마을 민박낚시",
    "address": "경상남도 통영시 욕지면 도동길 85",
    "phone": "055-641-4253",
    "latitude": "34.6427903549",
    "longitude": "128.2361937024",
    "image": "",
    "category": "민박",
    "original_category": "유스호스텔"
  },
  {
    "id": "2577537",
    "title": "소라민박",
    "address": "경상남도 통영시 한산면 당금길 50",
    "phone": "055-646-4485 / 010-7110-4066",
    "latitude": "34.6473458852",
    "longitude": "128.5761751489",
    "image": "",
    "category": "민박",
    "original_category": "유스호스텔"
  },
  {
    "id": "2628774",
    "title": "해오름 민박",
    "address": "전라남도 순천시 낙안면 조정래길 786-4",
    "phone": "",
    "latitude": "34.9076979681",
    "longitude": "127.3445926842",
    "image": "",
    "category": "민박",
    "original_category": "유스호스텔"
  },
  {
    "id": "2580040",
    "title": "흙시루민박",
    "address": "경상남도 고성군 하이면 사곡3길 48",
    "phone": "055-832-8822",
    "latitude": "34.9343671322",
    "longitude": "128.1388612875",
    "image": "",
    "category": "민박",
    "original_category": "유스호스텔"
  },
  {
    "id": "3101947",
    "title": "안동 모닝 도시민박",
    "address": "경상북도 안동시 강남8길 7-9 (정하동)",
    "phone": "010-4533-5251",
    "latitude": "36.5488815373",
    "longitude": "128.7347088662",
    "image": "",
    "category": "민박",
    "original_category": "펜션"
  },
  {
    "id": "2574073",
    "title": "윙민박",
    "address": "부산광역시 해운대구 송정중앙로6번길 36",
    "phone": "010-9872-5869",
    "latitude": "35.1822391732",
    "longitude": "129.2005509870",
    "image": "http://tong.visitkorea.or.kr/cms/resource/06/2573206_image2_1.jpg",
    "category": "민박",
    "original_category": "펜션"
  },
  {
    "id": "2574326",
    "title": "개울한옥민박",
    "address": "전라남도 해남군 옥천면 도림길 81",
    "phone": "010-9626-5848",
    "latitude": "34.5159721453",
    "longitude": "126.6616456733",
    "image": "http://tong.visitkorea.or.kr/cms/resource/38/2573738_image2_1.jpg",
    "category": "민박",
    "original_category": "홈스테이"
  },
  {
    "id": "2593235",
    "title": "거목장민박",
    "address": "전라남도 해남군 삼산면 민박촌길 63",
    "phone": "061-535-1456",
    "latitude": "34.5084470868",
    "longitude": "126.6067506789",
    "image": "http://tong.visitkorea.or.kr/cms/resource/63/3021963_image2_1.jpg",
    "category": "민박",
    "original_category": "홈스테이"
  },
  {
    "id": "2668091",
    "title": "구림전통한옥민박",
    "address": "전라남도 영암군 군서면 죽정서원길 5-42",
    "phone": "",
    "latitude": "34.7635103514",
    "longitude": "126.6215098969",
    "image": "",
    "category": "민박",
    "original_category": "홈스테이"
  },
  {
    "id": "2570339",
    "title": "달빛한옥민박 별유풍경",
    "address": "전라남도 강진군 달빛한옥길 32",
    "phone": "010-2038-7755",
    "latitude": "34.7402229174",
    "longitude": "126.7189990939",
    "image": "http://tong.visitkorea.or.kr/cms/resource/40/2991340_image2_1.jpg",
    "category": "민박",
    "original_category": "홈스테이"
  },
  {
    "id": "2572792",
    "title": "매죽헌(매죽헌 한옥 민박)",
    "address": "전라남도 순천시 월등면 외동길 52",
    "phone": "010-4622-7180",
    "latitude": "35.0660422918",
    "longitude": "127.4042695340",
    "image": "http://tong.visitkorea.or.kr/cms/resource/86/2571486_image2_1.jpg",
    "category": "민박",
    "original_category": "홈스테이"
  },
  {
    "id": "2603996",
    "title": "매죽헌2(매죽헌한옥민박)",
    "address": "전라남도 순천시 월등면 외동길 56",
    "phone": "010-4622-7180",
    "latitude": "35.0690641287",
    "longitude": "127.4016335779",
    "image": "http://tong.visitkorea.or.kr/cms/resource/86/2571486_image2_1.jpg",
    "category": "민박",
    "original_category": "홈스테이"
  },
  {
    "id": "2604573",
    "title": "산들바다애(산들바다애 한옥민박)",
    "address": "전라남도 해남군 북평면 동해길 108-29",
    "phone": "010-6275-7671",
    "latitude": "34.4386525604",
    "longitude": "126.6329083835",
    "image": "",
    "category": "민박",
    "original_category": "홈스테이"
  },
  {
    "id": "3469916",
    "title": "안동 이든민박",
    "address": "경상북도 안동시 노하3길 19 (노하동)",
    "phone": "010-5599-4798",
    "latitude": "36.5799103335",
    "longitude": "128.6818571061",
    "image": "",
    "category": "민박",
    "original_category": "홈스테이"
  },
  {
    "id": "2660053",
    "title": "화림정 민박(경주화림정한옥민박)",
    "address": "경상북도 경주시 첨성로 177-3",
    "phone": "",
    "latitude": "35.8362215736",
    "longitude": "129.2201726226",
    "image": "",
    "category": "민박",
    "original_category": "홈스테이"
  }
]