[
  {
    "id": "3532713",
    "title": "글로리 인 연신내",
    "address": "서울특별시 은평구 통일로78길 26-9 (불광동, 불광트레비앙)",
    "phone": "010-7140-3919",
    "latitude": "37.6187611087",
    "longitude": "126.9252855054",
    "image": "http://tong.visitkorea.or.kr/cms/resource/30/3507530_image2_1.jpg",
    "category": "여관"
  },
  {
    "id": "3511637",
    "title": "농업회사법인주식회사보령은행빵",
    "address": "충청남도 보령시 청라면 죽성로 957-30",
    "phone": "",
    "latitude": "36.4243335779",
    "longitude": "126.6725799603",
    "image": "",
    "category": "여관"
  },
  {
    "id": "3532715",
    "title": "누스테이 부산",
    "address": "부산광역시 수영구 수영로 722-1 (광안동)",
    "phone": "0507-1320-7178",
    "latitude": "35.1682225520",
    "longitude": "129.1183890728",
    "image": "",
    "category": "여관"
  },
  {
    "id": "3532630",
    "title": "단아",
    "address": "부산광역시 부산진구 전포대로132번길 7 (전포동)",
    "phone": "010-4361-1206",
    "latitude": "35.1488570979",
    "longitude": "129.0666302168",
    "image": "",
    "category": "여관"
  },
  {
    "id": "3532628",
    "title": "던하우스",
    "address": "서울특별시 용산구 청파로85가길 10-4 (서계동)",
    "phone": "010-5548-1959",
    "latitude": "37.5523307075",
    "longitude": "126.9679446073",
    "image": "",
    "category": "여관"
  },
  {
    "id": "3532633",
    "title": "리틀포레한강",
    "address": "서울특별시 성동구 왕십리로8길 19-5 (성수동1가)",
    "phone": "010-8600-1683",
    "latitude": "37.5463689287",
    "longitude": "127.0468348118",
    "image": "",
    "category": "여관"
  },
  {
    "id": "3532876",
    "title": "머무르다목포",
    "address": "전라남도 목포시 해안로163번길 46-2 (금화동, 금화아파트)",
    "phone": "",
    "latitude": "34.7813404367",
    "longitude": "126.3771171455",
    "image": "",
    "category": "여관"
  },
  {
    "id": "3532667",
    "title": "민락스테이",
    "address": "부산광역시 수영구 민락본동로 28 (민락동)",
    "phone": "010-8945-4571",
    "latitude": "35.1592487503",
    "longitude": "129.1288384100",
    "image": "",
    "category": "여관"
  },
  {
    "id": "2710685",
    "title": "월정사 템플스테이",
    "address": "강원특별자치도 평창군 진부면 오대산로 374-8",
    "phone": "033-339-6606",
    "latitude": "37.7312290383",
    "longitude": "128.5920587127",
    "image": "http://tong.visitkorea.or.kr/cms/resource/06/3534006_image2_1.jpg",
    "category": "여관"
  },
  {
    "id": "3533169",
    "title": "이스턴룸",
    "address": "부산광역시 해운대구 달맞이길117번라길 100 (중동)",
    "phone": "010-4870-7402",
    "latitude": "35.1622938525",
    "longitude": "129.1827197529",
    "image": "",
    "category": "여관"
  },
  {
    "id": "3532697",
    "title": "지구하임 홍대점",
    "address": "서울특별시 마포구 동교로 224 (동교동)",
    "phone": "010-9346-3293",
    "latitude": "37.5599318162",
    "longitude": "126.9240678359",
    "image": "",
    "category": "여관"
  },
  {
    "id": "3532608",
    "title": "호두스테이",
    "address": "부산광역시 수영구 수영로594번길 7 (광안동)",
    "phone": "010-4698-1167",
    "latitude": "35.1590373868",
    "longitude": "129.1138897159",
    "image": "",
    "category": "여관"
  },
  {
    "id": "3533162",
    "title": "peace in bnb",
    "address": "서울특별시 서대문구 신촌로1길 57 (창천동)",
    "phone": "010-2622-4872",
    "latitude": "37.5600846554",
    "longitude": "126.9284785409",
    "image": "",
    "category": "여관"
  },
  {
    "id": "3532718",
    "title": "Sweet Dream House",
    "address": "서울특별시 강서구 남부순환로9길 13-9 (공항동, 하우스 공감)",
    "phone": "010-8569-7523",
    "latitude": "37.5575578443",
    "longitude": "126.8105893624",
    "image": "",
    "category": "여관"
  },
  {
    "id": "3101925",
    "title": "온정여관(사랑채)",
    "address": "전북특별자치도 남원시 비석길 65-13 (죽항동)",
    "phone": "010-4745-8994, 0504-0904-2772",
    "latitude": "35.4073423137",
    "longitude": "127.3836709188",
    "image": "",
    "category": "여관",
    "original_category": "홈스테이"
  },
  {
    "id": "3102070",
    "title": "온정여관(안채, 별채)",
    "address": "전북특별자치도 남원시 향단로 42-24 (죽항동)",
    "phone": "010-4745-8994, 0504-0904-2772",
    "latitude": "35.4074589642",
    "longitude": "127.3834959312",
    "image": "",
    "category": "여관",
    "original_category": "홈스테이"
  }
]