[
  {
    "id": "3546493",
    "title": "골목안채",
    "address": "충청남도 아산시 도고면 아산만로180번길 6-4",
    "phone": "",
    "latitude": "36.7595512178",
    "longitude": "126.8684866773",
    "image": "http://tong.visitkorea.or.kr/cms/resource/80/3546480_image2_1.jpg",
    "category": "유스호스텔"
  },
  {
    "id": "3416791",
    "title": "남순재",
    "address": "전라남도 고흥군 점암면 장남2길 19",
    "phone": "",
    "latitude": "34.6207030837",
    "longitude": "127.3855740593",
    "image": "http://tong.visitkorea.or.kr/cms/resource/93/3415993_image2_1.jpg",
    "category": "유스호스텔"
  },
  {
    "id": "2946378",
    "title": "더리버에스 풀빌라",
    "address": "충청북도 청주시 상당구 옥화2길 13-29",
    "phone": "",
    "latitude": "36.6190016858",
    "longitude": "127.7032932742",
    "image": "http://tong.visitkorea.or.kr/cms/resource/40/3543640_image2_1.jpg",
    "category": "유스호스텔"
  },
  {
    "id": "3417153",
    "title": "데이지풀빌라",
    "address": "경기도 안산시 단원구 참살이4길 30 (선감동)",
    "phone": "",
    "latitude": "37.2312119051",
    "longitude": "126.6255402784",
    "image": "http://tong.visitkorea.or.kr/cms/resource/61/3417061_image2_1.jpg",
    "category": "유스호스텔"
  },
  {
    "id": "3101966",
    "title": "무와섬",
    "address": "전북특별자치도 전주시 완산구 향교길 23-7 (교동)",
    "phone": "0507-1315-6071",
    "latitude": "35.8120340454",
    "longitude": "127.1510365742",
    "image": "",
    "category": "유스호스텔"
  },
  {
    "id": "2680793",
    "title": "부여한옥",
    "address": "충청남도 부여군 부여읍 뒷개로 9",
    "phone": "010-4311-2792",
    "latitude": "36.2908115935",
    "longitude": "126.9252080248",
    "image": "",
    "category": "유스호스텔"
  },
  {
    "id": "2869085",
    "title": "삼일삼오",
    "address": "제주특별자치도 제주시 구좌읍 해맞이해안로 1542-4",
    "phone": "",
    "latitude": "33.5274244998",
    "longitude": "126.8687730858",
    "image": "http://tong.visitkorea.or.kr/cms/resource/97/2708697_image2_1.jpg",
    "category": "유스호스텔"
  },
  {
    "id": "3410723",
    "title": "샘사이트",
    "address": "경상북도 영주시 부석면 영부로117번길 76-7",
    "phone": "",
    "latitude": "36.9999811702",
    "longitude": "128.6538612168",
    "image": "http://tong.visitkorea.or.kr/cms/resource/61/3410661_image2_1.jpg",
    "category": "유스호스텔"
  },
  {
    "id": "2707417",
    "title": "서툰가족",
    "address": "제주특별자치도 서귀포시 안덕면 사계중앙로 41-15",
    "phone": "",
    "latitude": "33.2282179181",
    "longitude": "126.2980682613",
    "image": "http://tong.visitkorea.or.kr/cms/resource/36/2707436_image2_1.jpg",
    "category": "유스호스텔"
  },
  {
    "id": "3546470",
    "title": "신언리101",
    "address": "충청남도 아산시 도고면 아산만로198번길 15-4",
    "phone": "",
    "latitude": "36.7619426132",
    "longitude": "126.8687171473",
    "image": "http://tong.visitkorea.or.kr/cms/resource/10/3546510_image2_1.jpg",
    "category": "유스호스텔"
  },
  {
    "id": "2785825",
    "title": "아름다운 산골",
    "address": "경상남도 하동군 화개면 범왕길 196",
    "phone": "",
    "latitude": "35.2703452212",
    "longitude": "127.6193009027",
    "image": "http://tong.visitkorea.or.kr/cms/resource/26/2785826_image2_1.jpg",
    "category": "유스호스텔"
  },
  {
    "id": "2637672",
    "title": "아원",
    "address": "전북특별자치도 완주군 소양면 송광수만로 516-7",
    "phone": "063-241-8195",
    "latitude": "35.9035919243",
    "longitude": "127.2447091661",
    "image": "",
    "category": "유스호스텔"
  },
  {
    "id": "3472354",
    "title": "영스테이",
    "address": "전북특별자치도 고창군 상하면 장호로 55-17",
    "phone": "",
    "latitude": "35.4480889957",
    "longitude": "126.4812471415",
    "image": "http://tong.visitkorea.or.kr/cms/resource/76/3472276_image2_1.jpg",
    "category": "유스호스텔"
  },
  {
    "id": "3047610",
    "title": "자연닮은 치유농장",
    "address": "대구광역시 군위군 삼국유사면 화산산성길 65-1",
    "phone": "",
    "latitude": "36.1056828105",
    "longitude": "128.7799508959",
    "image": "http://tong.visitkorea.or.kr/cms/resource/44/3048144_image2_1.jpg",
    "category": "유스호스텔"
  },
  {
    "id": "2719855",
    "title": "전주 한옥마을 백년한옥",
    "address": "전북특별자치도 전주시 완산구 기린대로 74-9",
    "phone": "",
    "latitude": "35.8160114450",
    "longitude": "127.1553194224",
    "image": "http://tong.visitkorea.or.kr/cms/resource/03/2719903_image2_1.jpg",
    "category": "유스호스텔"
  },
  {
    "id": "2931723",
    "title": "제주901",
    "address": "제주특별자치도 제주시 1100로 2977-10 (노형동)",
    "phone": "",
    "latitude": "33.4529238296",
    "longitude": "126.4862885506",
    "image": "http://tong.visitkorea.or.kr/cms/resource/85/2931685_image2_1.jpeg",
    "category": "유스호스텔"
  },
  {
    "id": "2826777",
    "title": "춘천일기스테이",
    "address": "강원특별자치도 춘천시 중앙로27번길 9-1 (옥천동)",
    "phone": "",
    "latitude": "37.8823007142",
    "longitude": "127.7294573539",
    "image": "http://tong.visitkorea.or.kr/cms/resource/27/2826527_image2_1.jpg",
    "category": "유스호스텔"
  },
  {
    "id": "2580047",
    "title": "통영국치농어촌체험휴양마을",
    "address": "경상남도 통영시 천대국치길 207",
    "phone": "055-646-7789",
    "latitude": "34.8360826490",
    "longitude": "128.3928416996",
    "image": "",
    "category": "유스호스텔"
  },
  {
    "id": "2580688",
    "title": "푸른바다와 캠핑",
    "address": "경상남도 통영시 국치1길 49",
    "phone": "010-3885-5140",
    "latitude": "34.8344106263",
    "longitude": "128.3935527919",
    "image": "",
    "category": "유스호스텔"
  },
  {
    "id": "2946553",
    "title": "하월",
    "address": "전라남도 여수시 돌산읍 평사로 160",
    "phone": "",
    "latitude": "34.6436007247",
    "longitude": "127.7214607798",
    "image": "http://tong.visitkorea.or.kr/cms/resource/06/2804906_image2_1.JPG",
    "category": "유스호스텔"
  },
  {
    "id": "3398680",
    "title": "한옥솔솔체험",
    "address": "충청북도 청주시 청원구 오창읍 미래지로 71-53",
    "phone": "",
    "latitude": "36.7350996489",
    "longitude": "127.4047334989",
    "image": "http://tong.visitkorea.or.kr/cms/resource/47/3398447_image2_1.jpg",
    "category": "유스호스텔"
  }
]