[
  {
    "id": "3542654",
    "title": "망상비치 펜션",
    "address": "강원특별자치도 강릉시 옥계면 도직길 7-12",
    "phone": "033-534-0166",
    "latitude": "37.6071137418",
    "longitude": "129.0685279676",
    "image": "",
    "category": "펜션",
    "original_category": "관광호텔"
  },
  {
    "id": "2555815",
    "title": "구례 자연드림파크 휴펜션",
    "address": "전라남도 구례군 용방면 용산로 107-66",
    "phone": "061-783-2200",
    "latitude": "35.2732079973",
    "longitude": "127.4141827985",
    "image": "http://tong.visitkorea.or.kr/cms/resource/04/2555804_image2_1.jpg",
    "category": "펜션",
    "original_category": "콘도미니엄"
  },
  {
    "id": "2996545",
    "title": "무주오리펜션",
    "address": "전북특별자치도 무주군 구천동로 1051",
    "phone": "",
    "latitude": "35.9067701202",
    "longitude": "127.7609798744",
    "image": "http://tong.visitkorea.or.kr/cms/resource/31/2996531_image2_1.jpeg",
    "category": "펜션",
    "original_category": "콘도미니엄"
  },
  {
    "id": "138724",
    "title": "백무산장 황토방 펜션",
    "address": "경상남도 함양군 마천면 백무동로 321",
    "phone": "055-962-5277",
    "latitude": "35.3623136917",
    "longitude": "127.6804320079",
    "image": "http://tong.visitkorea.or.kr/cms/resource/10/3567310_image2_1.jpg",
    "category": "펜션",
    "original_category": "콘도미니엄"
  },
  {
    "id": "138845",
    "title": "지리산리틀프린스펜션",
    "address": "전라남도 구례군 마산면 화엄사로 386-9",
    "phone": "061-783-4700",
    "latitude": "35.2429766042",
    "longitude": "127.4895352668",
    "image": "http://tong.visitkorea.or.kr/cms/resource/11/1157511_image2_1.jpg",
    "category": "펜션",
    "original_category": "콘도미니엄"
  },
  {
    "id": "137965",
    "title": "지리산산사랑펜션",
    "address": "전라남도 구례군 마산면 화엄사로 348-12",
    "phone": "010-5152-6090",
    "latitude": "35.2398658172",
    "longitude": "127.4880021492",
    "image": "http://tong.visitkorea.or.kr/cms/resource/60/1160060_image2_1.jpg",
    "category": "펜션",
    "original_category": "콘도미니엄"
  },
  {
    "id": "1932599",
    "title": "지리피아펜션",
    "address": "전라남도 구례군 토지면 섬진강대로 4310-33",
    "phone": "010-3561-7469",
    "latitude": "35.2028497247",
    "longitude": "127.6004931968",
    "image": "http://tong.visitkorea.or.kr/cms/resource/43/1931543_image2_1.JPG",
    "category": "펜션",
    "original_category": "콘도미니엄"
  },
  {
    "id": "2635939",
    "title": "정원펜션캠핑(정원펜션캠핑장)",
    "address": "강원특별자치도 강릉시 주문진읍 신리천로 1191-15",
    "phone": "010-7229-3984",
    "latitude": "37.8794835857",
    "longitude": "128.7098657445",
    "image": "",
    "category": "펜션",
    "original_category": "유스호스텔"
  },
  {
    "id": "2962354",
    "title": "행복하개 애견 펜션",
    "address": "경기도 연천군 미산면 노아로 670-84",
    "phone": "",
    "latitude": "38.0182013380",
    "longitude": "126.9630900566",
    "image": "http://tong.visitkorea.or.kr/cms/resource/21/2961521_image2_1.jpg",
    "category": "펜션",
    "original_category": "유스호스텔"
  },
  {
    "id": "2574118",
    "title": "강남스테이힐(Gangnam Stay Hill)",
    "address": "서울특별시 강남구 테헤란로13길 65",
    "phone": "010-2746-7882",
    "latitude": "37.5034291706",
    "longitude": "127.0301236613",
    "image": "http://tong.visitkorea.or.kr/cms/resource/28/2573328_image2_1.jpg",
    "category": "펜션"
  },
  {
    "id": "3539791",
    "title": "강문애",
    "address": "강원특별자치도 강릉시 창해로 245 (강문동)",
    "phone": "",
    "latitude": "37.7874706728",
    "longitude": "128.9260435319",
    "image": "",
    "category": "펜션"
  },
  {
    "id": "2664520",
    "title": "게스트145",
    "address": "광주광역시 동구 구성로194번길 19",
    "phone": "0504-4016-3534",
    "latitude": "35.1519909306",
    "longitude": "126.9157104541",
    "image": "",
    "category": "펜션"
  },
  {
    "id": "2446529",
    "title": "경주수호정",
    "address": "경상북도 경주시 포석로1068번길 15-15",
    "phone": "010-2379-7248",
    "latitude": "35.8368574416",
    "longitude": "129.2110983992",
    "image": "http://tong.visitkorea.or.kr/cms/resource/11/2635611_image2_1.jpg",
    "category": "펜션"
  },
  {
    "id": "1972448",
    "title": "경주휴원",
    "address": "경상북도 경주시 충효서악길 154",
    "phone": "010-5651-1253",
    "latitude": "35.8271220352",
    "longitude": "129.1902060635",
    "image": "http://tong.visitkorea.or.kr/cms/resource/40/2691040_image2_1.jpg",
    "category": "펜션"
  },
  {
    "id": "2651962",
    "title": "고유[한국관광 품질인증/Korea Quality]",
    "address": "전북특별자치도 전주시 완산구 향교길 51-5",
    "phone": "063-284-2588, 010-3682-5333",
    "latitude": "35.8121035044",
    "longitude": "127.1523281243",
    "image": "",
    "category": "펜션"
  },
  {
    "id": "3533122",
    "title": "고은",
    "address": "서울특별시 종로구 동숭4나길 25 (동숭동, 상일아트빌라)",
    "phone": "010-4353-0917",
    "latitude": "37.5832500110",
    "longitude": "127.0055403052",
    "image": "",
    "category": "펜션"
  },
  {
    "id": "3438351",
    "title": "관숙",
    "address": "서울특별시 마포구 백범로15길 27 (대흥동)",
    "phone": "0507-1403-9314",
    "latitude": "37.5488806651",
    "longitude": "126.9431719619",
    "image": "",
    "category": "펜션"
  },
  {
    "id": "3532992",
    "title": "교동스테이",
    "address": "강원특별자치도 춘천시 교동길 59-7 (교동)",
    "phone": "010-2244-4207",
    "latitude": "37.8816287057",
    "longitude": "127.7367511539",
    "image": "",
    "category": "펜션"
  },
  {
    "id": "2571954",
    "title": "구쁘다 아띠야",
    "address": "전북특별자치도 전주시 완산구 천경로 27-1",
    "phone": "010-4705-0669",
    "latitude": "35.8089066603",
    "longitude": "127.1531364690",
    "image": "http://tong.visitkorea.or.kr/cms/resource/86/2571086_image2_1.jpeg",
    "category": "펜션"
  },
  {
    "id": "3469421",
    "title": "그라운드4",
    "address": "광주광역시 동구 서석로 85 (대의동)",
    "phone": "0503-5052-2580",
    "latitude": "35.1495746221",
    "longitude": "126.9207656231",
    "image": "",
    "category": "펜션"
  },
  {
    "id": "3438659",
    "title": "그루브하우스",
    "address": "서울특별시 동대문구 서울시립대로25길 10 (전농동)",
    "phone": "010-7656-3228",
    "latitude": "37.5827620188",
    "longitude": "127.0522138438",
    "image": "",
    "category": "펜션"
  },
  {
    "id": "2610815",
    "title": "그림하우스",
    "address": "부산광역시 해운대구 송정구덕포길 64",
    "phone": "010 7326 8739",
    "latitude": "35.1729595988",
    "longitude": "129.1974681772",
    "image": "",
    "category": "펜션"
  },
  {
    "id": "3533003",
    "title": "글림풀빌라",
    "address": "강원특별자치도 양양군 현남면 동산큰길 11",
    "phone": "010-9925-5536",
    "latitude": "37.9769815672",
    "longitude": "128.7589721719",
    "image": "",
    "category": "펜션"
  },
  {
    "id": "2623938",
    "title": "길건너한옥마을",
    "address": "전북특별자치도 전주시 완산구 기린대로 130",
    "phone": "010-5873-8254",
    "latitude": "35.8206192224",
    "longitude": "127.1534694665",
    "image": "",
    "category": "펜션"
  },
  {
    "id": "3469412",
    "title": "김냇과",
    "address": "광주광역시 동구 구성로204번길 13 (대인동)",
    "phone": "0503-5052-1952",
    "latitude": "35.1528213947",
    "longitude": "126.9158187571",
    "image": "",
    "category": "펜션"
  },
  {
    "id": "2618541",
    "title": "까미노(Camino) bnb",
    "address": "경상남도 창원시 성산구 반송로81번길 37",
    "phone": "010-9865-0900",
    "latitude": "35.2426003363",
    "longitude": "128.6652043289",
    "image": "http://tong.visitkorea.or.kr/cms/resource/08/2571608_image2_1.jpg",
    "category": "펜션"
  },
  {
    "id": "2595494",
    "title": "꽃과 호수의 집",
    "address": "경기도 고양시 일산동구 노루목로 79",
    "phone": "010-2999-9360",
    "latitude": "37.6493187450",
    "longitude": "126.7743317576",
    "image": "http://tong.visitkorea.or.kr/cms/resource/52/2595152_image2_1.jpg",
    "category": "펜션"
  },
  {
    "id": "3438242",
    "title": "남산스토리 나인",
    "address": "서울특별시 중구 퇴계로8길 93 (회현동1가)",
    "phone": "0507-1331-2598",
    "latitude": "37.5557972017",
    "longitude": "126.9807683404",
    "image": "",
    "category": "펜션"
  },
  {
    "id": "3101928",
    "title": "남산하이드아웃",
    "address": "서울특별시 중구 퇴계로18길 67-9 (남산동2가)",
    "phone": "010-5777-8851, 0507-1443-8854",
    "latitude": "37.5581692198",
    "longitude": "126.9847373563",
    "image": "",
    "category": "펜션"
  },
  {
    "id": "2621257",
    "title": "남성각",
    "address": "전라남도 목포시 보리마당로50번길 2",
    "phone": "010-8666-0654",
    "latitude": "34.7836457461",
    "longitude": "126.3779531268",
    "image": "",
    "category": "펜션"
  },
  {
    "id": "3533133",
    "title": "누스테이 목포",
    "address": "전라남도 목포시 보리마당로52번길 9-1 (서산동)",
    "phone": "02-322-7006",
    "latitude": "34.7839623936",
    "longitude": "126.3789696961",
    "image": "",
    "category": "펜션"
  },
  {
    "id": "2700281",
    "title": "니트하우스",
    "address": "서울특별시 마포구 양화로15안길 7",
    "phone": "",
    "latitude": "37.5543268216",
    "longitude": "126.9190017894",
    "image": "",
    "category": "펜션"
  },
  {
    "id": "2608491",
    "title": "다산하우스",
    "address": "서울특별시 강서구 송정로 70",
    "phone": "010-6821-5028",
    "latitude": "37.5610157646",
    "longitude": "126.8099920982",
    "image": "",
    "category": "펜션"
  },
  {
    "id": "2569427",
    "title": "다호",
    "address": "전북특별자치도 군산시 구영7길 101",
    "phone": "010-9725-8810",
    "latitude": "35.9880203028",
    "longitude": "126.7112045689",
    "image": "",
    "category": "펜션"
  },
  {
    "id": "2593270",
    "title": "단경",
    "address": "전북특별자치도 전주시 완산구 한지길 99",
    "phone": "010-5304-4380",
    "latitude": "35.8158697723",
    "longitude": "127.1540139865",
    "image": "",
    "category": "펜션"
  },
  {
    "id": "3532629",
    "title": "단밤하우스",
    "address": "서울특별시 용산구 청파로85가길 10-4 (서계동)",
    "phone": "010-5548-1959",
    "latitude": "37.5523307075",
    "longitude": "126.9679446073",
    "image": "",
    "category": "펜션"
  },
  {
    "id": "2652937",
    "title": "달",
    "address": "전북특별자치도 군산시 구영3길 21-2",
    "phone": "010-9548-3383",
    "latitude": "35.9860399047",
    "longitude": "126.7071910901",
    "image": "http://tong.visitkorea.or.kr/cms/resource/35/2652935_image2_1.jpg",
    "category": "펜션"
  },
  {
    "id": "3532663",
    "title": "담빛채",
    "address": "전라남도 목포시 평화로 38-2 (상동)",
    "phone": "010-5938-2101",
    "latitude": "34.7945592480",
    "longitude": "126.4293344374",
    "image": "",
    "category": "펜션"
  },
  {
    "id": "3438051",
    "title": "더 정가",
    "address": "전북특별자치도 전주시 완산구 기린대로 76 (풍남동3가)",
    "phone": "0507-1327-1928",
    "latitude": "35.8161058731",
    "longitude": "127.1549916712",
    "image": "",
    "category": "펜션"
  },
  {
    "id": "3438094",
    "title": "더쉼 공간",
    "address": "서울특별시 동대문구 제기로 7 (제기동)",
    "phone": "0507-1349-8450",
    "latitude": "37.5867084504",
    "longitude": "127.0337681902",
    "image": "",
    "category": "펜션"
  },
  {
    "id": "2696352",
    "title": "더스터닝",
    "address": "경상북도 안동시 예일길 22-10",
    "phone": "",
    "latitude": "36.5508088095",
    "longitude": "128.7195601552",
    "image": "",
    "category": "펜션"
  },
  {
    "id": "2699332",
    "title": "더웨이브",
    "address": "부산광역시 수영구 민락수변로 9",
    "phone": "",
    "latitude": "35.1550991290",
    "longitude": "129.1241833736",
    "image": "",
    "category": "펜션"
  },
  {
    "id": "3102094",
    "title": "더캡슐 반포",
    "address": "서울특별시 서초구 주흥3길 13 (반포동)",
    "phone": "070-8095-4126",
    "latitude": "37.5042927742",
    "longitude": "127.0198162412",
    "image": "",
    "category": "펜션"
  },
  {
    "id": "3101922",
    "title": "더파더스",
    "address": "서울특별시 종로구 창경궁로 231 (명륜4가)",
    "phone": "0507-1383-6317",
    "latitude": "37.5827082736",
    "longitude": "126.9980493367",
    "image": "",
    "category": "펜션"
  },
  {
    "id": "3532896",
    "title": "도화스테이",
    "address": "서울특별시 마포구 새창로4가길 9 (도화동)",
    "phone": "010-6326-9649",
    "latitude": "37.5417816542",
    "longitude": "126.9523296616",
    "image": "",
    "category": "펜션"
  },
  {
    "id": "3438716",
    "title": "독채 와이에스",
    "address": "전북특별자치도 전주시 완산구 간납대2길 18 (풍남동3가)",
    "phone": "010-2765-4336",
    "latitude": "35.8168280663",
    "longitude": "127.1580163830",
    "image": "",
    "category": "펜션"
  },
  {
    "id": "3438704",
    "title": "독채 전주 수",
    "address": "전북특별자치도 전주시 완산구 태조로 26-42 (풍남동3가)",
    "phone": "010-2690-4336",
    "latitude": "35.8153836777",
    "longitude": "127.1517808649",
    "image": "",
    "category": "펜션"
  },
  {
    "id": "2608495",
    "title": "둥글하우스 (Doonggle House)",
    "address": "서울특별시 관악구 남부순환로247가길 22",
    "phone": "070-4790-8641",
    "latitude": "37.4774199202",
    "longitude": "126.9654608369",
    "image": "",
    "category": "펜션"
  },
  {
    "id": "3532632",
    "title": "등불의 집",
    "address": "전북특별자치도 군산시 구영신창길 64 (신창동)",
    "phone": "010-9467-0261",
    "latitude": "35.9870953455",
    "longitude": "126.7075243665",
    "image": "",
    "category": "펜션"
  },
  {
    "id": "3533001",
    "title": "디에이치 성수포레",
    "address": "서울특별시 성동구 왕십리로8길 17-5 (성수동1가)",
    "phone": "010-6876-8035",
    "latitude": "37.5464494700",
    "longitude": "127.0466098296",
    "image": "",
    "category": "펜션"
  },
  {
    "id": "2569656",
    "title": "똘랑(똘랑코티지)",
    "address": "전북특별자치도 전주시 완산구 서학로 63-17",
    "phone": "010-3041-8677",
    "latitude": "35.8099121569",
    "longitude": "127.1563472685",
    "image": "",
    "category": "펜션"
  },
  {
    "id": "2570244",
    "title": "뜨레가",
    "address": "전북특별자치도 전주시 완산구 전주천동로 58-10",
    "phone": "010-3457-0061",
    "latitude": "35.8116730340",
    "longitude": "127.1544029510",
    "image": "http://tong.visitkorea.or.kr/cms/resource/84/2568084_image2_1.jpg",
    "category": "펜션"
  },
  {
    "id": "2697656",
    "title": "뜰애펜션",
    "address": "전라남도 순천시 순천만길 574-1",
    "phone": "",
    "latitude": "34.8921414359",
    "longitude": "127.5094758220",
    "image": "",
    "category": "펜션"
  },
  {
    "id": "2630285",
    "title": "라모스펜션",
    "address": "충청남도 태안군 태안읍 안도내길 28-14",
    "phone": "",
    "latitude": "36.8128885278",
    "longitude": "126.3310838522",
    "image": "",
    "category": "펜션"
  },
  {
    "id": "3101934",
    "title": "라온 on 37",
    "address": "경상남도 통영시 남포2길 37 (도남동)",
    "phone": "055-646-2730",
    "latitude": "34.8261039132",
    "longitude": "128.4323190785",
    "image": "",
    "category": "펜션"
  },
  {
    "id": "3532906",
    "title": "라우펜스테이",
    "address": "서울특별시 금천구 독산로44길 29 (시흥동, 인경스마트빌딩)",
    "phone": "010-6267-7530",
    "latitude": "37.4613235109",
    "longitude": "126.9063500049",
    "image": "",
    "category": "펜션"
  },
  {
    "id": "2576479",
    "title": "레드",
    "address": "서울특별시 중구 소공로6길 32",
    "phone": "010-3748-3902",
    "latitude": "37.5583997489",
    "longitude": "126.9847595700",
    "image": "http://tong.visitkorea.or.kr/cms/resource/00/2576100_image2_1.jpg",
    "category": "펜션"
  },
  {
    "id": "2707068",
    "title": "로하스테이",
    "address": "강원특별자치도 춘천시 서면 덕두원길 12",
    "phone": "",
    "latitude": "37.8520086935",
    "longitude": "127.6704025159",
    "image": "http://tong.visitkorea.or.kr/cms/resource/64/2707064_image2_1.jpg",
    "category": "펜션"
  },
  {
    "id": "2804387",
    "title": "린다픽",
    "address": "서울특별시 용산구 이태원로23길 26-5",
    "phone": "0507-1326-4206",
    "latitude": "37.5358052852",
    "longitude": "126.9922206404",
    "image": "http://tong.visitkorea.or.kr/cms/resource/10/2803310_image2_1.jpg",
    "category": "펜션"
  },
  {
    "id": "3102165",
    "title": "마실한옥",
    "address": "전라남도 목포시 영산로 36-7 (대의동2가)",
    "phone": "0507-1336-6877",
    "latitude": "34.7867399223",
    "longitude": "126.3828442872",
    "image": "",
    "category": "펜션"
  },
  {
    "id": "2570597",
    "title": "마이스테이",
    "address": "전북특별자치도 전주시 완산구 동문길 57-8",
    "phone": "010-9020-3177",
    "latitude": "35.8183444356",
    "longitude": "127.1508364271",
    "image": "http://tong.visitkorea.or.kr/cms/resource/14/2568514_image2_1.jpg",
    "category": "펜션"
  },
  {
    "id": "3102116",
    "title": "명보",
    "address": "경기도 고양시 일산동구 무궁화로75번길 6-13 (정발산동)",
    "phone": "031-902-3517",
    "latitude": "37.6660528705",
    "longitude": "126.7722342555",
    "image": "",
    "category": "펜션"
  },
  {
    "id": "2572851",
    "title": "모닝듀 게스트 하우스(모닝듀)",
    "address": "부산광역시 동구 초량중로21번길 5-2",
    "phone": "010-4465-5842",
    "latitude": "35.1141493149",
    "longitude": "129.0364337920",
    "image": "http://tong.visitkorea.or.kr/cms/resource/58/2571658_image2_1.jpg",
    "category": "펜션"
  },
  {
    "id": "3533136",
    "title": "모드하우스",
    "address": "서울특별시 용산구 회나무로39가길 18 (이태원동)",
    "phone": "0507-1371-4331",
    "latitude": "37.5404519981",
    "longitude": "126.9938981342",
    "image": "",
    "category": "펜션"
  },
  {
    "id": "3533168",
    "title": "모모제인",
    "address": "경상북도 경주시 동성로 129-7 (황오동)",
    "phone": "010-5516-7778",
    "latitude": "35.8435484168",
    "longitude": "129.2144923560",
    "image": "",
    "category": "펜션"
  },
  {
    "id": "2572003",
    "title": "목포 올레",
    "address": "전라남도 목포시 열린길 18",
    "phone": "010-4191-9772",
    "latitude": "34.7927752401",
    "longitude": "126.3758975341",
    "image": "http://tong.visitkorea.or.kr/cms/resource/60/2571160_image2_1.jpg",
    "category": "펜션"
  },
  {
    "id": "2697690",
    "title": "무진",
    "address": "전라남도 순천시 순천만길 560",
    "phone": "",
    "latitude": "34.8910221168",
    "longitude": "127.5094647400",
    "image": "",
    "category": "펜션"
  },
  {
    "id": "3044584",
    "title": "미드나잇 인 경주",
    "address": "경상북도 경주시 중앙로29번길 6 (노동동)",
    "phone": "010-4994-4996",
    "latitude": "35.8427345591",
    "longitude": "129.2112565513",
    "image": "http://tong.visitkorea.or.kr/cms/resource/56/3058256_image2_1.jpg",
    "category": "펜션"
  },
  {
    "id": "2707449",
    "title": "백패커스인여수",
    "address": "전라남도 여수시 공화남2길 14",
    "phone": "010-2561-2552",
    "latitude": "34.7452813826",
    "longitude": "127.7429118825",
    "image": "http://tong.visitkorea.or.kr/cms/resource/40/2709140_image2_1.jpg",
    "category": "펜션"
  },
  {
    "id": "2623005",
    "title": "백패커스홈",
    "address": "제주특별자치도 서귀포시 중정로 24-7",
    "phone": "010-7552-4002",
    "latitude": "33.2470449521",
    "longitude": "126.5589896584",
    "image": "",
    "category": "펜션"
  },
  {
    "id": "2572871",
    "title": "백희",
    "address": "전북특별자치도 전주시 완산구 어진길 94-6",
    "phone": "010-3706-6748",
    "latitude": "35.8170945550",
    "longitude": "127.1495254653",
    "image": "http://tong.visitkorea.or.kr/cms/resource/26/2571726_image2_1.jpg",
    "category": "펜션"
  },
  {
    "id": "3533137",
    "title": "베를리너 하우스",
    "address": "부산광역시 부산진구 전포대로224번길 26 (전포동)",
    "phone": "010-3543-8730",
    "latitude": "35.1564645846",
    "longitude": "129.0669383150",
    "image": "",
    "category": "펜션"
  },
  {
    "id": "3102092",
    "title": "별빛쉼터",
    "address": "전북특별자치도 전주시 완산구 향교길 42-9 (교동)",
    "phone": "010-3066-6615",
    "latitude": "35.8113591386",
    "longitude": "127.1519531770",
    "image": "",
    "category": "펜션"
  },
  {
    "id": "3102095",
    "title": "보라보라",
    "address": "서울특별시 용산구 이태원로26길 25-12 (이태원동)",
    "phone": "010-5703-5703",
    "latitude": "37.5333861525",
    "longitude": "126.9939205548",
    "image": "",
    "category": "펜션"
  },
  {
    "id": "3533015",
    "title": "보문소담",
    "address": "서울특별시 성북구 보문로21길 15-3 (보문동5가)",
    "phone": "010-4558-9061",
    "latitude": "37.5829836296",
    "longitude": "127.0196751356",
    "image": "",
    "category": "펜션"
  },
  {
    "id": "3102025",
    "title": "봉봉피아",
    "address": "서울특별시 송파구 위례성대로2길 49 (방이동)",
    "phone": "010-4242-1670",
    "latitude": "37.5128878700",
    "longitude": "127.1114909876",
    "image": "",
    "category": "펜션"
  },
  {
    "id": "3533155",
    "title": "부사노바",
    "address": "대전광역시 중구 대종로315번길 19 (부사동)",
    "phone": "010-8240-5901",
    "latitude": "36.3137317893",
    "longitude": "127.4332647099",
    "image": "",
    "category": "펜션"
  },
  {
    "id": "2623014",
    "title": "브릭216",
    "address": "제주특별자치도 서귀포시 이어도로 216",
    "phone": "010-4382-0216",
    "latitude": "33.2408771391",
    "longitude": "126.4434470348",
    "image": "",
    "category": "펜션"
  },
  {
    "id": "2950401",
    "title": "블라우[한국관광 품질인증/Korea Quality]",
    "address": "경상북도 경주시 태종로699번길 31",
    "phone": "",
    "latitude": "35.8415095729",
    "longitude": "129.2046571650",
    "image": "http://tong.visitkorea.or.kr/cms/resource/10/2949210_image2_1.jpg",
    "category": "펜션"
  },
  {
    "id": "3532607",
    "title": "비엔베뉴",
    "address": "울산광역시 울주군 서생면 진하해변길 34",
    "phone": "010-2571-6747",
    "latitude": "35.3871855988",
    "longitude": "129.3467020260",
    "image": "",
    "category": "펜션"
  },
  {
    "id": "2610892",
    "title": "빅 존스 플레이스",
    "address": "서울특별시 강남구 강남대로110길 31-1",
    "phone": "010-3114-9132",
    "latitude": "37.5041457045",
    "longitude": "127.0273600035",
    "image": "",
    "category": "펜션"
  },
  {
    "id": "3533154",
    "title": "빨간대문",
    "address": "대전광역시 동구 계족로 194-1 (대동)",
    "phone": "010-7571-3655",
    "latitude": "36.3308438742",
    "longitude": "127.4418384792",
    "image": "",
    "category": "펜션"
  },
  {
    "id": "3101936",
    "title": "사당이층집",
    "address": "서울특별시 동작구 동작대로15가길 15 (사당동)",
    "phone": "010-3058-3357",
    "latitude": "37.4819973659",
    "longitude": "126.9766096930",
    "image": "",
    "category": "펜션"
  },
  {
    "id": "2624131",
    "title": "사라네집",
    "address": "대구광역시 남구 중앙대로40길 48-6",
    "phone": "010-2848-0035",
    "latitude": "35.8502860622",
    "longitude": "128.5930856531",
    "image": "",
    "category": "펜션"
  },
  {
    "id": "3101989",
    "title": "산복어울스테이",
    "address": "부산광역시 중구 망양로288번길 7-3 (보수동1가)",
    "phone": "070-7789-1223",
    "latitude": "35.1062111274",
    "longitude": "129.0262404504",
    "image": "",
    "category": "펜션"
  },
  {
    "id": "2610679",
    "title": "상상하우스",
    "address": "대구광역시 남구 매자안길 39",
    "phone": "010-9367-4410",
    "latitude": "35.8314792407",
    "longitude": "128.5595891251",
    "image": "",
    "category": "펜션"
  },
  {
    "id": "3533138",
    "title": "샌드스테이",
    "address": "부산광역시 수영구 광안해변로279번길 29 (민락동, 유정)",
    "phone": "010-8509-7747",
    "latitude": "35.1569128366",
    "longitude": "129.1253526663",
    "image": "",
    "category": "펜션"
  },
  {
    "id": "2608496",
    "title": "샤갈의 집",
    "address": "서울특별시 관악구 남부순환로247길 14-8",
    "phone": "010-4262-8641",
    "latitude": "37.4765478211",
    "longitude": "126.9666746399",
    "image": "",
    "category": "펜션"
  },
  {
    "id": "2574202",
    "title": "서울 성북 홈스테이",
    "address": "서울특별시 성북구 화랑로 76",
    "phone": "010-2227-9627",
    "latitude": "37.6017901504",
    "longitude": "127.0404421537",
    "image": "http://tong.visitkorea.or.kr/cms/resource/73/2573573_image2_1.jpg",
    "category": "펜션"
  },
  {
    "id": "2612196",
    "title": "서울큐브 이화",
    "address": "서울특별시 마포구 대흥로30길 18-10",
    "phone": "010-4458-0876",
    "latitude": "37.5560798947",
    "longitude": "126.9468714213",
    "image": "",
    "category": "펜션"
  },
  {
    "id": "3533019",
    "title": "서유니스테이",
    "address": "서울특별시 종로구 성균관로14길 63 (명륜1가)",
    "phone": "010-9409-7525",
    "latitude": "37.5867411370",
    "longitude": "126.9980047819",
    "image": "",
    "category": "펜션"
  },
  {
    "id": "3532875",
    "title": "세하",
    "address": "전라남도 순천시 하풍동길 60 (풍덕동)",
    "phone": "010-3485-5588",
    "latitude": "34.9400304009",
    "longitude": "127.5036890021",
    "image": "",
    "category": "펜션"
  },
  {
    "id": "3438030",
    "title": "센서빌리",
    "address": "서울특별시 동대문구 서울시립대로25길 10 (전농동)",
    "phone": "010-2145-4339",
    "latitude": "37.5827620188",
    "longitude": "127.0522138438",
    "image": "",
    "category": "펜션"
  },
  {
    "id": "3101918",
    "title": "소담소담",
    "address": "서울특별시 성북구 동소문로13가길 71-1 (동소문동4가)",
    "phone": "0507-1376-7621",
    "latitude": "37.5905075706",
    "longitude": "127.0093925262",
    "image": "",
    "category": "펜션"
  },
  {
    "id": "2699343",
    "title": "솔트",
    "address": "제주특별자치도 제주시 애월읍 애월해안로 226",
    "phone": "",
    "latitude": "33.4670365589",
    "longitude": "126.3363346046",
    "image": "",
    "category": "펜션"
  },
  {
    "id": "3532634",
    "title": "수채화",
    "address": "서울특별시 은평구 녹번로7길 20-18 (녹번동, 수채화)",
    "phone": "010-3618-8576",
    "latitude": "37.6075680418",
    "longitude": "126.9295021044",
    "image": "",
    "category": "펜션"
  },
  {
    "id": "2697776",
    "title": "순천만쉼표펜션",
    "address": "전라남도 순천시 순천만길 726-15",
    "phone": "",
    "latitude": "34.8879195718",
    "longitude": "127.5027542965",
    "image": "",
    "category": "펜션"
  },
  {
    "id": "2702315",
    "title": "스위스파크",
    "address": "인천광역시 중구 을왕로58번길 8",
    "phone": "",
    "latitude": "37.4493043832",
    "longitude": "126.3725712499",
    "image": "",
    "category": "펜션"
  },
  {
    "id": "2620049",
    "title": "스윗 서울",
    "address": "서울특별시 송파구 올림픽로12길 48-1",
    "phone": "010-4911-1175",
    "latitude": "37.5073574508",
    "longitude": "127.0834381418",
    "image": "",
    "category": "펜션"
  },
  {
    "id": "3533112",
    "title": "스윗미1949",
    "address": "서울특별시 용산구 청파로83길 27-2 (서계동)",
    "phone": "010-4667-7987",
    "latitude": "37.5517918792",
    "longitude": "126.9678113012",
    "image": "",
    "category": "펜션"
  },
  {
    "id": "3533139",
    "title": "스테이 공간",
    "address": "서울특별시 영등포구 선유서로25길 18-7 (양평동2가)",
    "phone": "010-6281-3713",
    "latitude": "37.5250101572",
    "longitude": "126.8839197022",
    "image": "",
    "category": "펜션"
  },
  {
    "id": "3533153",
    "title": "스테이 자유",
    "address": "대전광역시 유성구 전민로34번길 27 (전민동)",
    "phone": "010-2933-5252",
    "latitude": "36.3976827268",
    "longitude": "127.4011486341",
    "image": "",
    "category": "펜션"
  },
  {
    "id": "3101938",
    "title": "스테이. 노멀띵스",
    "address": "서울특별시 마포구 성미산로17길 104 (연남동)",
    "phone": "010-4344-9901",
    "latitude": "37.5661087534",
    "longitude": "126.9172266185",
    "image": "",
    "category": "펜션"
  },
  {
    "id": "3533140",
    "title": "스테이별빛숭인",
    "address": "서울특별시 종로구 종로65가길 19 (숭인동)",
    "phone": "010-7406-7104",
    "latitude": "37.5751150931",
    "longitude": "127.0193059481",
    "image": "",
    "category": "펜션"
  },
  {
    "id": "3533004",
    "title": "스테이보리",
    "address": "서울특별시 성동구 성수이로16길 48 (성수동2가)",
    "phone": "010-7577-5474",
    "latitude": "37.5396616376",
    "longitude": "127.0614836687",
    "image": "",
    "category": "펜션"
  },
  {
    "id": "3533020",
    "title": "스테이영에버",
    "address": "서울특별시 종로구 창신8길 17 (창신동)",
    "phone": "010-5190-1529",
    "latitude": "37.5773257918",
    "longitude": "127.0106427863",
    "image": "",
    "category": "펜션"
  },
  {
    "id": "3438035",
    "title": "스테이청운",
    "address": "서울특별시 종로구 자하문로 131-21 (청운동)",
    "phone": "0507-1369-2867",
    "latitude": "37.5877210442",
    "longitude": "126.9682352457",
    "image": "",
    "category": "펜션"
  },
  {
    "id": "3533110",
    "title": "스테이코멧",
    "address": "서울특별시 종로구 창신8길 17 (창신동)",
    "phone": "010-5190-1529",
    "latitude": "37.5773257918",
    "longitude": "127.0106427863",
    "image": "",
    "category": "펜션"
  },
  {
    "id": "3533164",
    "title": "스테이콘티고",
    "address": "서울특별시 마포구 동교로38길 26-7 (연남동)",
    "phone": "010-4681-3902",
    "latitude": "37.5616816357",
    "longitude": "126.9253287829",
    "image": "",
    "category": "펜션"
  },
  {
    "id": "2604028",
    "title": "스페이스 우분투",
    "address": "경상남도 창원시 진해구 여명로 29-1",
    "phone": "055-551-4924",
    "latitude": "35.1589984063",
    "longitude": "128.6541131099",
    "image": "",
    "category": "펜션"
  },
  {
    "id": "3049274",
    "title": "스페이스휴",
    "address": "서울특별시 송파구 오금로31가길 1 (방이동)",
    "phone": "010-2224-2886",
    "latitude": "37.5067304392",
    "longitude": "127.1219318799",
    "image": "http://tong.visitkorea.or.kr/cms/resource/01/3058101_image2_1.jpg",
    "category": "펜션"
  },
  {
    "id": "2621392",
    "title": "승하빌",
    "address": "전북특별자치도 군산시 대학로 114-15",
    "phone": "010-3304-4638",
    "latitude": "35.9811043522",
    "longitude": "126.7069134648",
    "image": "",
    "category": "펜션"
  },
  {
    "id": "2708666",
    "title": "신촌 시스터즈",
    "address": "서울특별시 마포구 백범로2길 24",
    "phone": "010-4354-1613",
    "latitude": "37.5539549409",
    "longitude": "126.9356725027",
    "image": "http://tong.visitkorea.or.kr/cms/resource/92/2708492_image2_1.jpg",
    "category": "펜션"
  },
  {
    "id": "2622969",
    "title": "싱글싱글",
    "address": "부산광역시 동구 초량중로 18-1",
    "phone": "010-9752-6575",
    "latitude": "35.1137465906",
    "longitude": "129.0368393230",
    "image": "",
    "category": "펜션"
  },
  {
    "id": "2575171",
    "title": "아름다운 황토집",
    "address": "서울특별시 은평구 통일로92길 30",
    "phone": "010-3746-2030",
    "latitude": "37.6257102593",
    "longitude": "126.9229855187",
    "image": "http://tong.visitkorea.or.kr/cms/resource/61/2575061_image2_1.png",
    "category": "펜션"
  },
  {
    "id": "2569959",
    "title": "아리하우스",
    "address": "서울특별시 중구 퇴계로22길 11-4",
    "phone": "010-9198-4285",
    "latitude": "37.5603578910",
    "longitude": "126.9867926625",
    "image": "http://tong.visitkorea.or.kr/cms/resource/81/2567981_image2_1.jpg",
    "category": "펜션"
  },
  {
    "id": "3533141",
    "title": "안녕 올라 서울",
    "address": "서울특별시 관악구 남부순환로160길 37 (신림동)",
    "phone": "010-3867-8242",
    "latitude": "37.4817547619",
    "longitude": "126.9226062834",
    "image": "",
    "category": "펜션"
  },
  {
    "id": "3547803",
    "title": "안씨하우스(AnC House)",
    "address": "강원특별자치도 강릉시 경강로2115번길 18 (옥천동)",
    "phone": "",
    "latitude": "37.7571930509",
    "longitude": "128.8968776519",
    "image": "",
    "category": "펜션"
  },
  {
    "id": "3101991",
    "title": "앨리하우스",
    "address": "전북특별자치도 군산시 구영3길 76-5 (신창동)",
    "phone": "010-7506-4805",
    "latitude": "35.9878925064",
    "longitude": "126.7092630788",
    "image": "",
    "category": "펜션"
  },
  {
    "id": "3532571",
    "title": "양스테이",
    "address": "서울특별시 동대문구 망우로 28 (휘경동)",
    "phone": "0507-1481-7173",
    "latitude": "37.5882336827",
    "longitude": "127.0565132967",
    "image": "",
    "category": "펜션"
  },
  {
    "id": "2576511",
    "title": "어반우드",
    "address": "서울특별시 마포구 와우산로29마길 5",
    "phone": "070-8613-0062, 010-8320-0833",
    "latitude": "37.5557184671",
    "longitude": "126.9268538117",
    "image": "http://tong.visitkorea.or.kr/cms/resource/45/2576145_image2_1.PNG",
    "category": "펜션"
  },
  {
    "id": "2707231",
    "title": "에스타시옹1913",
    "address": "전라남도 목포시 해안로177번길 13",
    "phone": "061-242-1913",
    "latitude": "34.7836652663",
    "longitude": "126.3827221497",
    "image": "http://tong.visitkorea.or.kr/cms/resource/46/3021546_image2_1.jpg",
    "category": "펜션"
  },
  {
    "id": "2570692",
    "title": "엘스테이(Gangnam AN guesthouse)",
    "address": "서울특별시 서초구 사평대로53길 8-3",
    "phone": "010-8789-8795",
    "latitude": "37.5048705253",
    "longitude": "127.0220687977",
    "image": "http://tong.visitkorea.or.kr/cms/resource/32/2568832_image2_1.jpg",
    "category": "펜션"
  },
  {
    "id": "3533118",
    "title": "엘하우스",
    "address": "서울특별시 용산구 청파로85가길 19-4 (서계동)",
    "phone": "010-4501-0106",
    "latitude": "37.5520140700",
    "longitude": "126.9675085447",
    "image": "",
    "category": "펜션"
  },
  {
    "id": "2708324",
    "title": "여로(산수동 한옥체험시설)",
    "address": "광주광역시 동구 동계로 16-17",
    "phone": "062-227-8815",
    "latitude": "35.1531798459",
    "longitude": "126.9251984745",
    "image": "http://tong.visitkorea.or.kr/cms/resource/88/2918288_image2_1.jpg",
    "category": "펜션"
  },
  {
    "id": "2604053",
    "title": "여유",
    "address": "경상북도 문경시 중앙4길 22",
    "phone": "0507-1328-2276",
    "latitude": "36.5964216717",
    "longitude": "128.1992190372",
    "image": "",
    "category": "펜션"
  },
  {
    "id": "3105331",
    "title": "여인숙 깔마",
    "address": "서울특별시 종로구 자하문로7길 68-3 (누하동)",
    "phone": "010-7100-7872",
    "latitude": "37.5804885676",
    "longitude": "126.9691325909",
    "image": "",
    "category": "펜션"
  },
  {
    "id": "3049876",
    "title": "연330",
    "address": "서울특별시 은평구 통일로83길 17-24 (갈현동)",
    "phone": "010-2132-5005",
    "latitude": "37.6203274710",
    "longitude": "126.9184499736",
    "image": "",
    "category": "펜션"
  },
  {
    "id": "2814171",
    "title": "엽연초하우스",
    "address": "충청북도 제천시 의병대로12길 8",
    "phone": "043-920-2217",
    "latitude": "37.1365237270",
    "longitude": "128.2072027755",
    "image": "http://tong.visitkorea.or.kr/cms/resource/98/2813298_image2_1.jpg",
    "category": "펜션"
  },
  {
    "id": "2621304",
    "title": "영산나루",
    "address": "전라남도 나주시 주면1길 14",
    "phone": "010-3626-3763",
    "latitude": "34.9979269981",
    "longitude": "126.7048745837",
    "image": "",
    "category": "펜션"
  },
  {
    "id": "2699563",
    "title": "옐로우라이트하우스",
    "address": "부산광역시 수영구 광안해변로370번길 9-32",
    "phone": "",
    "latitude": "35.1567852389",
    "longitude": "129.1343130018",
    "image": "",
    "category": "펜션"
  },
  {
    "id": "3533158",
    "title": "오리지날 백패커스",
    "address": "서울특별시 종로구 종로 313-3 (창신동)",
    "phone": "02-742-4599",
    "latitude": "37.5724874994",
    "longitude": "127.0125455275",
    "image": "",
    "category": "펜션"
  },
  {
    "id": "2626800",
    "title": "오션힐스테이",
    "address": "제주특별자치도 서귀포시 안덕면 사계북로 208",
    "phone": "",
    "latitude": "33.2368032498",
    "longitude": "126.3088143604",
    "image": "",
    "category": "펜션"
  },
  {
    "id": "3438137",
    "title": "오크앤코",
    "address": "서울특별시 동대문구 전농로23길 37 (전농동)",
    "phone": "0507-1380-6768",
    "latitude": "37.5795207640",
    "longitude": "127.0541387604",
    "image": "",
    "category": "펜션"
  },
  {
    "id": "3438197",
    "title": "온스테이",
    "address": "서울특별시 성북구 삼선교로8길 43-12 (삼선동1가)",
    "phone": "010-2248-7340",
    "latitude": "37.5853414853",
    "longitude": "127.0083205481",
    "image": "",
    "category": "펜션"
  },
  {
    "id": "2651924",
    "title": "와이즈하우스",
    "address": "서울특별시 마포구 월드컵북로6길 89-9",
    "phone": "010-4487-7740",
    "latitude": "37.5606011548",
    "longitude": "126.9225040709",
    "image": "",
    "category": "펜션"
  },
  {
    "id": "2700453",
    "title": "웨스트힐스 프라이빗 풀빌라",
    "address": "전라남도 여수시 돌산읍 몰둠벙길 22-9",
    "phone": "",
    "latitude": "34.7018031599",
    "longitude": "127.7569617588",
    "image": "",
    "category": "펜션"
  },
  {
    "id": "3532987",
    "title": "이당",
    "address": "강원특별자치도 양양군 양양읍 관덕정길 20",
    "phone": "010-3339-4992",
    "latitude": "38.0885048730",
    "longitude": "128.6237087303",
    "image": "",
    "category": "펜션"
  },
  {
    "id": "2607423",
    "title": "이바구캠프",
    "address": "부산광역시 동구 망양로525번길 22",
    "phone": "051-467-0289",
    "latitude": "35.1192013827",
    "longitude": "129.0285565614",
    "image": "",
    "category": "펜션"
  },
  {
    "id": "3066163",
    "title": "이오이일",
    "address": "전북특별자치도 전주시 완산구 오목대길 5-19 (교동)",
    "phone": "",
    "latitude": "35.8132256523",
    "longitude": "127.1553861559",
    "image": "http://tong.visitkorea.or.kr/cms/resource/48/3066148_image2_1.jpg",
    "category": "펜션"
  },
  {
    "id": "2570341",
    "title": "이웃",
    "address": "전북특별자치도 군산시 구영1길 11-2",
    "phone": "010-4048-8811",
    "latitude": "35.9860148840",
    "longitude": "126.7058162135",
    "image": "",
    "category": "펜션"
  },
  {
    "id": "2950463",
    "title": "인문힐링센터 여명[한국관광 품질인증/Korea Quality]",
    "address": "경상북도 영덕군 장육사1길 203",
    "phone": "054-730-5820",
    "latitude": "36.5974728629",
    "longitude": "129.2987991315",
    "image": "http://tong.visitkorea.or.kr/cms/resource/20/2950320_image2_1.JPG",
    "category": "펜션"
  },
  {
    "id": "3438580",
    "title": "인센스",
    "address": "전북특별자치도 전주시 완산구 한지길 9-2 (남노송동)",
    "phone": "0507-1437-0302",
    "latitude": "35.8197943121",
    "longitude": "127.1532278427",
    "image": "",
    "category": "펜션"
  },
  {
    "id": "3533143",
    "title": "읽다부산",
    "address": "부산광역시 부산진구 전포대로209번길 43 (전포동)",
    "phone": "010-3160-0408",
    "latitude": "35.1553201932",
    "longitude": "129.0628664782",
    "image": "",
    "category": "펜션"
  },
  {
    "id": "2621735",
    "title": "자연담은(자연담은펜션)",
    "address": "전라남도 여수시 돌산읍 돌산로 3086",
    "phone": "010-3628-6337",
    "latitude": "34.6984230861",
    "longitude": "127.7629057701",
    "image": "",
    "category": "펜션"
  },
  {
    "id": "2602460",
    "title": "자자백팩커스",
    "address": "서울특별시 중구 퇴계로20길 35",
    "phone": "02-3672-1976",
    "latitude": "37.5616049239",
    "longitude": "126.9843234077",
    "image": "",
    "category": "펜션"
  },
  {
    "id": "3532637",
    "title": "자하79",
    "address": "서울특별시 종로구 자하문로 79 (신교동)",
    "phone": "010-2133-0853",
    "latitude": "37.5832354866",
    "longitude": "126.9700407638",
    "image": "",
    "category": "펜션"
  },
  {
    "id": "3438691",
    "title": "전주 한옥마을 덕수궁 별관",
    "address": "전북특별자치도 전주시 완산구 기린대로 72 (풍남동3가)",
    "phone": "010-2765-4336",
    "latitude": "35.8157253606",
    "longitude": "127.1549639058",
    "image": "",
    "category": "펜션"
  },
  {
    "id": "2621378",
    "title": "전주한옥고희",
    "address": "전북특별자치도 전주시 완산구 빙고리3길 5",
    "phone": "010-2030-2345",
    "latitude": "35.8126448613",
    "longitude": "127.1380071621",
    "image": "",
    "category": "펜션"
  },
  {
    "id": "2570724",
    "title": "전주한옥마을 산아래(전주한옥마을산아래)",
    "address": "전북특별자치도 전주시 완산구 오목대길 56",
    "phone": "010-9663-2109",
    "latitude": "35.8131534026",
    "longitude": "127.1533030099",
    "image": "http://tong.visitkorea.or.kr/cms/resource/02/2568902_image2_1.jpg",
    "category": "펜션"
  },
  {
    "id": "2706777",
    "title": "정스패밀리",
    "address": "서울특별시 용산구 효창원로8길 16",
    "phone": "070-7566-2043",
    "latitude": "37.5338797749",
    "longitude": "126.9512744253",
    "image": "http://tong.visitkorea.or.kr/cms/resource/26/2566826_image2_1.jpg",
    "category": "펜션"
  },
  {
    "id": "2627965",
    "title": "제주브릭스",
    "address": "제주특별자치도 서귀포시 태평로 121",
    "phone": "",
    "latitude": "33.2446420718",
    "longitude": "126.5357833901",
    "image": "",
    "category": "펜션"
  },
  {
    "id": "3438564",
    "title": "주황집",
    "address": "강원특별자치도 속초시 장재터마을3길 25 (설악동)",
    "phone": "010-2390-5432",
    "latitude": "38.1567068785",
    "longitude": "128.5632398722",
    "image": "",
    "category": "펜션"
  },
  {
    "id": "3533144",
    "title": "준하우스1",
    "address": "서울특별시 마포구 동교로 211-9 (동교동)",
    "phone": "010-5652-4485",
    "latitude": "37.5592568765",
    "longitude": "126.9230318384",
    "image": "",
    "category": "펜션"
  },
  {
    "id": "3533145",
    "title": "준하우스2",
    "address": "서울특별시 마포구 동교로 211-9 (동교동)",
    "phone": "010-5652-4485",
    "latitude": "37.5592568765",
    "longitude": "126.9230318384",
    "image": "",
    "category": "펜션"
  },
  {
    "id": "3533146",
    "title": "준하우스3",
    "address": "서울특별시 마포구 월드컵북로6길 84 (동교동)",
    "phone": "010-5652-4485",
    "latitude": "37.5600345566",
    "longitude": "126.9226346304",
    "image": "",
    "category": "펜션"
  },
  {
    "id": "3487779",
    "title": "지수남명진취가",
    "address": "경상남도 진주시 지수면 지수로 506",
    "phone": "",
    "latitude": "35.2367994140",
    "longitude": "128.2706251190",
    "image": "http://tong.visitkorea.or.kr/cms/resource/68/3487768_image2_1.jpg",
    "category": "펜션"
  },
  {
    "id": "2570164",
    "title": "지유",
    "address": "서울특별시 종로구 종로 347",
    "phone": "010-6633-8060",
    "latitude": "37.5737346471",
    "longitude": "127.0164673572",
    "image": "http://tong.visitkorea.or.kr/cms/resource/48/2568048_image2_1.jpg",
    "category": "펜션"
  },
  {
    "id": "3533135",
    "title": "진스테이",
    "address": "서울특별시 양천구 목동중앙북로22길 3-14 (목동)",
    "phone": "010-8420-5589",
    "latitude": "37.5461464719",
    "longitude": "126.8773169314",
    "image": "",
    "category": "펜션"
  },
  {
    "id": "2570423",
    "title": "책방",
    "address": "전북특별자치도 군산시 구영5길 100",
    "phone": "010-8760-4678",
    "latitude": "35.9883591377",
    "longitude": "126.7103046402",
    "image": "",
    "category": "펜션"
  },
  {
    "id": "3533147",
    "title": "청킹멘션부산",
    "address": "부산광역시 부산진구 서전로58번길 15-3 (전포동)",
    "phone": "010-3160-0408",
    "latitude": "35.1572450414",
    "longitude": "129.0663189033",
    "image": "",
    "category": "펜션"
  },
  {
    "id": "3101946",
    "title": "캉프맨숀",
    "address": "서울특별시 마포구 동교로23길 32 (동교동)",
    "phone": "0507-1393-4709",
    "latitude": "37.5574792528",
    "longitude": "126.9201182654",
    "image": "",
    "category": "펜션"
  },
  {
    "id": "2622984",
    "title": "캔버스",
    "address": "부산광역시 해운대구 해운대해변로197번길 13",
    "phone": "010-2665-2183",
    "latitude": "35.1592353048",
    "longitude": "129.1526891145",
    "image": "",
    "category": "펜션"
  },
  {
    "id": "2663616",
    "title": "캔버스 블랙",
    "address": "부산광역시 해운대구 해운대해변로197번길 14",
    "phone": "",
    "latitude": "35.1594102909",
    "longitude": "129.1530057486",
    "image": "",
    "category": "펜션"
  },
  {
    "id": "3532981",
    "title": "캠프이노베이션",
    "address": "강원특별자치도 횡성군 공근면 학담서로 137",
    "phone": "010-9219-2542",
    "latitude": "37.5289707728",
    "longitude": "127.9466814220",
    "image": "",
    "category": "펜션"
  },
  {
    "id": "3539026",
    "title": "캡슐인강릉",
    "address": "강원특별자치도 강릉시 창해로 352-1 (강문동)",
    "phone": "",
    "latitude": "37.7948557754",
    "longitude": "128.9181606795",
    "image": "",
    "category": "펜션"
  },
  {
    "id": "3533111",
    "title": "코지스테이(Kozy Stay)",
    "address": "서울특별시 중구 퇴계로87길 49-24 (황학동)",
    "phone": "010-2299-8060",
    "latitude": "37.5679270495",
    "longitude": "127.0198505471",
    "image": "",
    "category": "펜션"
  },
  {
    "id": "3102115",
    "title": "쿤하우스",
    "address": "서울특별시 용산구 후암로 91-20 (동자동)",
    "phone": "010-9518-8894",
    "latitude": "37.5528890963",
    "longitude": "126.9746328707",
    "image": "",
    "category": "펜션"
  },
  {
    "id": "3533163",
    "title": "퀸하우스",
    "address": "서울특별시 마포구 동교로 153-5 (서교동)",
    "phone": "010-4039-5004",
    "latitude": "37.5558905261",
    "longitude": "126.9188489813",
    "image": "",
    "category": "펜션"
  },
  {
    "id": "3532722",
    "title": "트래블라이트",
    "address": "부산광역시 부산진구 서면로68번길 52 (부전동)",
    "phone": "010-4165-1798",
    "latitude": "35.1546812913",
    "longitude": "129.0582835611",
    "image": "",
    "category": "펜션"
  },
  {
    "id": "2570093",
    "title": "파리랜드(ParisLand)",
    "address": "경기도 파주시 파주읍 주라위길 60-6",
    "phone": "82-10-4105-2576",
    "latitude": "37.8145609623",
    "longitude": "126.7945252330",
    "image": "http://tong.visitkorea.or.kr/cms/resource/14/2568014_image2_1.jpg",
    "category": "펜션"
  },
  {
    "id": "2621969",
    "title": "펜션연리",
    "address": "제주특별자치도 서귀포시 논짓물로 50",
    "phone": "064-739-2564",
    "latitude": "33.2405179405",
    "longitude": "126.3859881372",
    "image": "",
    "category": "펜션"
  },
  {
    "id": "3103195",
    "title": "포도봉봉",
    "address": "강원특별자치도 강릉시 경강로1804번길 181-1 (홍제동)",
    "phone": "010-5376-1353",
    "latitude": "37.7478077964",
    "longitude": "128.8851290005",
    "image": "",
    "category": "펜션"
  },
  {
    "id": "3102126",
    "title": "필스테이 이화 부띠끄",
    "address": "서울특별시 서대문구 이화여대길 43 (대현동)",
    "phone": "010-4362-6296",
    "latitude": "37.5588934317",
    "longitude": "126.9454964679",
    "image": "",
    "category": "펜션"
  },
  {
    "id": "2570586",
    "title": "하늘",
    "address": "전북특별자치도 군산시 구영3길 72",
    "phone": "010-5396-5624",
    "latitude": "35.9876952998",
    "longitude": "126.7088492326",
    "image": "",
    "category": "펜션"
  },
  {
    "id": "3533148",
    "title": "하우스 오브 로터스",
    "address": "서울특별시 성동구 무학봉15길 27-15 (하왕십리동)",
    "phone": "010-9171-2878",
    "latitude": "37.5635027428",
    "longitude": "127.0298192093",
    "image": "",
    "category": "펜션"
  },
  {
    "id": "3533149",
    "title": "하우스 오브 카멜리아",
    "address": "서울특별시 광진구 용마산로2길 8-12 (중곡동)",
    "phone": "010-9171-2878",
    "latitude": "37.5544659713",
    "longitude": "127.0891140651",
    "image": "",
    "category": "펜션"
  },
  {
    "id": "3438558",
    "title": "하이드 인 바인 서촌",
    "address": "서울특별시 종로구 필운대로6길 17-15 (통인동)",
    "phone": "0507-1414-0676",
    "latitude": "37.5806218990",
    "longitude": "126.9698991840",
    "image": "",
    "category": "펜션"
  },
  {
    "id": "3101921",
    "title": "하이앤드하우스",
    "address": "부산광역시 중구 고가길 24-1 (보수동1가)",
    "phone": "070-4007-8642",
    "latitude": "35.1039280585",
    "longitude": "129.0267265815",
    "image": "",
    "category": "펜션"
  },
  {
    "id": "2571971",
    "title": "한스하우스(Hans house)",
    "address": "서울특별시 종로구 자하문로1다길 20",
    "phone": "010-6248-6600",
    "latitude": "37.5774778296",
    "longitude": "126.9704270026",
    "image": "http://tong.visitkorea.or.kr/cms/resource/23/2571123_image2_1.jpg",
    "category": "펜션"
  },
  {
    "id": "2626708",
    "title": "해성파크텔",
    "address": "제주특별자치도 서귀포시 천제연로 158-4",
    "phone": "",
    "latitude": "33.2523116402",
    "longitude": "126.4213570284",
    "image": "",
    "category": "펜션"
  },
  {
    "id": "3474156",
    "title": "햇살가득",
    "address": "전북특별자치도 전주시 완산구 향교길 97-24 (교동)",
    "phone": "",
    "latitude": "35.8122924222",
    "longitude": "127.1552278612",
    "image": "",
    "category": "펜션"
  },
  {
    "id": "3102114",
    "title": "행복동1가",
    "address": "전라남도 목포시 해안로 235-4 (행복동1가)",
    "phone": "010-2059-0826",
    "latitude": "34.7861261772",
    "longitude": "126.3874105654",
    "image": "",
    "category": "펜션"
  },
  {
    "id": "3438411",
    "title": "행복스테이",
    "address": "서울특별시 서초구 바우뫼로11길 71 (우면동, 행복한집)",
    "phone": "010-5326-0626",
    "latitude": "37.4729215135",
    "longitude": "127.0252333019",
    "image": "",
    "category": "펜션"
  },
  {
    "id": "3533150",
    "title": "행운인생",
    "address": "부산광역시 남구 고동골로 40 (문현동)",
    "phone": "010-9845-1028",
    "latitude": "35.1405414480",
    "longitude": "129.0712911502",
    "image": "",
    "category": "펜션"
  },
  {
    "id": "3102118",
    "title": "헤이스 하우스1",
    "address": "서울특별시 마포구 신촌로20길 40 (노고산동)",
    "phone": "010-5301-1711",
    "latitude": "37.5536300310",
    "longitude": "126.9385889127",
    "image": "",
    "category": "펜션"
  },
  {
    "id": "3102117",
    "title": "헤이스 하우스2",
    "address": "서울특별시 마포구 신촌로20길 40 (노고산동)",
    "phone": "010-5301-1711",
    "latitude": "37.5536300310",
    "longitude": "126.9385889127",
    "image": "",
    "category": "펜션"
  },
  {
    "id": "3438188",
    "title": "호우재",
    "address": "서울특별시 성북구 성북로19길 23 (성북동)",
    "phone": "",
    "latitude": "37.5924959910",
    "longitude": "126.9962075601",
    "image": "",
    "category": "펜션"
  },
  {
    "id": "3533151",
    "title": "홍스테이신당",
    "address": "서울특별시 중구 난계로13길 33 (황학동)",
    "phone": "010-8445-0828",
    "latitude": "37.5673049350",
    "longitude": "127.0218448276",
    "image": "",
    "category": "펜션"
  },
  {
    "id": "2604211",
    "title": "화이트테일",
    "address": "서울특별시 마포구 동교로38안길 8-1",
    "phone": "010-2922-4093",
    "latitude": "37.5649506550",
    "longitude": "126.9227983656",
    "image": "",
    "category": "펜션"
  },
  {
    "id": "2610960",
    "title": "회랑정",
    "address": "서울특별시 강서구 공항대로53나길 6-9",
    "phone": "010-7172-9715",
    "latitude": "37.5550895591",
    "longitude": "126.8595266354",
    "image": "",
    "category": "펜션"
  },
  {
    "id": "2621320",
    "title": "휴",
    "address": "전북특별자치도 전주시 완산구 전주천동로 80-15",
    "phone": "010-32603858",
    "latitude": "35.8115480104",
    "longitude": "127.1522364803",
    "image": "",
    "category": "펜션"
  },
  {
    "id": "2572759",
    "title": "휴(휴펜션)",
    "address": "전북특별자치도 전주시 완산구 전주천동로 80-15",
    "phone": "010-3260-3858",
    "latitude": "35.8114980164",
    "longitude": "127.1522253715",
    "image": "http://tong.visitkorea.or.kr/cms/resource/55/2571355_image2_1.jpg",
    "category": "펜션"
  },
  {
    "id": "2570676",
    "title": "히노키잠(1호점)",
    "address": "전북특별자치도 군산시 구영6길 54-1",
    "phone": "010-8644-7515",
    "latitude": "35.9864676750",
    "longitude": "126.7096047516",
    "image": "http://tong.visitkorea.or.kr/cms/resource/12/3036912_image2_1.jpg",
    "category": "펜션"
  },
  {
    "id": "3533152",
    "title": "힐제이",
    "address": "서울특별시 종로구 창신길 159-1 (창신동, 동문아트빌라)",
    "phone": "010-3272-1728",
    "latitude": "37.5783867504",
    "longitude": "127.0090234588",
    "image": "",
    "category": "펜션"
  },
  {
    "id": "2603706",
    "title": "1012 하우스 남산",
    "address": "서울특별시 중구 소공로6가길 22",
    "phone": "010-3488-6838",
    "latitude": "37.5604272406",
    "longitude": "126.9819569902",
    "image": "",
    "category": "펜션"
  },
  {
    "id": "3438565",
    "title": "3.42 스테이",
    "address": "강원특별자치도 양양군 현남면 동해대로 849-22",
    "phone": "0507-1396-0652",
    "latitude": "37.9769037547",
    "longitude": "128.7567112678",
    "image": "",
    "category": "펜션"
  },
  {
    "id": "2602549",
    "title": "96번지 트래블러스 롯지",
    "address": "서울특별시 중구 퇴계로 343-1",
    "phone": "02-2272-0003",
    "latitude": "37.5675963138",
    "longitude": "127.0076655554",
    "image": "",
    "category": "펜션"
  },
  {
    "id": "2570213",
    "title": "AJ하우스(AJ House)",
    "address": "부산광역시 영도구 태종로 40",
    "phone": "010-2171-0390",
    "latitude": "35.0945070713",
    "longitude": "129.0365232086",
    "image": "http://tong.visitkorea.or.kr/cms/resource/64/2568064_image2_1.jpg",
    "category": "펜션"
  },
  {
    "id": "2607446",
    "title": "AT 30",
    "address": "서울특별시 마포구 양화로19길 22-13",
    "phone": "010-9086-8860",
    "latitude": "37.5589208267",
    "longitude": "126.9242872892",
    "image": "",
    "category": "펜션"
  },
  {
    "id": "2602468",
    "title": "B my guesthouse",
    "address": "서울특별시 중구 소공로6가길 2",
    "phone": "02-757-8883",
    "latitude": "37.5612549190",
    "longitude": "126.9817875377",
    "image": "",
    "category": "펜션"
  },
  {
    "id": "2619938",
    "title": "brother house(artist house)",
    "address": "서울특별시 마포구 연희로1길 55-6",
    "phone": "010-7751-5343",
    "latitude": "37.5614150131",
    "longitude": "126.9260787223",
    "image": "",
    "category": "펜션"
  },
  {
    "id": "2663306",
    "title": "casa cielo",
    "address": "서울특별시 용산구 청파로63길 18",
    "phone": "",
    "latitude": "37.5484006303",
    "longitude": "126.9691196115",
    "image": "",
    "category": "펜션"
  },
  {
    "id": "2573944",
    "title": "Cozy Lodge",
    "address": "서울특별시 관악구 성현로 80",
    "phone": "010-5255-0591",
    "latitude": "37.4898015680",
    "longitude": "126.9515978613",
    "image": "http://tong.visitkorea.or.kr/cms/resource/23/2573023_image2_1.jpeg",
    "category": "펜션"
  },
  {
    "id": "2619965",
    "title": "Goldlady's House",
    "address": "서울특별시 송파구 올림픽로 99",
    "phone": "010-5649-7568",
    "latitude": "37.5133567215",
    "longitude": "127.0816103603",
    "image": "",
    "category": "펜션"
  },
  {
    "id": "3532764",
    "title": "H스테이",
    "address": "전북특별자치도 전주시 덕진구 가리내로 134 (덕진동1가, 한우주택)",
    "phone": "010-4719-8574",
    "latitude": "35.8366279694",
    "longitude": "127.1221884983",
    "image": "",
    "category": "펜션"
  },
  {
    "id": "2568938",
    "title": "Jeong's family(정스패밀리)",
    "address": "서울특별시 용산구 효창원로8길 16",
    "phone": "010-6332-2043",
    "latitude": "37.5335103739",
    "longitude": "126.9512744357",
    "image": "",
    "category": "펜션"
  },
  {
    "id": "2696504",
    "title": "JSTAY",
    "address": "부산광역시 수영구 남천바다로 31-1",
    "phone": "",
    "latitude": "35.1488052015",
    "longitude": "129.1140538711",
    "image": "",
    "category": "펜션"
  },
  {
    "id": "2621484",
    "title": "K-PARK(케이파크)",
    "address": "전라남도 여수시 돌산읍 돌산로 3108",
    "phone": "010-2718-7189",
    "latitude": "34.6997312498",
    "longitude": "127.7615808525",
    "image": "",
    "category": "펜션"
  },
  {
    "id": "2697441",
    "title": "KEY WEST",
    "address": "전라남도 여수시 이순신광장로 139",
    "phone": "",
    "latitude": "34.7377960505",
    "longitude": "127.7395040369",
    "image": "",
    "category": "펜션"
  },
  {
    "id": "3438559",
    "title": "Stay Vibe",
    "address": "서울특별시 종로구 평창1길 7-4 (평창동)",
    "phone": "0507-1414-2388",
    "latitude": "37.6052328134",
    "longitude": "126.9635768407",
    "image": "",
    "category": "펜션"
  },
  {
    "id": "2574209",
    "title": "SUMI HOUSE",
    "address": "강원특별자치도 강릉시 해안로 93-8",
    "phone": "010-2280-2242",
    "latitude": "37.7786051923",
    "longitude": "128.9342402905",
    "image": "http://tong.visitkorea.or.kr/cms/resource/81/2573581_image2_1.jpg",
    "category": "펜션"
  },
  {
    "id": "2624028",
    "title": "Sweet Home Seoul",
    "address": "서울특별시 영등포구 영중로 145",
    "phone": "010-3258-4751",
    "latitude": "37.5296488819",
    "longitude": "126.9049204352",
    "image": "",
    "category": "펜션"
  },
  {
    "id": "2569249",
    "title": "The house of Gallery(The house of gallery)",
    "address": "대구광역시 남구 대명로57길 20-22",
    "phone": "010-4509-3952",
    "latitude": "35.8450032255",
    "longitude": "128.5875973939",
    "image": "http://tong.visitkorea.or.kr/cms/resource/57/2567057_image2_1.jpeg",
    "category": "펜션"
  },
  {
    "id": "2624014",
    "title": "The Park Guest House",
    "address": "부산광역시 수영구 광남로 151",
    "phone": "010-5822-3755",
    "latitude": "35.1548712584",
    "longitude": "129.1177867137",
    "image": "",
    "category": "펜션"
  },
  {
    "id": "2576334",
    "title": "Tina`s Homestay",
    "address": "서울특별시 송파구 삼학사로19길 17",
    "phone": "010-5165-2175",
    "latitude": "37.5059050538",
    "longitude": "127.0952287768",
    "image": "http://tong.visitkorea.or.kr/cms/resource/52/2575952_image2_1.jpg",
    "category": "펜션"
  },
  {
    "id": "2608038",
    "title": "USB하우스",
    "address": "서울특별시 중구 동호로 290-9",
    "phone": "02-2266-5114",
    "latitude": "37.5606526013",
    "longitude": "127.0035189077",
    "image": "",
    "category": "펜션"
  },
  {
    "id": "2651936",
    "title": "Y's house",
    "address": "서울특별시 마포구 월드컵북로6길 89-9",
    "phone": "010-4487-7740",
    "latitude": "37.5606011548",
    "longitude": "126.9225040709",
    "image": "",
    "category": "펜션"
  },
  {
    "id": "3348137",
    "title": "멍펜션",
    "address": "경기도 가평군 조종면 현등사길 55-361",
    "phone": "",
    "latitude": "37.8592879266",
    "longitude": "127.3438653967",
    "image": "http://tong.visitkorea.or.kr/cms/resource/34/3348134_image2_1.jpg",
    "category": "펜션",
    "original_category": "모텔"
  },
  {
    "id": "3337413",
    "title": "스페인마을 라스블랑카스 펜션",
    "address": "경기도 가평군 청평면 남이터길 54-12",
    "phone": "",
    "latitude": "37.6894887457",
    "longitude": "127.3716178046",
    "image": "http://tong.visitkorea.or.kr/cms/resource/00/3337400_image2_1.jpg",
    "category": "펜션",
    "original_category": "모텔"
  },
  {
    "id": "2570570",
    "title": "경주 감포한옥펜션",
    "address": "경상북도 경주시 감포읍 감포로10길 40-11",
    "phone": "010-7511-2688",
    "latitude": "35.8153264806",
    "longitude": "129.5008736523",
    "image": "http://tong.visitkorea.or.kr/cms/resource/63/2568463_image2_1.jpg",
    "category": "펜션",
    "original_category": "홈스테이"
  },
  {
    "id": "2663296",
    "title": "경주 한옥(경주한옥펜션)",
    "address": "경상북도 경주시 도초길 124-31",
    "phone": "",
    "latitude": "35.8014083960",
    "longitude": "129.1968562111",
    "image": "",
    "category": "펜션",
    "original_category": "홈스테이"
  },
  {
    "id": "3469882",
    "title": "사계절 해오름 한옥펜션",
    "address": "전라남도 순천시 낙안면 조정래길 786-2",
    "phone": "010-3629-4142",
    "latitude": "34.9076618563",
    "longitude": "127.3443010443",
    "image": "",
    "category": "펜션",
    "original_category": "홈스테이"
  },
  {
    "id": "2575839",
    "title": "사랑나무 한옥펜션",
    "address": "전북특별자치도 전주시 완산구 은행로 96",
    "phone": "010-5171-7970",
    "latitude": "35.8114369196",
    "longitude": "127.1526697781",
    "image": "http://tong.visitkorea.or.kr/cms/resource/49/2575649_image2_1.jpg",
    "category": "펜션",
    "original_category": "홈스테이"
  },
  {
    "id": "3532743",
    "title": "아늑한가 서울한옥 스테이 풀빌라 스파펜션",
    "address": "경기도 의정부시 평화로15번길 11 (호원동)",
    "phone": "010-4799-8586",
    "latitude": "37.6937656278",
    "longitude": "127.0439392124",
    "image": "",
    "category": "펜션",
    "original_category": "홈스테이"
  },
  {
    "id": "2610526",
    "title": "안정궁 관광 한옥 펜션",
    "address": "경상남도 통영시 광도면 안정2길 95",
    "phone": "055-648-2528",
    "latitude": "34.9454732795",
    "longitude": "128.3981550249",
    "image": "",
    "category": "펜션",
    "original_category": "홈스테이"
  },
  {
    "id": "3102074",
    "title": "알천스테이 한옥커플가족독채펜션",
    "address": "경상북도 경주시 원효로272번길 3 (구황동)",
    "phone": "010-8854-7854",
    "latitude": "35.8408656933",
    "longitude": "129.2307465637",
    "image": "",
    "category": "펜션",
    "original_category": "홈스테이"
  },
  {
    "id": "1882210",
    "title": "얼음골한옥펜션",
    "address": "경상남도 밀양시 산내면 하양지안길 11-12",
    "phone": "010-7100-6203",
    "latitude": "35.5982934067",
    "longitude": "128.9532971446",
    "image": "http://tong.visitkorea.or.kr/cms/resource/04/2691004_image2_1.jpg",
    "category": "펜션",
    "original_category": "홈스테이"
  },
  {
    "id": "2531683",
    "title": "옛마실펜션",
    "address": "경상남도 거제시 마전1길 65",
    "phone": "",
    "latitude": "34.8510285970",
    "longitude": "128.7243180171",
    "image": "http://tong.visitkorea.or.kr/cms/resource/07/3017007_image2_1.jpg",
    "category": "펜션",
    "original_category": "홈스테이"
  },
  {
    "id": "2621417",
    "title": "장락원(장락원전통한옥펜션)",
    "address": "경기도 가평군 설악면 미사리로 914",
    "phone": "010-5359-7780",
    "latitude": "37.7273737913",
    "longitude": "127.5532335093",
    "image": "",
    "category": "펜션",
    "original_category": "홈스테이"
  },
  {
    "id": "2050339",
    "title": "장보고한옥펜션",
    "address": "인천광역시 강화군 송해면 강화대로833번길 44-30",
    "phone": "010-7155-3585",
    "latitude": "37.7626608462",
    "longitude": "126.4469446583",
    "image": "http://tong.visitkorea.or.kr/cms/resource/78/2050278_image2_1.jpg",
    "category": "펜션",
    "original_category": "홈스테이"
  },
  {
    "id": "2531675",
    "title": "진도한옥펜션",
    "address": "전라남도 진도군 의신면 진도대로 3146-3",
    "phone": "061-544-7316",
    "latitude": "34.3985179405",
    "longitude": "126.2773378125",
    "image": "http://tong.visitkorea.or.kr/cms/resource/77/2576377_image2_1.jpg",
    "category": "펜션",
    "original_category": "홈스테이"
  },
  {
    "id": "1884057",
    "title": "태백산 한옥펜션[한국관광 품질인증/Korea Quality]",
    "address": "강원특별자치도 태백시 소롯골길 34",
    "phone": "033-552-2367",
    "latitude": "37.1342825662",
    "longitude": "128.9518972642",
    "image": "http://tong.visitkorea.or.kr/cms/resource/32/2992532_image2_1.jpg",
    "category": "펜션",
    "original_category": "홈스테이"
  },
  {
    "id": "2698914",
    "title": "한옥펜션 나비의 꿈",
    "address": "전북특별자치도 부안군 진서면 내소사로 129",
    "phone": "063-582-7651",
    "latitude": "35.6081197797",
    "longitude": "126.5851033198",
    "image": "http://tong.visitkorea.or.kr/cms/resource/08/2698208_image2_1.jpg",
    "category": "펜션",
    "original_category": "홈스테이"
  },
  {
    "id": "3101954",
    "title": "한옥펜션 수수헌",
    "address": "전북특별자치도 익산시 금마면 미륵사지로5길 24-1",
    "phone": "010-9900-6424",
    "latitude": "35.9923950883",
    "longitude": "127.0502547162",
    "image": "",
    "category": "펜션",
    "original_category": "홈스테이"
  },
  {
    "id": "2603913",
    "title": "후연지한옥펜션",
    "address": "경상북도 경주시 내남면 포석로 435-9",
    "phone": "010-4624-6880",
    "latitude": "35.7805108903",
    "longitude": "129.2041228345",
    "image": "",
    "category": "펜션",
    "original_category": "홈스테이"
  }
]