[
  {
    "id": "2918421",
    "title": "레이크베이호스텔",
    "address": "경기도 고양시 일산동구 정발산로 15 (장항동)",
    "phone": "",
    "latitude": "37.6564872867",
    "longitude": "126.7705263475",
    "image": "http://tong.visitkorea.or.kr/cms/resource/80/2893580_image2_1.jpg",
    "category": "호스텔",
    "original_category": "관광호텔"
  },
  {
    "id": "2817140",
    "title": "위고인호스텔",
    "address": "서울특별시 서대문구 신촌로 141 (대현동)",
    "phone": "",
    "latitude": "37.5569158138",
    "longitude": "126.9415885468",
    "image": "http://tong.visitkorea.or.kr/cms/resource/29/2817129_image2_1.png",
    "category": "호스텔",
    "original_category": "관광호텔"
  },
  {
    "id": "2578477",
    "title": "거제뷰골프텔",
    "address": "경상남도 거제시 거제면 두동로 259-80",
    "phone": "055-639-2222",
    "latitude": "34.8810839383",
    "longitude": "128.5906455117",
    "image": "",
    "category": "호스텔"
  },
  {
    "id": "137379",
    "title": "나인밸리파크",
    "address": "충청북도 보은군 마로면 임곡길 66-80",
    "phone": "043-542-0981",
    "latitude": "36.4291484926",
    "longitude": "127.8607067082",
    "image": "http://tong.visitkorea.or.kr/cms/resource/52/1960352_image2_1.jpg",
    "category": "호스텔"
  },
  {
    "id": "2769724",
    "title": "더위트 도고",
    "address": "충청남도 아산시 도고면 기곡로62번길 6-8",
    "phone": "",
    "latitude": "36.7612374801",
    "longitude": "126.8881876315",
    "image": "http://tong.visitkorea.or.kr/cms/resource/96/2770496_image2_1.jpg",
    "category": "호스텔"
  },
  {
    "id": "3465936",
    "title": "델피노 소노캄",
    "address": "강원특별자치도 고성군 토성면 미시령옛길 1153",
    "phone": "033-639-8317",
    "latitude": "38.2075246860",
    "longitude": "128.4973942731",
    "image": "",
    "category": "호스텔"
  },
  {
    "id": "3044530",
    "title": "동국대학교 만해마을",
    "address": "강원특별자치도 인제군 북면 만해로 91",
    "phone": "033-462-2303",
    "latitude": "38.1859431442",
    "longitude": "128.3161336509",
    "image": "http://tong.visitkorea.or.kr/cms/resource/93/3054993_image2_1.jpg",
    "category": "호스텔"
  },
  {
    "id": "1798704",
    "title": "라카이 샌드파인",
    "address": "강원특별자치도 강릉시 해안로 536",
    "phone": "1644-3001",
    "latitude": "37.8070679831",
    "longitude": "128.9044337601",
    "image": "http://tong.visitkorea.or.kr/cms/resource/28/3504828_image2_1.jpg",
    "category": "호스텔"
  },
  {
    "id": "1161739",
    "title": "리솜포레스트(제천)",
    "address": "충청북도 제천시 백운면 금봉로 365",
    "phone": "",
    "latitude": "37.1588459307",
    "longitude": "128.0461582662",
    "image": "http://tong.visitkorea.or.kr/cms/resource/90/2769490_image2_1.jpg",
    "category": "호스텔"
  },
  {
    "id": "3075356",
    "title": "마티에 오시리아",
    "address": "부산광역시 기장군 기장읍 동부산관광7로 17",
    "phone": "",
    "latitude": "35.1884970648",
    "longitude": "129.2145134896",
    "image": "http://tong.visitkorea.or.kr/cms/resource/44/3075344_image2_1.JPG",
    "category": "호스텔"
  },
  {
    "id": "979885",
    "title": "무창포 비체팰리스",
    "address": "충청남도 보령시 웅천읍 열린바다1길 78",
    "phone": "041-939-5757",
    "latitude": "36.2393857008",
    "longitude": "126.5313725027",
    "image": "http://tong.visitkorea.or.kr/cms/resource/77/1338277_image2_1.jpg",
    "category": "호스텔"
  },
  {
    "id": "2755497",
    "title": "베이힐풀앤빌라",
    "address": "제주특별자치도 서귀포시 예래로 424 (하예동)",
    "phone": "",
    "latitude": "33.2362876436",
    "longitude": "126.3727699336",
    "image": "http://tong.visitkorea.or.kr/cms/resource/17/2755617_image2_1.jpg",
    "category": "호스텔"
  },
  {
    "id": "228935",
    "title": "소노벨 단양",
    "address": "충청북도 단양군 단양읍 삼봉로 187-17",
    "phone": "1588-4888",
    "latitude": "36.9775838038",
    "longitude": "128.3626906905",
    "image": "http://tong.visitkorea.or.kr/cms/resource/07/2496507_image2_1.jpg",
    "category": "호스텔"
  },
  {
    "id": "136636",
    "title": "소노벨 비발디파크",
    "address": "강원특별자치도 홍천군 서면 한치골길 262",
    "phone": "1588-4888",
    "latitude": "37.6523905338",
    "longitude": "127.6873540732",
    "image": "http://tong.visitkorea.or.kr/cms/resource/73/1335773_image2_1.jpg",
    "category": "호스텔"
  },
  {
    "id": "232287",
    "title": "소노벨 제주",
    "address": "제주특별자치도 제주시 신북로 577 대명리조트",
    "phone": "1588-4888",
    "latitude": "33.5402087913",
    "longitude": "126.6713315983",
    "image": "http://tong.visitkorea.or.kr/cms/resource/74/2709574_image2_1.jpg",
    "category": "호스텔"
  },
  {
    "id": "2775632",
    "title": "소노벨 천안",
    "address": "충청남도 천안시 동남구 성남면 소노로 1",
    "phone": "",
    "latitude": "36.7573605298",
    "longitude": "127.2241130190",
    "image": "http://tong.visitkorea.or.kr/cms/resource/54/2775654_image2_1.jpg",
    "category": "호스텔"
  },
  {
    "id": "2770765",
    "title": "소노벨 청송",
    "address": "경상북도 청송군 주왕산면 소노로 38",
    "phone": "",
    "latitude": "36.3766999320",
    "longitude": "129.1104528200",
    "image": "http://tong.visitkorea.or.kr/cms/resource/35/2770835_image2_1.jpg",
    "category": "호스텔"
  },
  {
    "id": "3466048",
    "title": "소노펠리체 델피노",
    "address": "강원특별자치도 고성군 토성면 미시령옛길 1153",
    "phone": "033-639-8317",
    "latitude": "38.2075246860",
    "longitude": "128.4973942731",
    "image": "",
    "category": "호스텔"
  },
  {
    "id": "232298",
    "title": "아난티 남해",
    "address": "경상남도 남해군 남면 남서대로1179번길 40-109",
    "phone": "055-860-0100",
    "latitude": "34.7774074746",
    "longitude": "127.8529458871",
    "image": "http://tong.visitkorea.or.kr/cms/resource/80/1210080_image2_1.jpg",
    "category": "호스텔"
  },
  {
    "id": "2765676",
    "title": "아난티펜트하우스서울",
    "address": "경기도 가평군 설악면 유명로 1007-90",
    "phone": "",
    "latitude": "37.6265675506",
    "longitude": "127.4835511147",
    "image": "http://tong.visitkorea.or.kr/cms/resource/37/2766237_image2_1.png",
    "category": "호스텔"
  },
  {
    "id": "2668701",
    "title": "아일랜드 리솜",
    "address": "충청남도 태안군 안면읍 꽃지해안로 204",
    "phone": "",
    "latitude": "36.4889842896",
    "longitude": "126.3370668317",
    "image": "",
    "category": "호스텔"
  },
  {
    "id": "3566221",
    "title": "안토",
    "address": "서울특별시 강북구 삼양로 689 (우이동)",
    "phone": "",
    "latitude": "37.6640768135",
    "longitude": "127.0105292187",
    "image": "http://tong.visitkorea.or.kr/cms/resource/63/3565263_image2_1.jpg",
    "category": "호스텔"
  },
  {
    "id": "3112141",
    "title": "야크마을",
    "address": "제주특별자치도 서귀포시 색달중앙로 162",
    "phone": "",
    "latitude": "33.2691263446",
    "longitude": "126.4146822318",
    "image": "",
    "category": "호스텔"
  },
  {
    "id": "983958",
    "title": "엘리시안 제주",
    "address": "제주특별자치도 제주시 애월읍 평화로 1738-116",
    "phone": "064-798-7001",
    "latitude": "33.3734198363",
    "longitude": "126.3804134293",
    "image": "",
    "category": "호스텔"
  },
  {
    "id": "137475",
    "title": "오크밸리",
    "address": "강원특별자치도 원주시 지정면 오크밸리1길 66",
    "phone": "1588-7676",
    "latitude": "37.4343765405",
    "longitude": "127.8175319833",
    "image": "http://tong.visitkorea.or.kr/cms/resource/18/3513018_image2_1.jpg",
    "category": "호스텔"
  },
  {
    "id": "2007951",
    "title": "오크우드 프리미어 인천",
    "address": "인천광역시 연수구 컨벤시아대로 165",
    "phone": "",
    "latitude": "37.3891939097",
    "longitude": "126.6444564277",
    "image": "http://tong.visitkorea.or.kr/cms/resource/37/2720037_image2_1.jpg",
    "category": "호스텔"
  },
  {
    "id": "139111",
    "title": "올리브뷰띠끄",
    "address": "강원특별자치도 평창군 대관령면 눈마을길 39",
    "phone": "010-3570-6200",
    "latitude": "37.6712660211",
    "longitude": "128.7096110538",
    "image": "http://tong.visitkorea.or.kr/cms/resource/22/206122_image2_1.jpg",
    "category": "호스텔"
  },
  {
    "id": "136548",
    "title": "웰리힐리파크",
    "address": "강원특별자치도 횡성군 둔내면 고원로 451",
    "phone": "",
    "latitude": "37.4872340609",
    "longitude": "128.2492886569",
    "image": "http://tong.visitkorea.or.kr/cms/resource/62/2720962_image2_1.jpg",
    "category": "호스텔"
  },
  {
    "id": "2433873",
    "title": "인제스피디움",
    "address": "강원특별자치도 인제군 기린면 상하답로 130",
    "phone": "1644-3366",
    "latitude": "38.0012086833",
    "longitude": "128.2950634635",
    "image": "http://tong.visitkorea.or.kr/cms/resource/15/2598215_image2_1.png",
    "category": "호스텔"
  },
  {
    "id": "984562",
    "title": "타미우스골프&빌리지",
    "address": "제주특별자치도 제주시 애월읍 화전길 201",
    "phone": "064-793-0707",
    "latitude": "33.3469894223",
    "longitude": "126.3802668112",
    "image": "http://tong.visitkorea.or.kr/cms/resource/34/3478034_image2_1.jpg",
    "category": "호스텔"
  },
  {
    "id": "2580577",
    "title": "팜비치리조텔",
    "address": "경상남도 통영시 도남로 257-45 팜비치리조텔",
    "phone": "",
    "latitude": "34.8296757444",
    "longitude": "128.4327495026",
    "image": "http://tong.visitkorea.or.kr/cms/resource/81/3547681_image2_1.jpg",
    "category": "호스텔"
  },
  {
    "id": "3540778",
    "title": "풀스테이 스테이온 가평",
    "address": "경기도 가평군 가평읍 북한강변로 1027-57",
    "phone": "",
    "latitude": "37.8047808903",
    "longitude": "127.5224562661",
    "image": "http://tong.visitkorea.or.kr/cms/resource/48/3540748_image2_1.jpg",
    "category": "호스텔"
  },
  {
    "id": "2757210",
    "title": "플레이스 캠프 제주(Playce camp Jeju)",
    "address": "제주특별자치도 서귀포시 성산읍 동류암로 20",
    "phone": "",
    "latitude": "33.4498866488",
    "longitude": "126.9182122544",
    "image": "",
    "category": "호스텔"
  },
  {
    "id": "2014599",
    "title": "한국보훈복지의료공단 보훈휴양원",
    "address": "충청북도 충주시 중앙탑면 수룡봉황길 553-17",
    "phone": "043-854-2121",
    "latitude": "37.0578952591",
    "longitude": "127.8314915972",
    "image": "http://tong.visitkorea.or.kr/cms/resource/51/2014551_image2_1.jpg",
    "category": "호스텔"
  },
  {
    "id": "951444",
    "title": "홀리데이인&스위트 알펜시아 평창",
    "address": "강원특별자치도 평창군 대관령면 솔봉로 325",
    "phone": "033-339-1240",
    "latitude": "37.6609136479",
    "longitude": "128.6685317384",
    "image": "http://tong.visitkorea.or.kr/cms/resource/56/2921356_image2_1.jpg",
    "category": "호스텔"
  },
  {
    "id": "583141",
    "title": "휘닉스 아일랜드",
    "address": "제주특별자치도 서귀포시 성산읍 섭지코지로 107",
    "phone": "064-731-7000~5",
    "latitude": "33.4335552242",
    "longitude": "126.9246787370",
    "image": "http://tong.visitkorea.or.kr/cms/resource/03/2660103_image2_1.jpg",
    "category": "호스텔"
  },
  {
    "id": "2491622",
    "title": "힐리언스 선마을",
    "address": "강원특별자치도 홍천군 종자산길 122",
    "phone": "010-4148-8713 / 02-1588-9983",
    "latitude": "37.6504258226",
    "longitude": "127.6305759519",
    "image": "http://tong.visitkorea.or.kr/cms/resource/30/2812930_image2_1.jpg",
    "category": "호스텔"
  },
  {
    "id": "1882357",
    "title": "별자리 호스텔",
    "address": "인천광역시 중구 선녀바위로55번길 18",
    "phone": "032-751-3351",
    "latitude": "37.4418914800",
    "longitude": "126.3796735824",
    "image": "http://tong.visitkorea.or.kr/cms/resource/94/1882394_image2_1.JPG",
    "category": "호스텔",
    "original_category": "콘도미니엄"
  },
  {
    "id": "138181",
    "title": "블루백팩커스호스텔",
    "address": "부산광역시 부산진구 신천대로102번길 8-8",
    "phone": "051-634-3962",
    "latitude": "35.1524842597",
    "longitude": "129.0552977704",
    "image": "",
    "category": "호스텔",
    "original_category": "콘도미니엄"
  },
  {
    "id": "2021093",
    "title": "오아시타 호스텔",
    "address": "광주광역시 동구 동명로20번길 20",
    "phone": "010-4145-9965",
    "latitude": "35.1504134981",
    "longitude": "126.9256012862",
    "image": "http://tong.visitkorea.or.kr/cms/resource/81/2021081_image2_1.jpg",
    "category": "호스텔",
    "original_category": "콘도미니엄"
  },
  {
    "id": "3049879",
    "title": "한진호스텔",
    "address": "경상북도 경주시 원효로26번길 21-14 (노서동)",
    "phone": "010-9775-4097",
    "latitude": "35.8403097087",
    "longitude": "129.2046877522",
    "image": "",
    "category": "호스텔",
    "original_category": "콘도미니엄"
  },
  {
    "id": "2623597",
    "title": "공감호스텔 동성로(공감동성로게스트하우스)",
    "address": "대구광역시 중구 동성로12길 9",
    "phone": "010-4592-5644",
    "latitude": "35.8716892550",
    "longitude": "128.5963486591",
    "image": "",
    "category": "호스텔",
    "original_category": "펜션"
  },
  {
    "id": "2607806",
    "title": "나비호스텔",
    "address": "서울특별시 마포구 양화로 177-1",
    "phone": "02-3142-8889",
    "latitude": "37.5580626011",
    "longitude": "126.9247400491",
    "image": "",
    "category": "호스텔",
    "original_category": "펜션"
  },
  {
    "id": "2487684",
    "title": "남산호스텔",
    "address": "서울특별시 중구 퇴계로18길 67",
    "phone": "02-778-7800",
    "latitude": "37.5580831159",
    "longitude": "126.9846040375",
    "image": "http://tong.visitkorea.or.kr/cms/resource/51/2487651_image2_1.jpg",
    "category": "호스텔",
    "original_category": "펜션"
  },
  {
    "id": "2575933",
    "title": "더뷰호스텔",
    "address": "경상남도 통영시 중앙시장4길 6-27",
    "phone": "0507-1316-5433",
    "latitude": "34.8452294501",
    "longitude": "128.4265801864",
    "image": "",
    "category": "호스텔",
    "original_category": "펜션"
  },
  {
    "id": "2622996",
    "title": "델로스호스텔",
    "address": "인천광역시 중구 용유서로 365",
    "phone": "010-5214-1249",
    "latitude": "37.4507264363",
    "longitude": "126.3723740064",
    "image": "",
    "category": "호스텔",
    "original_category": "펜션"
  },
  {
    "id": "2622938",
    "title": "도르가관광호스텔",
    "address": "경상남도 통영시 새터길 74-9",
    "phone": "010-9997-1399",
    "latitude": "34.8413770016",
    "longitude": "128.4209085599",
    "image": "",
    "category": "호스텔",
    "original_category": "펜션"
  },
  {
    "id": "2621797",
    "title": "리버파크(순천리버파크관광호스텔)",
    "address": "전라남도 순천시 주암면 주암호길 27",
    "phone": "010-7922-4600",
    "latitude": "35.0737274161",
    "longitude": "127.2353592131",
    "image": "",
    "category": "호스텔",
    "original_category": "펜션"
  },
  {
    "id": "2697696",
    "title": "미륵미륵 맥주호스텔",
    "address": "경상남도 통영시 해송정4길 37",
    "phone": "",
    "latitude": "34.8431158588",
    "longitude": "128.4300188316",
    "image": "",
    "category": "호스텔",
    "original_category": "펜션"
  },
  {
    "id": "2623944",
    "title": "사계절호스텔(통영 사계절펜션)",
    "address": "경상남도 통영시 용남면 해간길 46-87",
    "phone": "010-4740-9453",
    "latitude": "34.8653418426",
    "longitude": "128.4686509931",
    "image": "",
    "category": "호스텔",
    "original_category": "펜션"
  },
  {
    "id": "2622959",
    "title": "상일 호스텔(상일펜션)",
    "address": "경상북도 울릉군 울릉읍 울릉순환로 680",
    "phone": "010~5768~7577",
    "latitude": "37.4689579289",
    "longitude": "130.8813570684",
    "image": "",
    "category": "호스텔",
    "original_category": "펜션"
  },
  {
    "id": "2665836",
    "title": "섬뜰아래 호스텔(섬뜰아래 카페/캠핑장/펜션)",
    "address": "인천광역시 중구 대무의로 229",
    "phone": "",
    "latitude": "37.3961975801",
    "longitude": "126.4248401537",
    "image": "",
    "category": "호스텔",
    "original_category": "펜션"
  },
  {
    "id": "2650656",
    "title": "세화호스텔",
    "address": "서울특별시 종로구 삼일대로32가길 50",
    "phone": "02-765-2881, 02-764-6261",
    "latitude": "37.5747868333",
    "longitude": "126.9903308202",
    "image": "http://tong.visitkorea.or.kr/cms/resource/52/2650652_image2_1.JPG",
    "category": "호스텔",
    "original_category": "펜션"
  },
  {
    "id": "2676467",
    "title": "속초비치호스텔",
    "address": "강원특별자치도 속초시 해오름로 129",
    "phone": "",
    "latitude": "38.1859237445",
    "longitude": "128.6055129007",
    "image": "",
    "category": "호스텔",
    "original_category": "펜션"
  },
  {
    "id": "2576344",
    "title": "스타리아호스텔",
    "address": "서울특별시 중구 퇴계로20길 38",
    "phone": "02-318-0055",
    "latitude": "37.5584830965",
    "longitude": "126.9861038896",
    "image": "http://tong.visitkorea.or.kr/cms/resource/97/2575997_image2_1.PNG",
    "category": "호스텔",
    "original_category": "펜션"
  },
  {
    "id": "2676465",
    "title": "아델카페호스텔",
    "address": "전라남도 여수시 돌산읍 진두해안길 38",
    "phone": "",
    "latitude": "34.7330743562",
    "longitude": "127.7394624940",
    "image": "",
    "category": "호스텔",
    "original_category": "펜션"
  },
  {
    "id": "2634320",
    "title": "아인스 호스텔",
    "address": "제주특별자치도 서귀포시 태평로 432",
    "phone": "",
    "latitude": "33.2454341363",
    "longitude": "126.5663918312",
    "image": "",
    "category": "호스텔",
    "original_category": "펜션"
  },
  {
    "id": "2610854",
    "title": "야코리아호스텔 강남점",
    "address": "서울특별시 강남구 테헤란로43길 19",
    "phone": "02-553-2588",
    "latitude": "37.5046598283",
    "longitude": "127.0437640507",
    "image": "",
    "category": "호스텔",
    "original_category": "펜션"
  },
  {
    "id": "2700928",
    "title": "업플로 호스텔",
    "address": "서울특별시 서초구 서초대로56길 18",
    "phone": "",
    "latitude": "37.4937911663",
    "longitude": "127.0170584559",
    "image": "",
    "category": "호스텔",
    "original_category": "펜션"
  },
  {
    "id": "2667498",
    "title": "에덴호스텔",
    "address": "제주특별자치도 제주시 서해안로 456-12",
    "phone": "",
    "latitude": "33.5184027384",
    "longitude": "126.4891868158",
    "image": "",
    "category": "호스텔",
    "original_category": "펜션"
  },
  {
    "id": "2697818",
    "title": "여수夜호스텔",
    "address": "전라남도 여수시 하멜로 60",
    "phone": "",
    "latitude": "34.7390515747",
    "longitude": "127.7458034548",
    "image": "",
    "category": "호스텔",
    "original_category": "펜션"
  },
  {
    "id": "2697941",
    "title": "여수밤바다 힐링파크 호스텔",
    "address": "전라남도 여수시 돌산읍 진모1길 29-38",
    "phone": "",
    "latitude": "34.7065220790",
    "longitude": "127.7571144031",
    "image": "",
    "category": "호스텔",
    "original_category": "펜션"
  },
  {
    "id": "2621770",
    "title": "지뜨 호스텔(지뜨펜션)",
    "address": "전라남도 여수시 여수시민로 1",
    "phone": "010-2953-2201",
    "latitude": "34.7369102195",
    "longitude": "127.7499475908",
    "image": "",
    "category": "호스텔",
    "original_category": "펜션"
  },
  {
    "id": "2697852",
    "title": "진아리랑 호스텔",
    "address": "전라남도 여수시 돌산읍 강남2길 6-18",
    "phone": "",
    "latitude": "34.7221369210",
    "longitude": "127.7526921712",
    "image": "",
    "category": "호스텔",
    "original_category": "펜션"
  },
  {
    "id": "2667643",
    "title": "카이 호스텔",
    "address": "제주특별자치도 제주시 한림읍 협재2길 10",
    "phone": "",
    "latitude": "33.3922238993",
    "longitude": "126.2412473291",
    "image": "",
    "category": "호스텔",
    "original_category": "펜션"
  },
  {
    "id": "2697898",
    "title": "통영그란데호스텔",
    "address": "경상남도 통영시 진남아랫길 10",
    "phone": "",
    "latitude": "34.8314056417",
    "longitude": "128.4067156134",
    "image": "",
    "category": "호스텔",
    "original_category": "펜션"
  },
  {
    "id": "2613988",
    "title": "팝콘 호스텔 해운대점",
    "address": "부산광역시 해운대구 해운대해변로 321",
    "phone": "010-5420-7692",
    "latitude": "35.1625407241",
    "longitude": "129.1653073710",
    "image": "",
    "category": "호스텔",
    "original_category": "펜션"
  },
  {
    "id": "2697904",
    "title": "포유호스텔",
    "address": "전라남도 여수시 오동도로 46",
    "phone": "",
    "latitude": "34.7439871577",
    "longitude": "127.7472143164",
    "image": "",
    "category": "호스텔",
    "original_category": "펜션"
  },
  {
    "id": "2603723",
    "title": "플랜에이호스텔",
    "address": "서울특별시 중구 청구로 138",
    "phone": "010-7149-8589",
    "latitude": "37.5668964075",
    "longitude": "127.0083571794",
    "image": "",
    "category": "호스텔",
    "original_category": "펜션"
  },
  {
    "id": "2671726",
    "title": "헤이리풀빌라 워라벨 호스텔",
    "address": "경기도 파주시 탄현면 샘철길 38-12",
    "phone": "",
    "latitude": "37.7894981080",
    "longitude": "126.6887356312",
    "image": "",
    "category": "호스텔",
    "original_category": "펜션"
  },
  {
    "id": "2699653",
    "title": "호스텔 하루",
    "address": "서울특별시 종로구 청계천로 61",
    "phone": "",
    "latitude": "37.5690401708",
    "longitude": "126.9843398624",
    "image": "",
    "category": "호스텔",
    "original_category": "펜션"
  },
  {
    "id": "2697923",
    "title": "화이트스테이션 호스텔",
    "address": "강원특별자치도 속초시 미리내길 17-1",
    "phone": "",
    "latitude": "38.1921700454",
    "longitude": "128.5954997262",
    "image": "",
    "category": "호스텔",
    "original_category": "펜션"
  },
  {
    "id": "2699637",
    "title": "2U호스텔",
    "address": "서울특별시 중구 청계천로 184",
    "phone": "",
    "latitude": "37.5686904607",
    "longitude": "126.9981997204",
    "image": "",
    "category": "호스텔",
    "original_category": "펜션"
  },
  {
    "id": "2666430",
    "title": "K-그랜드 호스텔 강남 1(K-GRAND HOSTEL GANGNAM1)",
    "address": "서울특별시 강남구 강남대로112길 11",
    "phone": "",
    "latitude": "37.5055705015",
    "longitude": "127.0252740414",
    "image": "",
    "category": "호스텔",
    "original_category": "펜션"
  },
  {
    "id": "2699657",
    "title": "LACKY HOSTEL(락희 호스텔)",
    "address": "강원특별자치도 양구군 양구읍 비봉로 99-3",
    "phone": "",
    "latitude": "38.1106872886",
    "longitude": "127.9865798566",
    "image": "",
    "category": "호스텔",
    "original_category": "펜션"
  },
  {
    "id": "1972438",
    "title": "순천만에코촌 유스호스텔[한국관광 품질인증/Korea Quality]",
    "address": "전라남도 순천시 해룡면 생태배움길 123",
    "phone": "061-749-4817",
    "latitude": "34.9231464070",
    "longitude": "127.5164605324",
    "image": "http://tong.visitkorea.or.kr/cms/resource/49/3021449_image2_1.jpg",
    "category": "호스텔",
    "original_category": "홈스테이"
  }
]