[
  {
    "id": "2671267",
    "title": "가락청",
    "address": "전북특별자치도 전주시 완산구 한지길 68",
    "phone": "",
    "latitude": "35.8173223769",
    "longitude": "127.1535667664",
    "image": "",
    "category": "홈스테이"
  },
  {
    "id": "2627867",
    "title": "가람나무",
    "address": "경기도 파주시 소라지로327번길 126-21",
    "phone": "",
    "latitude": "37.7547493903",
    "longitude": "126.6891949040",
    "image": "",
    "category": "홈스테이"
  },
  {
    "id": "1865597",
    "title": "가람초연재",
    "address": "경상북도 안동시 풍천면 하회종가길 76-6",
    "phone": "",
    "latitude": "36.5389896786",
    "longitude": "128.5162424474",
    "image": "http://tong.visitkorea.or.kr/cms/resource/48/2993048_image2_1.jpg",
    "category": "홈스테이"
  },
  {
    "id": "2707444",
    "title": "가영당",
    "address": "충청북도 청주시 청원구 오창읍 미래지로 71-54",
    "phone": "043-233-9966",
    "latitude": "36.7351218825",
    "longitude": "127.4055417589",
    "image": "http://tong.visitkorea.or.kr/cms/resource/14/3067814_image2_1.jpg",
    "category": "홈스테이"
  },
  {
    "id": "2593271",
    "title": "가은채",
    "address": "전북특별자치도 전주시 완산구 한지길 68-13",
    "phone": "010-6345-5267",
    "latitude": "35.8170640681",
    "longitude": "127.1532917977",
    "image": "http://tong.visitkorea.or.kr/cms/resource/60/2593460_image2_1.JPG",
    "category": "홈스테이"
  },
  {
    "id": "2593272",
    "title": "가은채2",
    "address": "전북특별자치도 전주시 완산구 한지길 100-20 (풍남동3가)",
    "phone": "010-6345-5267",
    "latitude": "35.8155697973",
    "longitude": "127.1535195942",
    "image": "http://tong.visitkorea.or.kr/cms/resource/66/2593466_image2_1.JPG",
    "category": "홈스테이"
  },
  {
    "id": "3533129",
    "title": "감성보다 양평서종점",
    "address": "경기도 양평군 서종면 당산공원길 21-52",
    "phone": "010-5155-3335",
    "latitude": "37.6160902467",
    "longitude": "127.4430550985",
    "image": "",
    "category": "홈스테이"
  },
  {
    "id": "2570638",
    "title": "강령전",
    "address": "전북특별자치도 전주시 완산구 태조로 26-24 (풍남동3가)",
    "phone": "",
    "latitude": "35.8150531617",
    "longitude": "127.1519336377",
    "image": "",
    "category": "홈스테이"
  },
  {
    "id": "3102100",
    "title": "강릉 스테이인옥",
    "address": "강원특별자치도 강릉시 칠성로711번길 18-4 (노암동)",
    "phone": "010-6378-7008",
    "latitude": "37.7495218794",
    "longitude": "128.9052882429",
    "image": "",
    "category": "홈스테이"
  },
  {
    "id": "1989501",
    "title": "강릉선교장[한국관광 품질인증/Korea Quality]",
    "address": "강원특별자치도 강릉시 운정길 63 선교장",
    "phone": "033-648-5311",
    "latitude": "37.7855756438",
    "longitude": "128.8848528574",
    "image": "http://tong.visitkorea.or.kr/cms/resource/25/2578925_image2_1.jpg",
    "category": "홈스테이"
  },
  {
    "id": "2531222",
    "title": "강릉오죽한옥마을",
    "address": "강원특별자치도 강릉시 죽헌길 114 (죽헌동)",
    "phone": "033-655-1117",
    "latitude": "37.7773875687",
    "longitude": "128.8779926182",
    "image": "http://tong.visitkorea.or.kr/cms/resource/66/3525066_image2_1.jpg",
    "category": "홈스테이"
  },
  {
    "id": "2814166",
    "title": "강현재",
    "address": "전라남도 보성군 가내길 31-1",
    "phone": "010-9220-5904",
    "latitude": "34.9492242389",
    "longitude": "127.2043734140",
    "image": "http://tong.visitkorea.or.kr/cms/resource/11/3008911_image2_1.jpg",
    "category": "홈스테이"
  },
  {
    "id": "3102050",
    "title": "객리당",
    "address": "전북특별자치도 전주시 완산구 태진로 26 (태평동)",
    "phone": "010-4681-1937",
    "latitude": "35.8233075300",
    "longitude": "127.1375902537",
    "image": "",
    "category": "홈스테이"
  },
  {
    "id": "3438571",
    "title": "거북이 한옥",
    "address": "충청남도 보령시 절터길 41 (요암동)",
    "phone": "0507-1353-3920",
    "latitude": "36.3298338645",
    "longitude": "126.5430885360",
    "image": "",
    "category": "홈스테이"
  },
  {
    "id": "3438584",
    "title": "건축의 선율",
    "address": "전북특별자치도 전주시 완산구 최명희길 11-3 (풍남동3가)",
    "phone": "0507-1367-7653",
    "latitude": "35.8162280555",
    "longitude": "127.1534612486",
    "image": "",
    "category": "홈스테이"
  },
  {
    "id": "2570229",
    "title": "결성향교",
    "address": "충청남도 홍성군 결성면 홍남서로707번길 21-8",
    "phone": "010-6512-6112",
    "latitude": "36.5287943496",
    "longitude": "126.5432499636",
    "image": "http://tong.visitkorea.or.kr/cms/resource/74/2568074_image2_1.JPG",
    "category": "홈스테이"
  },
  {
    "id": "2609894",
    "title": "경기전 연가",
    "address": "전북특별자치도 전주시 완산구 어진길 82-6",
    "phone": "010-8835-6698",
    "latitude": "35.8174361942",
    "longitude": "127.1501865087",
    "image": "",
    "category": "홈스테이"
  },
  {
    "id": "2604602",
    "title": "경주 교동한옥집",
    "address": "경상북도 경주시 천원안길 21-6",
    "phone": "",
    "latitude": "35.8289194614",
    "longitude": "129.2117818994",
    "image": "",
    "category": "홈스테이"
  },
  {
    "id": "2662883",
    "title": "경주 오릉 한옥",
    "address": "경상북도 경주시 국당1길 15-1",
    "phone": "",
    "latitude": "35.8255836465",
    "longitude": "129.2075018128",
    "image": "",
    "category": "홈스테이"
  },
  {
    "id": "2663054",
    "title": "경주 춘추관",
    "address": "경상북도 경주시 대경로 4821-5",
    "phone": "",
    "latitude": "35.8227779989",
    "longitude": "129.1858343474",
    "image": "",
    "category": "홈스테이"
  },
  {
    "id": "3102068",
    "title": "경주 황리단길 한옥 독채 풀빌라 무와",
    "address": "경상북도 경주시 첨성로49번길 32-2 (사정동)",
    "phone": "010-4176-1811",
    "latitude": "35.8359852596",
    "longitude": "129.2079903635",
    "image": "",
    "category": "홈스테이"
  },
  {
    "id": "2706608",
    "title": "경주오릉한옥",
    "address": "경상북도 경주시 국당2길 12-17 (사정동)",
    "phone": "",
    "latitude": "35.8258280631",
    "longitude": "129.2074990288",
    "image": "http://tong.visitkorea.or.kr/cms/resource/79/3549979_image2_1.jpg",
    "category": "홈스테이"
  },
  {
    "id": "2700309",
    "title": "경주읍성한옥",
    "address": "경상북도 경주시 봉황로116번길 14-3",
    "phone": "",
    "latitude": "35.8495671257",
    "longitude": "129.2115257778",
    "image": "",
    "category": "홈스테이"
  },
  {
    "id": "2603652",
    "title": "경주한옥",
    "address": "경상북도 경주시 도초길 124-31",
    "phone": "010-9558-6718",
    "latitude": "35.8042969107",
    "longitude": "129.1942924649",
    "image": "",
    "category": "홈스테이"
  },
  {
    "id": "2531357",
    "title": "경주한옥1번가",
    "address": "경상북도 경주시 천원1길 20",
    "phone": "010-9505-5367",
    "latitude": "35.8257226259",
    "longitude": "129.2131318712",
    "image": "http://tong.visitkorea.or.kr/cms/resource/15/3021415_image2_1.jpg",
    "category": "홈스테이"
  },
  {
    "id": "3532956",
    "title": "경주황리단길숙소 한옥스테이 목화",
    "address": "경상북도 경주시 포석로1068번길 15-11 (황남동)",
    "phone": "010-7941-7205",
    "latitude": "35.8366713533",
    "longitude": "129.2111956188",
    "image": "",
    "category": "홈스테이"
  },
  {
    "id": "3102215",
    "title": "경함정",
    "address": "경상북도 안동시 임하면 금소4길 23-4",
    "phone": "0507-1466-9887",
    "latitude": "36.5074607137",
    "longitude": "128.8528829179",
    "image": "",
    "category": "홈스테이"
  },
  {
    "id": "2932873",
    "title": "계와고택",
    "address": "경상북도 안동시 금소중앙길 56-1",
    "phone": "010-5309-9887",
    "latitude": "36.5061914143",
    "longitude": "128.8529135077",
    "image": "",
    "category": "홈스테이"
  },
  {
    "id": "3101964",
    "title": "고기리 다온스테이",
    "address": "경기도 용인시 수지구 호수로52번길 51 (고기동)",
    "phone": "010-2764-5251",
    "latitude": "37.3523418112",
    "longitude": "127.0674300860",
    "image": "",
    "category": "홈스테이"
  },
  {
    "id": "2681174",
    "title": "고선재",
    "address": "충청북도 청주시 상당구 남일면 윗고분터길 33-15",
    "phone": "043-298-0148",
    "latitude": "36.5661793989",
    "longitude": "127.5178669019",
    "image": "",
    "category": "홈스테이"
  },
  {
    "id": "1990092",
    "title": "고성 최필간고택",
    "address": "경상남도 고성군 하일면 학동돌담길 55",
    "phone": "010-3824-4274",
    "latitude": "34.9505829528",
    "longitude": "128.1936699642",
    "image": "http://tong.visitkorea.or.kr/cms/resource/12/2574712_image2_1.jpg",
    "category": "홈스테이"
  },
  {
    "id": "2597551",
    "title": "고성이씨 탑동종택",
    "address": "경상북도 안동시 임청각길 103",
    "phone": "",
    "latitude": "36.5692988320",
    "longitude": "128.7442796474",
    "image": "http://tong.visitkorea.or.kr/cms/resource/14/2597514_image2_1.JPG",
    "category": "홈스테이"
  },
  {
    "id": "2950469",
    "title": "고운[한국관광 품질인증/Korea Quality]",
    "address": "서울특별시 종로구 북촌로12길 35-1",
    "phone": "0507-1466-0232",
    "latitude": "37.5830052419",
    "longitude": "126.9858393299",
    "image": "http://tong.visitkorea.or.kr/cms/resource/08/2948908_image2_1.JPG",
    "category": "홈스테이"
  },
  {
    "id": "2604533",
    "title": "고집불통송가네",
    "address": "전라남도 해남군 북평면 동해길 108-23",
    "phone": "010-5024-5402",
    "latitude": "34.4415633214",
    "longitude": "126.6314417760",
    "image": "",
    "category": "홈스테이"
  },
  {
    "id": "2049790",
    "title": "고창읍성한옥마을",
    "address": "전북특별자치도 고창군 동리로 128 한옥체험펜션",
    "phone": "",
    "latitude": "35.4324750976",
    "longitude": "126.7061747553",
    "image": "http://tong.visitkorea.or.kr/cms/resource/38/2632438_image2_1.jpg",
    "category": "홈스테이"
  },
  {
    "id": "1991992",
    "title": "고택 한옥에서",
    "address": "전라남도 담양군 창평면 돌담길 88-9",
    "phone": "",
    "latitude": "35.2376996952",
    "longitude": "127.0206073559",
    "image": "http://tong.visitkorea.or.kr/cms/resource/47/2917547_image2_1.jpg",
    "category": "홈스테이"
  },
  {
    "id": "2604391",
    "title": "고택한옥에서",
    "address": "전라남도 담양군 창평면 돌담길 88-9",
    "phone": "061-382-3832",
    "latitude": "35.2407604250",
    "longitude": "127.0185269068",
    "image": "",
    "category": "홈스테이"
  },
  {
    "id": "3102105",
    "title": "고현",
    "address": "강원특별자치도 강릉시 명주로55번길 11 (홍제동)",
    "phone": "0507-1331-7469",
    "latitude": "37.7549264615",
    "longitude": "128.8873952430",
    "image": "",
    "category": "홈스테이"
  },
  {
    "id": "2572898",
    "title": "고현당",
    "address": "전북특별자치도 전주시 완산구 한지길 112-3",
    "phone": "010-5332-3673",
    "latitude": "35.8152920547",
    "longitude": "127.1537251387",
    "image": "http://tong.visitkorea.or.kr/cms/resource/42/2571842_image2_1.jpg",
    "category": "홈스테이"
  },
  {
    "id": "2607706",
    "title": "곡전재",
    "address": "전라남도 구례군 토지면 곡전재길 15-2",
    "phone": "010-5625-8444",
    "latitude": "35.2035703599",
    "longitude": "127.5139035800",
    "image": "",
    "category": "홈스테이"
  },
  {
    "id": "3532757",
    "title": "곰곰하우스",
    "address": "서울특별시 종로구 계동길 85-15 (계동)",
    "phone": "010-9122-6933",
    "latitude": "37.5813971066",
    "longitude": "126.9864726513",
    "image": "",
    "category": "홈스테이"
  },
  {
    "id": "3101968",
    "title": "공유한옥",
    "address": "전북특별자치도 완주군 경천면 요동길 41",
    "phone": "0507-1362-8560",
    "latitude": "36.0513644350",
    "longitude": "127.2708918084",
    "image": "",
    "category": "홈스테이"
  },
  {
    "id": "2696271",
    "title": "공주공산성게스트 하우스",
    "address": "충청남도 공주시 백미고을길 5-4",
    "phone": "",
    "latitude": "36.4651700701",
    "longitude": "127.1227634182",
    "image": "",
    "category": "홈스테이"
  },
  {
    "id": "1867806",
    "title": "공주한옥마을",
    "address": "충청남도 공주시 관광단지길 12",
    "phone": "",
    "latitude": "36.4649420636",
    "longitude": "127.1082758351",
    "image": "http://tong.visitkorea.or.kr/cms/resource/74/3581774_image2_1.JPG",
    "category": "홈스테이"
  },
  {
    "id": "3438581",
    "title": "교동94",
    "address": "전북특별자치도 전주시 완산구 은행로 84-8 (교동)",
    "phone": "0507-1376-7323",
    "latitude": "35.8126867751",
    "longitude": "127.1525030935",
    "image": "",
    "category": "홈스테이"
  },
  {
    "id": "2049706",
    "title": "교동가온",
    "address": "전북특별자치도 전주시 완산구 은행로 73-1",
    "phone": "063-231-2355",
    "latitude": "35.8134672507",
    "longitude": "127.1530502464",
    "image": "",
    "category": "홈스테이"
  },
  {
    "id": "2531374",
    "title": "교동살래",
    "address": "전북특별자치도 전주시 완산구 전주천동로 66-1",
    "phone": "010-9043-6743",
    "latitude": "35.8112952811",
    "longitude": "127.1533697191",
    "image": "",
    "category": "홈스테이"
  },
  {
    "id": "2629550",
    "title": "교동외갓집",
    "address": "전북특별자치도 전주시 완산구 향교길 85-14",
    "phone": "010-6631-2624",
    "latitude": "35.8124340633",
    "longitude": "127.1546501311",
    "image": "",
    "category": "홈스테이"
  },
  {
    "id": "3101952",
    "title": "구공스테이 태화",
    "address": "경상북도 안동시 어가골아랫1길 16-1 (태화동)",
    "phone": "010-9403-0265",
    "latitude": "36.5592520729",
    "longitude": "128.7080109359",
    "image": "",
    "category": "홈스테이"
  },
  {
    "id": "3438591",
    "title": "구례 문 한옥 게스트 하우스",
    "address": "전라남도 구례군 광의면 은행정1길 27-5",
    "phone": "0507-1401-9983",
    "latitude": "35.2440369728",
    "longitude": "127.4536328486",
    "image": "",
    "category": "홈스테이"
  },
  {
    "id": "2605489",
    "title": "군위 상매댁(군위남천고택)",
    "address": "대구광역시 군위군 부계면 한밤5길 19",
    "phone": "010-9358-2748",
    "latitude": "36.0586774643",
    "longitude": "128.6540133379",
    "image": "http://tong.visitkorea.or.kr/cms/resource/05/2684905_image2_1.jpg",
    "category": "홈스테이"
  },
  {
    "id": "1992038",
    "title": "귀애고택",
    "address": "경상북도 영천시 화남면 귀호1길 37-17",
    "phone": "010-5556-8043",
    "latitude": "36.0570150915",
    "longitude": "128.8741439717",
    "image": "http://tong.visitkorea.or.kr/cms/resource/60/2917560_image2_1.jpg",
    "category": "홈스테이"
  },
  {
    "id": "2623572",
    "title": "그 여자네 집",
    "address": "전북특별자치도 전주시 완산구 향교길 101",
    "phone": "010-2480-3055",
    "latitude": "35.8121729895",
    "longitude": "127.1551250954",
    "image": "",
    "category": "홈스테이"
  },
  {
    "id": "2570576",
    "title": "금농헌",
    "address": "전북특별자치도 전주시 완산구 관선5길 32-3",
    "phone": "010-4619-7002",
    "latitude": "35.8203387678",
    "longitude": "127.1574468976",
    "image": "http://tong.visitkorea.or.kr/cms/resource/82/2568482_image2_1.jpg",
    "category": "홈스테이"
  },
  {
    "id": "2574164",
    "title": "금마관",
    "address": "전북특별자치도 익산시 금마면 고도8길 3",
    "phone": "",
    "latitude": "35.9963447951",
    "longitude": "127.0592954720",
    "image": "http://tong.visitkorea.or.kr/cms/resource/67/2573367_image2_1.jpg",
    "category": "홈스테이"
  },
  {
    "id": "3533113",
    "title": "금천재",
    "address": "전라남도 나주시 금천면 금영로 954-14",
    "phone": "010-3876-2655",
    "latitude": "35.0326989172",
    "longitude": "126.7551803905",
    "image": "",
    "category": "홈스테이"
  },
  {
    "id": "3102202",
    "title": "기찬재",
    "address": "전라남도 영암군 영암읍 기찬랜드로 19-10",
    "phone": "061-471-0831",
    "latitude": "34.7919693222",
    "longitude": "126.6856118867",
    "image": "",
    "category": "홈스테이"
  },
  {
    "id": "2602446",
    "title": "기헌고택",
    "address": "경상북도 봉화군 법전면 경체정길 18",
    "phone": "010-7152-6330",
    "latitude": "36.9118037941",
    "longitude": "128.8734220139",
    "image": "",
    "category": "홈스테이"
  },
  {
    "id": "2600301",
    "title": "김진호가옥",
    "address": "경상북도 영주시 문수면 무섬로234번길 31-8",
    "phone": "0507-1323-1880",
    "latitude": "36.7337804756",
    "longitude": "128.6200998032",
    "image": "",
    "category": "홈스테이"
  },
  {
    "id": "2574186",
    "title": "김포아트빌리지 전통한옥숙박체험관",
    "address": "경기도 김포시 모담공원로 170 (운양동)",
    "phone": "",
    "latitude": "37.6466871063",
    "longitude": "126.6962278583",
    "image": "http://tong.visitkorea.or.kr/cms/resource/35/3535435_image2_1.jpg",
    "category": "홈스테이"
  },
  {
    "id": "2652952",
    "title": "김해한옥체험관[한국관광 품질인증/Korea Quality]",
    "address": "경상남도 김해시 왕릉길 40 김해한옥체험관",
    "phone": "055-322-4735~6",
    "latitude": "35.2340773930",
    "longitude": "128.8772360521",
    "image": "http://tong.visitkorea.or.kr/cms/resource/81/3016981_image2_1.jpg",
    "category": "홈스테이"
  },
  {
    "id": "2913643",
    "title": "까사초당",
    "address": "강원특별자치도 강릉시 초당원길 69-1",
    "phone": "",
    "latitude": "37.7872371221",
    "longitude": "128.9135279997",
    "image": "http://tong.visitkorea.or.kr/cms/resource/00/2920400_image2_1.jpg",
    "category": "홈스테이"
  },
  {
    "id": "2621722",
    "title": "꽃잠",
    "address": "전북특별자치도 전주시 완산구 동문길 19-14",
    "phone": "",
    "latitude": "35.8187833092",
    "longitude": "127.1528612352",
    "image": "",
    "category": "홈스테이"
  },
  {
    "id": "2607787",
    "title": "꿈",
    "address": "전북특별자치도 전주시 완산구 향교길 85-11",
    "phone": "",
    "latitude": "35.8125840398",
    "longitude": "127.1543251561",
    "image": "",
    "category": "홈스테이"
  },
  {
    "id": "3438674",
    "title": "나들방",
    "address": "전북특별자치도 전주시 완산구 최명희길 30 (풍남동3가)",
    "phone": "010-7595-2252",
    "latitude": "35.8160391529",
    "longitude": "127.1514364340",
    "image": "",
    "category": "홈스테이"
  },
  {
    "id": "2595871",
    "title": "나들한옥",
    "address": "경상북도 경주시 쪽샘길 4-1",
    "phone": "010-5011-7738",
    "latitude": "35.8361159955",
    "longitude": "129.2183644504",
    "image": "http://tong.visitkorea.or.kr/cms/resource/86/2636486_image2_1.jpg",
    "category": "홈스테이"
  },
  {
    "id": "3438578",
    "title": "나루 한옥스테이 독채",
    "address": "전북특별자치도 전주시 완산구 전주천동로 58 (교동)",
    "phone": "0507-1417-9700",
    "latitude": "35.8114036207",
    "longitude": "127.1544168455",
    "image": "",
    "category": "홈스테이"
  },
  {
    "id": "3101971",
    "title": "나모:온",
    "address": "전라남도 순천시 호남길 140 (저전동)",
    "phone": "0507-1319-4205",
    "latitude": "34.9514092941",
    "longitude": "127.4814267790",
    "image": "",
    "category": "홈스테이"
  },
  {
    "id": "2696256",
    "title": "낙안재",
    "address": "경상북도 경주시 사정로 46-23",
    "phone": "",
    "latitude": "35.8359908215",
    "longitude": "129.2084125487",
    "image": "",
    "category": "홈스테이"
  },
  {
    "id": "2950466",
    "title": "낙원우드[한국관광 품질인증/Korea Quality]",
    "address": "경상북도 안동시 서경지7길 34-3",
    "phone": "0507-1442-4700",
    "latitude": "36.5606992744",
    "longitude": "128.7156657704",
    "image": "",
    "category": "홈스테이"
  },
  {
    "id": "2607661",
    "title": "남악종택",
    "address": "경상북도 예천군 용문면 구계길 43-8",
    "phone": "010-9191-4612",
    "latitude": "36.6876868895",
    "longitude": "128.3844776874",
    "image": "",
    "category": "홈스테이"
  },
  {
    "id": "2528155",
    "title": "남원예촌",
    "address": "전북특별자치도 남원시 광한북로 17",
    "phone": "063-636-8001",
    "latitude": "35.4044425675",
    "longitude": "127.3793935943",
    "image": "http://tong.visitkorea.or.kr/cms/resource/33/2918533_image2_1.jpg",
    "category": "홈스테이"
  },
  {
    "id": "2594864",
    "title": "남호구택",
    "address": "경상북도 봉화군 봉화읍 바래미길 21",
    "phone": "010-2311-3488",
    "latitude": "36.8938305643",
    "longitude": "128.7124007849",
    "image": "http://tong.visitkorea.or.kr/cms/resource/90/2626090_image2_1.jpg",
    "category": "홈스테이"
  },
  {
    "id": "3101948",
    "title": "너레바우",
    "address": "강원특별자치도 강릉시 율곡로 2718-1 (노암동)",
    "phone": "010-3707-0345",
    "latitude": "37.7499968680",
    "longitude": "128.9074769198",
    "image": "",
    "category": "홈스테이"
  },
  {
    "id": "2569105",
    "title": "너와 나의 둥지",
    "address": "전라남도 강진군 달빛한옥길 42-1",
    "phone": "010-7608-2973",
    "latitude": "34.7410561431",
    "longitude": "126.7181380382",
    "image": "http://tong.visitkorea.or.kr/cms/resource/23/2991323_image2_1.jpg",
    "category": "홈스테이"
  },
  {
    "id": "1877477",
    "title": "노송정종택(퇴계생가)",
    "address": "경상북도 안동시 도산면 온혜중마길 46-5",
    "phone": "054-856-1052",
    "latitude": "36.7497214820",
    "longitude": "128.8283502491",
    "image": "http://tong.visitkorea.or.kr/cms/resource/83/3021983_image2_1.jpg",
    "category": "홈스테이"
  },
  {
    "id": "3072191",
    "title": "노스텔지어",
    "address": "서울특별시 종로구 북촌로11가길 5 (가회동)",
    "phone": "02-3673-3666",
    "latitude": "37.5821719756",
    "longitude": "126.9841756164",
    "image": "",
    "category": "홈스테이"
  },
  {
    "id": "2604371",
    "title": "노을한옥",
    "address": "전라남도 순천시 해룡면 와온2길 7",
    "phone": "061-723-8404",
    "latitude": "34.8511907141",
    "longitude": "127.5232450962",
    "image": "",
    "category": "홈스테이"
  },
  {
    "id": "2049307",
    "title": "녹운재",
    "address": "전북특별자치도 완주군 소양면 송광수만로 472-18",
    "phone": "010-4450-6565",
    "latitude": "35.9028641921",
    "longitude": "127.2425815969",
    "image": "http://tong.visitkorea.or.kr/cms/resource/71/2049271_image2_1.jpg",
    "category": "홈스테이"
  },
  {
    "id": "1992090",
    "title": "논산 명재고택",
    "address": "충청남도 논산시 노성면 노성산성길 50",
    "phone": "041-735-1215",
    "latitude": "36.2818689912",
    "longitude": "127.1312092519",
    "image": "http://tong.visitkorea.or.kr/cms/resource/55/3036955_image2_1.jpg",
    "category": "홈스테이"
  },
  {
    "id": "3469818",
    "title": "논산문화관광재단(논산한옥마을)",
    "address": "충청남도 논산시 시민로 270 (내동)",
    "phone": "010-3290-3045",
    "latitude": "36.1909981956",
    "longitude": "127.0951593442",
    "image": "",
    "category": "홈스테이"
  },
  {
    "id": "2707440",
    "title": "누와",
    "address": "서울특별시 종로구 필운대로5나길 3-1",
    "phone": "010–2429-0381",
    "latitude": "37.5796303100",
    "longitude": "126.9677966258",
    "image": "http://tong.visitkorea.or.kr/cms/resource/89/3074289_image2_1.jpg",
    "category": "홈스테이"
  },
  {
    "id": "3438166",
    "title": "뉠스테이",
    "address": "서울특별시 종로구 필운대로5길 17 (누하동)",
    "phone": "0507-1467-0181",
    "latitude": "37.5793497865",
    "longitude": "126.9677383057",
    "image": "",
    "category": "홈스테이"
  },
  {
    "id": "1883085",
    "title": "늘봄스테이",
    "address": "전북특별자치도 전주시 완산구 은행로 74-11",
    "phone": "063-231-3040",
    "latitude": "35.8132894782",
    "longitude": "127.1521808839",
    "image": "",
    "category": "홈스테이"
  },
  {
    "id": "2994636",
    "title": "다담한옥",
    "address": "울산광역시 울주군 상북면 거리지곡2길 8",
    "phone": "",
    "latitude": "35.5883742852",
    "longitude": "129.0598575408",
    "image": "http://tong.visitkorea.or.kr/cms/resource/45/2994645_image2_1.jpg",
    "category": "홈스테이"
  },
  {
    "id": "2607765",
    "title": "다락",
    "address": "전북특별자치도 전주시 완산구 경기전길 57-6",
    "phone": "010-8774-1963",
    "latitude": "35.8169084893",
    "longitude": "127.1509531207",
    "image": "",
    "category": "홈스테이"
  },
  {
    "id": "3438485",
    "title": "다락재",
    "address": "서울특별시 은평구 연서로50길 11-48 (진관동)",
    "phone": "010-2925-1148",
    "latitude": "37.6412309785",
    "longitude": "126.9398418735",
    "image": "",
    "category": "홈스테이"
  },
  {
    "id": "2609838",
    "title": "다래헌",
    "address": "전북특별자치도 전주시 완산구 은행로 51-3",
    "phone": "010-5119-2659",
    "latitude": "35.8156225594",
    "longitude": "127.1529196463",
    "image": "",
    "category": "홈스테이"
  },
  {
    "id": "2528122",
    "title": "다솜채",
    "address": "광주광역시 광산구 내상로51번길 27",
    "phone": "070-8830-7700",
    "latitude": "35.1389709668",
    "longitude": "126.7976628846",
    "image": "http://tong.visitkorea.or.kr/cms/resource/80/2992980_image2_1.jpg",
    "category": "홈스테이"
  },
  {
    "id": "3469820",
    "title": "다온한옥스테이",
    "address": "경상북도 안동시 서부시장2길 51 (태화동)",
    "phone": "010-6782-1508",
    "latitude": "36.5658931397",
    "longitude": "128.7163766680",
    "image": "",
    "category": "홈스테이"
  },
  {
    "id": "2932973",
    "title": "다올재",
    "address": "전라남도 순천시 금곡길 60",
    "phone": "061-752-3532",
    "latitude": "34.9550838683",
    "longitude": "127.4806934163",
    "image": "",
    "category": "홈스테이"
  },
  {
    "id": "1870767",
    "title": "다향소축",
    "address": "전라남도 강진군 도암면 다산초당1길 7-5",
    "phone": "061-432-0360",
    "latitude": "34.5788998620",
    "longitude": "126.7489142648",
    "image": "http://tong.visitkorea.or.kr/cms/resource/43/2575743_image2_1.jpg",
    "category": "홈스테이"
  },
  {
    "id": "2594513",
    "title": "단촌서원고택",
    "address": "충청북도 단양군 단성면 북상하리길 103-10",
    "phone": "",
    "latitude": "36.9295138086",
    "longitude": "128.3352223243",
    "image": "http://tong.visitkorea.or.kr/cms/resource/61/3021661_image2_1.jpg",
    "category": "홈스테이"
  },
  {
    "id": "2706641",
    "title": "달빛미소",
    "address": "전라남도 강진군 달빛한옥길 49",
    "phone": "010-7749-0887",
    "latitude": "34.7405200884",
    "longitude": "126.7179269590",
    "image": "http://tong.visitkorea.or.kr/cms/resource/51/2706151_image2_1.jpg",
    "category": "홈스테이"
  },
  {
    "id": "2701356",
    "title": "달빛한옥 수류화개",
    "address": "전라남도 강진군 달빛한옥길 5",
    "phone": "010-4140-4884",
    "latitude": "34.7391480054",
    "longitude": "126.7170159613",
    "image": "http://tong.visitkorea.or.kr/cms/resource/65/2808465_image2_1.png",
    "category": "홈스테이"
  },
  {
    "id": "3533128",
    "title": "달에게 빌려온 하루",
    "address": "인천광역시 강화군 양도면 강화남로905번길 50-5",
    "phone": "010-7576-8568",
    "latitude": "37.6809697706",
    "longitude": "126.4125306446",
    "image": "",
    "category": "홈스테이"
  },
  {
    "id": "3474161",
    "title": "달을품은한옥",
    "address": "충청남도 부여군 부여읍 월함로 107-1",
    "phone": "",
    "latitude": "36.2922198057",
    "longitude": "126.9275244464",
    "image": "",
    "category": "홈스테이"
  },
  {
    "id": "2595847",
    "title": "달의 정원",
    "address": "경상남도 합천군 가야면 치인1길 13-31",
    "phone": "",
    "latitude": "35.7900725493",
    "longitude": "128.0873319214",
    "image": "http://tong.visitkorea.or.kr/cms/resource/43/2631943_image2_1.jpg",
    "category": "홈스테이"
  },
  {
    "id": "2751703",
    "title": "달팽이",
    "address": "전북특별자치도 남원시 산내면 산내원천길 71",
    "phone": "",
    "latitude": "35.4139789594",
    "longitude": "127.6166029530",
    "image": "",
    "category": "홈스테이"
  },
  {
    "id": "3072315",
    "title": "담담",
    "address": "충청남도 공주시 봉황로 86-8 (반죽동)",
    "phone": "02-2671-1092",
    "latitude": "36.4536463760",
    "longitude": "127.1218999174",
    "image": "",
    "category": "홈스테이"
  },
  {
    "id": "3438452",
    "title": "담서제",
    "address": "서울특별시 은평구 연서로50길 15 (진관동)",
    "phone": "0507-1437-0981",
    "latitude": "37.6405310495",
    "longitude": "126.9392669459",
    "image": "",
    "category": "홈스테이"
  },
  {
    "id": "1870779",
    "title": "담소정[한국관광 품질인증/Korea Quality]",
    "address": "서울특별시 종로구 북촌로9길 16-2",
    "phone": "010-3749-9550",
    "latitude": "37.5813970676",
    "longitude": "126.9842978496",
    "image": "http://tong.visitkorea.or.kr/cms/resource/20/2684320_image2_1.jpeg",
    "category": "홈스테이"
  },
  {
    "id": "3102077",
    "title": "닿다 개울가애",
    "address": "경상북도 안동시 평화5길 62-8 (평화동)",
    "phone": "010-8490-0894",
    "latitude": "36.5670985760",
    "longitude": "128.7173459914",
    "image": "",
    "category": "홈스테이"
  },
  {
    "id": "3469822",
    "title": "대동고택",
    "address": "전북특별자치도 전주시 완산구 대동로 7-13 (태평동)",
    "phone": "010-9007-9746",
    "latitude": "35.8215743723",
    "longitude": "127.1363487431",
    "image": "",
    "category": "홈스테이"
  },
  {
    "id": "2695742",
    "title": "대성 정담한옥",
    "address": "전북특별자치도 전주시 완산구 고덕산1길 30",
    "phone": "010-8753-3413",
    "latitude": "35.7967584787",
    "longitude": "127.1783262132",
    "image": "http://tong.visitkorea.or.kr/cms/resource/90/3022090_image2_1.jpg",
    "category": "홈스테이"
  },
  {
    "id": "2047895",
    "title": "대승한지마을한옥전통문화체험관",
    "address": "전북특별자치도 완주군 보검길 18-4",
    "phone": "063-242-1001",
    "latitude": "35.8540512032",
    "longitude": "127.2941671834",
    "image": "http://tong.visitkorea.or.kr/cms/resource/86/3070786_image2_1.jpg",
    "category": "홈스테이"
  },
  {
    "id": "3533130",
    "title": "대전별서",
    "address": "대전광역시 동구 이사로 147-81 (이사동)",
    "phone": "",
    "latitude": "36.2860241091",
    "longitude": "127.4480863593",
    "image": "",
    "category": "홈스테이"
  },
  {
    "id": "3438379",
    "title": "더 모먼트",
    "address": "서울특별시 종로구 자하문로1다길 16-1 (체부동)",
    "phone": "0507-1349-1946",
    "latitude": "37.5774889432",
    "longitude": "126.9706242068",
    "image": "",
    "category": "홈스테이"
  },
  {
    "id": "2531409",
    "title": "더 한옥",
    "address": "전북특별자치도 전주시 완산구 은행로 68-15",
    "phone": "010-2189-4002",
    "latitude": "35.8136866592",
    "longitude": "127.1524030760",
    "image": "",
    "category": "홈스테이"
  },
  {
    "id": "3532990",
    "title": "더옐로우",
    "address": "경상북도 경주시 금성로196번길 5 (사정동)",
    "phone": "010-5175-7408",
    "latitude": "35.8350214734",
    "longitude": "129.2076848625",
    "image": "",
    "category": "홈스테이"
  },
  {
    "id": "1870849",
    "title": "덕동댁",
    "address": "경상북도 고령군 쌍림면 개실2길 39",
    "phone": "010-3207-4022",
    "latitude": "35.6668362609",
    "longitude": "128.2279478614",
    "image": "http://tong.visitkorea.or.kr/cms/resource/52/2999052_image2_1.jpg",
    "category": "홈스테이"
  },
  {
    "id": "3533116",
    "title": "덕만재",
    "address": "경상북도 경주시 하강선길 43-16 (보문동)",
    "phone": "010-3050-7856",
    "latitude": "35.8219403015",
    "longitude": "129.2439653891",
    "image": "",
    "category": "홈스테이"
  },
  {
    "id": "2695752",
    "title": "덕선재[한국관광 품질인증/Korea Quality]",
    "address": "서울특별시 은평구 연서로50길 17-1",
    "phone": "0507-1379-0097",
    "latitude": "37.6403644085",
    "longitude": "126.9396085860",
    "image": "http://tong.visitkorea.or.kr/cms/resource/80/3036980_image2_1.jpg",
    "category": "홈스테이"
  },
  {
    "id": "2598597",
    "title": "덕여재",
    "address": "경상북도 안동시 풍천면 하회남촌길 56",
    "phone": "054-857-2885",
    "latitude": "36.5406756026",
    "longitude": "128.5165368174",
    "image": "",
    "category": "홈스테이"
  },
  {
    "id": "3532773",
    "title": "덕용재4.9",
    "address": "경상북도 예천군 용문면 금당실길 78-1",
    "phone": "010-4441-8816",
    "latitude": "36.6918174421",
    "longitude": "128.4096697675",
    "image": "",
    "category": "홈스테이"
  },
  {
    "id": "3102091",
    "title": "도담 누마루 한옥",
    "address": "전북특별자치도 익산시 금마면 미륵사지로5길 32",
    "phone": "0507-1413-4043",
    "latitude": "35.9929366888",
    "longitude": "127.0500186119",
    "image": "",
    "category": "홈스테이"
  },
  {
    "id": "3102104",
    "title": "도담헌",
    "address": "전라남도 순천시 상인제길 35 (인제동)",
    "phone": "0507-1366-1604",
    "latitude": "34.9454627828",
    "longitude": "127.4838989351",
    "image": "",
    "category": "홈스테이"
  },
  {
    "id": "3532767",
    "title": "도동유교문화관",
    "address": "대구광역시 달성군 구지면 구지서로 716",
    "phone": "053-659-4152",
    "latitude": "35.7019904471",
    "longitude": "128.3715481419",
    "image": "",
    "category": "홈스테이"
  },
  {
    "id": "2350029",
    "title": "도래미하우스",
    "address": "전라남도 나주시 다도면 동력길 18-26",
    "phone": "010-6604-6621",
    "latitude": "34.9975568248",
    "longitude": "126.8248528839",
    "image": "",
    "category": "홈스테이"
  },
  {
    "id": "2613254",
    "title": "도봉서당",
    "address": "경상북도 경주시 서악4길 58",
    "phone": "010-3570-1950",
    "latitude": "35.8274885572",
    "longitude": "129.1847315323",
    "image": "",
    "category": "홈스테이"
  },
  {
    "id": "2574225",
    "title": "도원",
    "address": "전북특별자치도 전주시 완산구 팔달로 58-3",
    "phone": "010-5936-9941",
    "latitude": "35.8078483941",
    "longitude": "127.1500923233",
    "image": "http://tong.visitkorea.or.kr/cms/resource/22/2573622_image2_1.PNG",
    "category": "홈스테이"
  },
  {
    "id": "2950935",
    "title": "동림하녹[한국관광 품질인증/Korea Quality]",
    "address": "경상북도 안동시 태화길 136-2",
    "phone": "0507-1431-0600",
    "latitude": "36.5595298712",
    "longitude": "128.7107884590",
    "image": "http://tong.visitkorea.or.kr/cms/resource/37/2948837_image2_1.jpg",
    "category": "홈스테이"
  },
  {
    "id": "2679832",
    "title": "동의본가",
    "address": "경상남도 산청군 금서면 동의보감로479번길 57",
    "phone": "",
    "latitude": "35.4375883964",
    "longitude": "127.8307390041",
    "image": "",
    "category": "홈스테이"
  },
  {
    "id": "3102167",
    "title": "동의참누리원 영천한의마을한옥체험관",
    "address": "경상북도 영천시 천문로 485 (화룡동)",
    "phone": "054-330-2751",
    "latitude": "35.9784693542",
    "longitude": "128.9233029829",
    "image": "",
    "category": "홈스테이"
  },
  {
    "id": "3102081",
    "title": "동파랑",
    "address": "경상북도 경주시 양정로98번길 16-8 (황오동)",
    "phone": "0507-1316-4247",
    "latitude": "35.8439402283",
    "longitude": "129.2244775811",
    "image": "",
    "category": "홈스테이"
  },
  {
    "id": "2711374",
    "title": "동해망상해변한옥촌",
    "address": "강원특별자치도 동해시 동해대로 6370",
    "phone": "033-539-3600",
    "latitude": "37.6004758135",
    "longitude": "129.0784856123",
    "image": "http://tong.visitkorea.or.kr/cms/resource/65/2741865_image2_1.jpg",
    "category": "홈스테이"
  },
  {
    "id": "2595489",
    "title": "동해한옥 동안재",
    "address": "강원특별자치도 동해시 천곡1길 74-2",
    "phone": "010-2974-3007",
    "latitude": "37.5282458440",
    "longitude": "129.1086184721",
    "image": "http://tong.visitkorea.or.kr/cms/resource/79/2766079_image2_1.jpg",
    "category": "홈스테이"
  },
  {
    "id": "2576343",
    "title": "뜰안채",
    "address": "전북특별자치도 전주시 완산구 어진길 94-5",
    "phone": "010-3166-9568",
    "latitude": "35.8171362131",
    "longitude": "127.1493365920",
    "image": "http://tong.visitkorea.or.kr/cms/resource/85/2575985_image2_1.jpg",
    "category": "홈스테이"
  },
  {
    "id": "2950198",
    "title": "라담[한국관광 품질인증/Korea Quality]",
    "address": "전북특별자치도 전주시 완산구 은행로 83-9",
    "phone": "0504-0904-2593",
    "latitude": "35.8125868028",
    "longitude": "127.1534557892",
    "image": "",
    "category": "홈스테이"
  },
  {
    "id": "3533156",
    "title": "라라몽몽",
    "address": "전북특별자치도 전주시 완산구 태진로 4-37 (태평동)",
    "phone": "010-8588-5437",
    "latitude": "35.8216660685",
    "longitude": "127.1386540909",
    "image": "",
    "category": "홈스테이"
  },
  {
    "id": "3102030",
    "title": "라연재",
    "address": "경상북도 경주시 천원2길 35-11 (교동)",
    "phone": "010-7160-9365",
    "latitude": "35.8256532519",
    "longitude": "129.2164482496",
    "image": "",
    "category": "홈스테이"
  },
  {
    "id": "2574250",
    "title": "라온한옥꿀잠",
    "address": "전북특별자치도 전주시 완산구 한지길 99-6",
    "phone": "010-7571-8888",
    "latitude": "35.8158364483",
    "longitude": "127.1543139612",
    "image": "http://tong.visitkorea.or.kr/cms/resource/30/2573630_image2_1.jpg",
    "category": "홈스테이"
  },
  {
    "id": "1871262",
    "title": "락고재 안동(하회)",
    "address": "경상북도 안동시 하회강변길 51",
    "phone": "054-857-3410",
    "latitude": "36.5407422751",
    "longitude": "128.5172423083",
    "image": "http://tong.visitkorea.or.kr/cms/resource/84/2573784_image2_1.jpg",
    "category": "홈스테이"
  },
  {
    "id": "2950473",
    "title": "락이당[한국관광 품질인증/Korea Quality]",
    "address": "서울특별시 종로구 계동길 121 121북촌",
    "phone": "0507-1358-3701",
    "latitude": "37.5827858390",
    "longitude": "126.9867475868",
    "image": "http://tong.visitkorea.or.kr/cms/resource/46/2966346_image2_1.jpg",
    "category": "홈스테이"
  },
  {
    "id": "2604344",
    "title": "락희원",
    "address": "경상북도 경주시 포석로1050번길 43",
    "phone": "010-4145-6295",
    "latitude": "35.8373712898",
    "longitude": "129.2120149707",
    "image": "",
    "category": "홈스테이"
  },
  {
    "id": "3438570",
    "title": "렛스테이",
    "address": "충청남도 공주시 제민천3길 66 (중동)",
    "phone": "070-8989-9067",
    "latitude": "36.4543768749",
    "longitude": "127.1234386488",
    "image": "",
    "category": "홈스테이"
  },
  {
    "id": "2950207",
    "title": "류황가원림[한국관광 품질인증/Korea Quality]",
    "address": "전라남도 순천시 조정래길 806-70",
    "phone": "010-9268-6524",
    "latitude": "34.9116586284",
    "longitude": "127.3442620582",
    "image": "",
    "category": "홈스테이"
  },
  {
    "id": "3101959",
    "title": "리스테이 남원",
    "address": "전북특별자치도 남원시 주천면 상주길 41-6",
    "phone": "010-9069-4438",
    "latitude": "35.3768238321",
    "longitude": "127.4003896756",
    "image": "",
    "category": "홈스테이"
  },
  {
    "id": "2598702",
    "title": "마골댁",
    "address": "경상북도 영덕군 창수면 인량1길 24",
    "phone": "010-3556-6536",
    "latitude": "36.5577510335",
    "longitude": "129.3726521162",
    "image": "",
    "category": "홈스테이"
  },
  {
    "id": "2609850",
    "title": "마당예쁜집(전주한옥마을 마당예쁜집)",
    "address": "전북특별자치도 전주시 완산구 향교길 79-8",
    "phone": "010-4467-4877",
    "latitude": "35.8122840667",
    "longitude": "127.1538779813",
    "image": "",
    "category": "홈스테이"
  },
  {
    "id": "3102028",
    "title": "마뜰애",
    "address": "경상북도 안동시 중들2길 5 (용상동)",
    "phone": "010-3548-6336",
    "latitude": "36.5585474513",
    "longitude": "128.7532902704",
    "image": "",
    "category": "홈스테이"
  },
  {
    "id": "2667868",
    "title": "마음의 고향",
    "address": "전라남도 무안군 현경면 현해로 335-31",
    "phone": "0507-1401-3833",
    "latitude": "35.0327873097",
    "longitude": "126.3913070306",
    "image": "",
    "category": "홈스테이"
  },
  {
    "id": "2804328",
    "title": "만죽재 고택",
    "address": "경상북도 영주시 무섬로234번길 11-10",
    "phone": "054-638-1127",
    "latitude": "36.7315335366",
    "longitude": "128.6214914114",
    "image": "http://tong.visitkorea.or.kr/cms/resource/55/3016955_image2_1.jpg",
    "category": "홈스테이"
  },
  {
    "id": "2409490",
    "title": "만회고택",
    "address": "경상북도 봉화군 봉화읍 바래미1길 51",
    "phone": "010-8079-7939",
    "latitude": "36.8973024423",
    "longitude": "128.7152226538",
    "image": "http://tong.visitkorea.or.kr/cms/resource/38/3042238_image2_1.jpg",
    "category": "홈스테이"
  },
  {
    "id": "2570109",
    "title": "망와고택",
    "address": "경상북도 봉화군 물야면 오록2길 48",
    "phone": "",
    "latitude": "36.9827736538",
    "longitude": "128.7391068901",
    "image": "http://tong.visitkorea.or.kr/cms/resource/31/2568031_image2_1.jpg",
    "category": "홈스테이"
  },
  {
    "id": "1871270",
    "title": "맥산댁",
    "address": "경상북도 고령군 쌍림면 개실2길 8",
    "phone": "054-956-4022",
    "latitude": "35.6672890017",
    "longitude": "128.2287144477",
    "image": "",
    "category": "홈스테이"
  },
  {
    "id": "3532720",
    "title": "메모리스테이 효자",
    "address": "서울특별시 종로구 자하문로 76-4 (효자동)",
    "phone": "010-2671-8600",
    "latitude": "37.5827355624",
    "longitude": "126.9710156891",
    "image": "http://tong.visitkorea.or.kr/cms/resource/97/3507597_image2_1.jpg",
    "category": "홈스테이"
  },
  {
    "id": "2697379",
    "title": "명문가",
    "address": "전북특별자치도 전주시 완산구 오목대길 50-3",
    "phone": "",
    "latitude": "35.8132006219",
    "longitude": "127.1534696606",
    "image": "",
    "category": "홈스테이"
  },
  {
    "id": "2699607",
    "title": "모꼬지",
    "address": "전북특별자치도 전주시 완산구 향교길 124-6",
    "phone": "",
    "latitude": "35.8118952624",
    "longitude": "127.1562277827",
    "image": "",
    "category": "홈스테이"
  },
  {
    "id": "2465875",
    "title": "모꼬지[한국관광 품질인증/Korea Quality]",
    "address": "서울특별시 종로구 혜화로16길 13-6",
    "phone": "02-744-2837",
    "latitude": "37.5907990296",
    "longitude": "126.9997239545",
    "image": "",
    "category": "홈스테이"
  },
  {
    "id": "2599272",
    "title": "모지고택",
    "address": "경상북도 안동시 풍천면 하회남촌길 33",
    "phone": "054-853-2388",
    "latitude": "36.5407367391",
    "longitude": "128.5182644399",
    "image": "",
    "category": "홈스테이"
  },
  {
    "id": "2574307",
    "title": "목양산방",
    "address": "전라남도 순천시 대대1길 24",
    "phone": "010-2022-9371",
    "latitude": "34.8897166737",
    "longitude": "127.5074843911",
    "image": "http://tong.visitkorea.or.kr/cms/resource/40/2573640_image2_1.jpg",
    "category": "홈스테이"
  },
  {
    "id": "2604806",
    "title": "목임당",
    "address": "전라남도 보성군 문덕면 가내길 18-33",
    "phone": "061-853-8041",
    "latitude": "34.9518544531",
    "longitude": "127.2017485787",
    "image": "",
    "category": "홈스테이"
  },
  {
    "id": "2706498",
    "title": "목임당",
    "address": "전라남도 보성군 문덕면 가내길 18-33",
    "phone": "061-853-8041",
    "latitude": "34.9488048318",
    "longitude": "127.2038318053",
    "image": "http://tong.visitkorea.or.kr/cms/resource/76/3068076_image2_1.jpg",
    "category": "홈스테이"
  },
  {
    "id": "2598297",
    "title": "목재고택",
    "address": "경상북도 안동시 도산면 백운로 533-20",
    "phone": "",
    "latitude": "36.7429034924",
    "longitude": "128.8638611802",
    "image": "",
    "category": "홈스테이"
  },
  {
    "id": "2593643",
    "title": "목향재",
    "address": "세종특별자치시 만남로6길 33",
    "phone": "",
    "latitude": "36.5019762504",
    "longitude": "127.2398991344",
    "image": "http://tong.visitkorea.or.kr/cms/resource/31/2594631_image2_1.JPG",
    "category": "홈스테이"
  },
  {
    "id": "3102032",
    "title": "무아기와",
    "address": "서울특별시 동대문구 서울시립대로4길 27-27 (전농동)",
    "phone": "010-7388-9922",
    "latitude": "37.5749489699",
    "longitude": "127.0484255222",
    "image": "",
    "category": "홈스테이"
  },
  {
    "id": "3438215",
    "title": "무월관",
    "address": "서울특별시 종로구 윤보선길 19-16 (안국동)",
    "phone": "0507-1438-1392",
    "latitude": "37.5772947544",
    "longitude": "126.9836202496",
    "image": "",
    "category": "홈스테이"
  },
  {
    "id": "2603550",
    "title": "무척산관광예술원",
    "address": "경상남도 김해시 생림면 안양로358번길 38",
    "phone": "055-338-2323",
    "latitude": "35.3837376700",
    "longitude": "128.8394658113",
    "image": "",
    "category": "홈스테이"
  },
  {
    "id": "2696647",
    "title": "묵계종택",
    "address": "경상북도 안동시 길안면 충효로 1736-5",
    "phone": "",
    "latitude": "36.4173777133",
    "longitude": "128.9154522103",
    "image": "",
    "category": "홈스테이"
  },
  {
    "id": "2603889",
    "title": "문행당",
    "address": "경상북도 봉화군 봉화읍 충재길 87-65",
    "phone": "010-4017-6699",
    "latitude": "36.9132538839",
    "longitude": "128.7411004318",
    "image": "http://tong.visitkorea.or.kr/cms/resource/87/2918487_image2_1.jpg",
    "category": "홈스테이"
  },
  {
    "id": "3101972",
    "title": "문화객가 사랑채",
    "address": "경상남도 밀양시 밀양향교2길 4-7 (교동)",
    "phone": "010-3883-2939",
    "latitude": "35.5046308478",
    "longitude": "128.7550809844",
    "image": "",
    "category": "홈스테이"
  },
  {
    "id": "1871362",
    "title": "문화공간 양사재",
    "address": "전북특별자치도 전주시 완산구 오목대길 40 양사재",
    "phone": "063-282-4959",
    "latitude": "35.8131450840",
    "longitude": "127.1541362693",
    "image": "http://tong.visitkorea.or.kr/cms/resource/41/2999041_image2_1.jpg",
    "category": "홈스테이"
  },
  {
    "id": "3438684",
    "title": "물길스테이",
    "address": "경상북도 안동시 임하면 금소2길 13",
    "phone": "010-5309-9887",
    "latitude": "36.5055859240",
    "longitude": "128.8527052104",
    "image": "",
    "category": "홈스테이"
  },
  {
    "id": "2608499",
    "title": "미담 한옥 게스트 하우스",
    "address": "서울특별시 종로구 북촌로6길 25-6",
    "phone": "010-3143-7096",
    "latitude": "37.5806638566",
    "longitude": "126.9863532384",
    "image": "",
    "category": "홈스테이"
  },
  {
    "id": "3533157",
    "title": "미미몽몽",
    "address": "전북특별자치도 전주시 완산구 관선1길 83-1 (남노송동)",
    "phone": "010-8588-5437",
    "latitude": "35.8190167119",
    "longitude": "127.1583857378",
    "image": "",
    "category": "홈스테이"
  },
  {
    "id": "3469419",
    "title": "미지한옥",
    "address": "경상북도 안동시 북문옥정길 67-8 (옥정동)",
    "phone": "010-5399-0583",
    "latitude": "36.5679126993",
    "longitude": "128.7347694209",
    "image": "",
    "category": "홈스테이"
  },
  {
    "id": "2600221",
    "title": "박정우가옥",
    "address": "경상북도 영주시 문수면 무섬로234번길 11-17",
    "phone": "054-633-1011",
    "latitude": "36.7346498149",
    "longitude": "128.6197803621",
    "image": "http://tong.visitkorea.or.kr/cms/resource/12/2600212_image2_1.jpg",
    "category": "홈스테이"
  },
  {
    "id": "2595502",
    "title": "박진사고택",
    "address": "경상남도 고성군 개천면 청광6길 25-12",
    "phone": "010-2063-2541",
    "latitude": "35.1170246518",
    "longitude": "128.3079417017",
    "image": "http://tong.visitkorea.or.kr/cms/resource/72/2918272_image2_1.jpg",
    "category": "홈스테이"
  },
  {
    "id": "2587036",
    "title": "백년한옥",
    "address": "전북특별자치도 전주시 완산구 기린대로 74-9",
    "phone": "063-282-7744  010-7731-4473",
    "latitude": "35.8159531185",
    "longitude": "127.1553138687",
    "image": "",
    "category": "홈스테이"
  },
  {
    "id": "2574064",
    "title": "백미응서재",
    "address": "경기도 화성시 서신면 밸미길 84",
    "phone": "010-3065-7171",
    "latitude": "37.1416123175",
    "longitude": "126.6907534744",
    "image": "http://tong.visitkorea.or.kr/cms/resource/71/2573171_image2_1.jpg",
    "category": "홈스테이"
  },
  {
    "id": "2604712",
    "title": "백불고택",
    "address": "대구광역시 동구 옻골로 195-5",
    "phone": "",
    "latitude": "35.9106975809",
    "longitude": "128.6845925742",
    "image": "http://tong.visitkorea.or.kr/cms/resource/24/3072124_image2_1.jpg",
    "category": "홈스테이"
  },
  {
    "id": "2623585",
    "title": "별궁",
    "address": "충청남도 태안군 이원면 원이로 2492",
    "phone": "010-4579-7272",
    "latitude": "36.9407149116",
    "longitude": "126.3012553822",
    "image": "http://tong.visitkorea.or.kr/cms/resource/89/2811889_image2_1.JPG",
    "category": "홈스테이"
  },
  {
    "id": "2624013",
    "title": "별동산달빛아래",
    "address": "경상북도 청송군 파천면 송소고택길 45-12",
    "phone": "",
    "latitude": "36.4390856930",
    "longitude": "129.0270583737",
    "image": "",
    "category": "홈스테이"
  },
  {
    "id": "2572908",
    "title": "별바라기집",
    "address": "전라남도 강진군 달빛한옥길 46",
    "phone": "010-4623-1375",
    "latitude": "34.7408672685",
    "longitude": "126.7177380782",
    "image": "http://tong.visitkorea.or.kr/cms/resource/63/2991363_image2_1.jpg",
    "category": "홈스테이"
  },
  {
    "id": "2598628",
    "title": "별아래한옥",
    "address": "경상북도 안동시 임하면 인덕길 86",
    "phone": "054-821-8589",
    "latitude": "36.5371900617",
    "longitude": "128.8213737375",
    "image": "",
    "category": "홈스테이"
  },
  {
    "id": "2574415",
    "title": "별자리",
    "address": "전북특별자치도 전주시 완산구 최명희길 26-17",
    "phone": "010-3682-6100",
    "latitude": "35.8165474250",
    "longitude": "127.1512697687",
    "image": "http://tong.visitkorea.or.kr/cms/resource/25/2573825_image2_1.jpg",
    "category": "홈스테이"
  },
  {
    "id": "2620413",
    "title": "병암고택",
    "address": "경상북도 영양군 석보면 두들마을길 100",
    "phone": "",
    "latitude": "36.5580462975",
    "longitude": "129.1281320615",
    "image": "",
    "category": "홈스테이"
  },
  {
    "id": "2604499",
    "title": "보금자리",
    "address": "전라남도 강진군 달빛한옥길 55",
    "phone": "010-4714-1951",
    "latitude": "34.7398757135",
    "longitude": "126.7177492124",
    "image": "http://tong.visitkorea.or.kr/cms/resource/70/2991370_image2_1.jpg",
    "category": "홈스테이"
  },
  {
    "id": "2611472",
    "title": "보리수 자수 숙박",
    "address": "전북특별자치도 전주시 완산구 은행로 93-5",
    "phone": "010-5797-3117",
    "latitude": "35.8116757941",
    "longitude": "127.1533947070",
    "image": "",
    "category": "홈스테이"
  },
  {
    "id": "2592489",
    "title": "복합한옥공간 곳",
    "address": "서울특별시 종로구 계동길 52-11",
    "phone": "010-3255-1289",
    "latitude": "37.5797056512",
    "longitude": "126.9872920687",
    "image": "http://tong.visitkorea.or.kr/cms/resource/68/2631068_image2_1.jpg",
    "category": "홈스테이"
  },
  {
    "id": "3469842",
    "title": "봄날",
    "address": "경상북도 안동시 태화길 91 (태화동)",
    "phone": "010-9379-0942",
    "latitude": "36.5602437107",
    "longitude": "128.7124966204",
    "image": "",
    "category": "홈스테이"
  },
  {
    "id": "2593571",
    "title": "부경당",
    "address": "전북특별자치도 전주시 완산구 한지길 99-5",
    "phone": "010-****-7630",
    "latitude": "35.8159892071",
    "longitude": "127.1542361861",
    "image": "http://tong.visitkorea.or.kr/cms/resource/29/2593529_image2_1.jpg",
    "category": "홈스테이"
  },
  {
    "id": "2665817",
    "title": "부여안방마님",
    "address": "충청남도 부여군 규암면 흥수로590번길 17",
    "phone": "",
    "latitude": "36.2655770389",
    "longitude": "126.8484100237",
    "image": "http://tong.visitkorea.or.kr/cms/resource/04/2679904_image2_1.jpg",
    "category": "홈스테이"
  },
  {
    "id": "1971964",
    "title": "부용헌",
    "address": "전북특별자치도 전주시 완산구 향교길 149-3",
    "phone": "010-8875-8587",
    "latitude": "35.8122758009",
    "longitude": "127.1577554146",
    "image": "http://tong.visitkorea.or.kr/cms/resource/75/2721075_image2_1.jpg",
    "category": "홈스테이"
  },
  {
    "id": "3072229",
    "title": "부천한옥체험마을",
    "address": "경기도 부천시 길주로 1 (상동)",
    "phone": "032-326-1542",
    "latitude": "37.5082512500",
    "longitude": "126.7422053159",
    "image": "http://tong.visitkorea.or.kr/cms/resource/32/3070132_image2_1.jpg",
    "category": "홈스테이"
  },
  {
    "id": "3438381",
    "title": "북촌다락방",
    "address": "서울특별시 종로구 북촌로11가길 27 (가회동)",
    "phone": "0507-1427-3171",
    "latitude": "37.5827802333",
    "longitude": "126.9839256220",
    "image": "",
    "category": "홈스테이"
  },
  {
    "id": "3072219",
    "title": "북촌빈관 by 락고재",
    "address": "서울특별시 종로구 북촌로11가길 10 (가회동)",
    "phone": "02-742-3410",
    "latitude": "37.5823469553",
    "longitude": "126.9842200518",
    "image": "",
    "category": "홈스테이"
  },
  {
    "id": "3101970",
    "title": "불국사한옥동오당",
    "address": "경상북도 경주시 진티길 5-58 (진현동)",
    "phone": "010-2936-6350",
    "latitude": "35.7828713047",
    "longitude": "129.3283480037",
    "image": "",
    "category": "홈스테이"
  },
  {
    "id": "2814160",
    "title": "불국사한옥팜스테이",
    "address": "경상북도 경주시 진티길 5-52",
    "phone": "0507-1387-1742",
    "latitude": "35.7829935089",
    "longitude": "129.3281424622",
    "image": "http://tong.visitkorea.or.kr/cms/resource/33/2813933_image2_1.jpg",
    "category": "홈스테이"
  },
  {
    "id": "3101911",
    "title": "비바라비다",
    "address": "서울특별시 종로구 율곡로 110-15 (권농동)",
    "phone": "0507-1376-5157",
    "latitude": "37.5770199258",
    "longitude": "126.9913889942",
    "image": "",
    "category": "홈스테이"
  },
  {
    "id": "3438587",
    "title": "빌라오",
    "address": "전라남도 순천시 옥천길 106 (옥천동)",
    "phone": "070-8989-9067",
    "latitude": "34.9532368392",
    "longitude": "127.4798518708",
    "image": "",
    "category": "홈스테이"
  },
  {
    "id": "2605443",
    "title": "사나래한옥",
    "address": "전라남도 장흥군 장평면 우산병동길 436-3",
    "phone": "010-6602-2418",
    "latitude": "34.8371234192",
    "longitude": "126.9027472023",
    "image": "",
    "category": "홈스테이"
  },
  {
    "id": "2708327",
    "title": "사단법인 한국천연염색 숨",
    "address": "전라남도 보성군 복내면 개기로 1529-45",
    "phone": "061-852-5622",
    "latitude": "34.9050694457",
    "longitude": "127.1204069089",
    "image": "http://tong.visitkorea.or.kr/cms/resource/28/2707628_image2_1.jpg",
    "category": "홈스테이"
  },
  {
    "id": "2048324",
    "title": "사랑가득",
    "address": "전북특별자치도 전주시 완산구 향교길 149-8",
    "phone": "010-7451-3355",
    "latitude": "35.8124646729",
    "longitude": "127.1580137201",
    "image": "http://tong.visitkorea.or.kr/cms/resource/57/3022057_image2_1.jpg",
    "category": "홈스테이"
  },
  {
    "id": "3438402",
    "title": "사사로이",
    "address": "서울특별시 종로구 율곡로1길 40-59 (사간동)",
    "phone": "0507-1308-1192",
    "latitude": "37.5781612808",
    "longitude": "126.9814037605",
    "image": "",
    "category": "홈스테이"
  },
  {
    "id": "2621282",
    "title": "사슴이랑배랑농원",
    "address": "전라남도 함평군 해보면 밀재로 1147-34",
    "phone": "061-323-9600, 010-3642-7069",
    "latitude": "35.1876981153",
    "longitude": "126.5913549443",
    "image": "http://tong.visitkorea.or.kr/cms/resource/00/2681200_image2_1.jpg",
    "category": "홈스테이"
  },
  {
    "id": "3438431",
    "title": "사월 한옥",
    "address": "서울특별시 성북구 성북로 76-11 (성북동)",
    "phone": "0504-0904-2789",
    "latitude": "37.5939097842",
    "longitude": "127.0000238388",
    "image": "",
    "category": "홈스테이"
  },
  {
    "id": "3438435",
    "title": "사임당 귀한그대",
    "address": "서울특별시 은평구 연서로50길 11-26 (진관동)",
    "phone": "0507-1443-3462",
    "latitude": "37.6412337613",
    "longitude": "126.9401362914",
    "image": "",
    "category": "홈스테이"
  },
  {
    "id": "3438287",
    "title": "사적인",
    "address": "서울특별시 종로구 율곡로4길 11-8 (견지동)",
    "phone": "0504-0904-2553",
    "latitude": "37.5749311166",
    "longitude": "126.9823065475",
    "image": "",
    "category": "홈스테이"
  },
  {
    "id": "3532666",
    "title": "산다",
    "address": "전북특별자치도 전주시 완산구 관선1길 64-3 (남노송동)",
    "phone": "010-6710-6403",
    "latitude": "35.8191305721",
    "longitude": "127.1574802593",
    "image": "",
    "category": "홈스테이"
  },
  {
    "id": "3532618",
    "title": "산성동그곳",
    "address": "충청남도 공주시 산성찬호길 15 (산성동)",
    "phone": "010-7186-8228",
    "latitude": "36.4589208520",
    "longitude": "127.1264771427",
    "image": "",
    "category": "홈스테이"
  },
  {
    "id": "2680818",
    "title": "산수유사랑채",
    "address": "경기도 이천시 백사면 원적로775번길 17",
    "phone": "1661-2154",
    "latitude": "37.3408280591",
    "longitude": "127.4623140477",
    "image": "",
    "category": "홈스테이"
  },
  {
    "id": "1972012",
    "title": "산에는 꽃이피네",
    "address": "전라남도 나주시 동력길 20-1",
    "phone": "010-4612-4232",
    "latitude": "34.9986705629",
    "longitude": "126.8233113260",
    "image": "",
    "category": "홈스테이"
  },
  {
    "id": "3102084",
    "title": "산온 리트릿",
    "address": "경상북도 안동시 풍산읍 우렁길 90-8",
    "phone": "010-2523-5799",
    "latitude": "36.5739257418",
    "longitude": "128.5784386913",
    "image": "",
    "category": "홈스테이"
  },
  {
    "id": "1883536",
    "title": "산청율수원",
    "address": "경상남도 산청군 신등가회로 36",
    "phone": "055-974-0221, 010-9802-1132",
    "latitude": "35.3803535976",
    "longitude": "128.0102941563",
    "image": "http://tong.visitkorea.or.kr/cms/resource/09/2631409_image2_1.jpg",
    "category": "홈스테이"
  },
  {
    "id": "1972014",
    "title": "삼락헌",
    "address": "전북특별자치도 전주시 완산구 은행로 47-8",
    "phone": "010-2604-7358",
    "latitude": "35.8156475531",
    "longitude": "127.1527196631",
    "image": "http://tong.visitkorea.or.kr/cms/resource/02/2596602_image2_1.jpg",
    "category": "홈스테이"
  },
  {
    "id": "2572886",
    "title": "삼연재",
    "address": "경상북도 예천군 보문면 웃노트기길 68",
    "phone": "010-4466-3394",
    "latitude": "36.6758263471",
    "longitude": "128.4909935358",
    "image": "http://tong.visitkorea.or.kr/cms/resource/21/2918521_image2_1.jpg",
    "category": "홈스테이"
  },
  {
    "id": "3438494",
    "title": "상상헌",
    "address": "서울특별시 은평구 연서로50길 3-8 (진관동)",
    "phone": "0507-1382-1966",
    "latitude": "37.6416086903",
    "longitude": "126.9386030872",
    "image": "",
    "category": "홈스테이"
  },
  {
    "id": "1972030",
    "title": "상유재",
    "address": "강원특별자치도 정선군 정선읍 봉양3길 22-8",
    "phone": "010-5377-1162",
    "latitude": "37.3794293286",
    "longitude": "128.6606826368",
    "image": "http://tong.visitkorea.or.kr/cms/resource/22/2629122_image2_1.jpg",
    "category": "홈스테이"
  },
  {
    "id": "2629570",
    "title": "새마을 시대촌",
    "address": "경상북도 청도군 청도읍 새마을1길 72",
    "phone": "054-372-5525",
    "latitude": "35.5999618850",
    "longitude": "128.7612028192",
    "image": "",
    "category": "홈스테이"
  },
  {
    "id": "3102214",
    "title": "색동저고리",
    "address": "전북특별자치도 전주시 완산구 전주천동로 64-10 (교동)",
    "phone": "010-4129-2950",
    "latitude": "35.8114924891",
    "longitude": "127.1538252293",
    "image": "",
    "category": "홈스테이"
  },
  {
    "id": "3438468",
    "title": "생활서가",
    "address": "서울특별시 은평구 진관길 11-7 (진관동)",
    "phone": "0504-0904-2659",
    "latitude": "37.6429502120",
    "longitude": "126.9392224370",
    "image": "",
    "category": "홈스테이"
  },
  {
    "id": "2701396",
    "title": "서남산한옥",
    "address": "경상북도 경주시 내남면 포석로 435-12",
    "phone": "",
    "latitude": "35.7808636366",
    "longitude": "129.2045588973",
    "image": "",
    "category": "홈스테이"
  },
  {
    "id": "2950932",
    "title": "서늘기문화[한국관광 품질인증/Korea Quality]",
    "address": "경상북도 영주시 창진로194번길 119-1",
    "phone": "0507-1382-7828",
    "latitude": "36.8474032276",
    "longitude": "128.6014537087",
    "image": "http://tong.visitkorea.or.kr/cms/resource/25/3042325_image2_1.jpg",
    "category": "홈스테이"
  },
  {
    "id": "3469883",
    "title": "서동선화한옥",
    "address": "충청남도 부여군 부여읍 월함로 105-1",
    "phone": "010-2788-5330",
    "latitude": "36.2918754037",
    "longitude": "126.9276911069",
    "image": "",
    "category": "홈스테이"
  },
  {
    "id": "1972381",
    "title": "서로",
    "address": "전북특별자치도 전주시 완산구 한지길 100-12",
    "phone": "010-4033-2610",
    "latitude": "35.8157753315",
    "longitude": "127.1536056922",
    "image": "http://tong.visitkorea.or.kr/cms/resource/38/2814938_image2_1.jpg",
    "category": "홈스테이"
  },
  {
    "id": "3102109",
    "title": "서소한가",
    "address": "경상북도 안동시 태화길 100 (태화동)",
    "phone": "0507-1369-8603",
    "latitude": "36.5599187421",
    "longitude": "128.7121938789",
    "image": "",
    "category": "홈스테이"
  },
  {
    "id": "3438630",
    "title": "서우재",
    "address": "경상북도 안동시 어가골아랫1길 31-4 (태화동)",
    "phone": "010-2069-9396",
    "latitude": "36.5596853636",
    "longitude": "128.7083803355",
    "image": "",
    "category": "홈스테이"
  },
  {
    "id": "3529694",
    "title": "서울아리",
    "address": "서울특별시 종로구 율곡로10길 15-8 (권농동)",
    "phone": "070-8094-0730",
    "latitude": "37.5767227374",
    "longitude": "126.9913445622",
    "image": "",
    "category": "홈스테이"
  },
  {
    "id": "2804401",
    "title": "서울한옥스테이(jnpstay)",
    "address": "서울특별시 종로구 자하문로1나길 7-28",
    "phone": "010-5720-6800",
    "latitude": "37.5769584543",
    "longitude": "126.9708991967",
    "image": "http://tong.visitkorea.or.kr/cms/resource/71/2803371_image2_1.jpg",
    "category": "홈스테이"
  },
  {
    "id": "2583741",
    "title": "서촌영락재",
    "address": "서울특별시 종로구 필운대로5가길 29",
    "phone": "0504-0904-2001",
    "latitude": "37.5803191143",
    "longitude": "126.9675494067",
    "image": "",
    "category": "홈스테이"
  },
  {
    "id": "2647026",
    "title": "석가헌",
    "address": "강원특별자치도 강릉시 모산로70번길 30",
    "phone": "010-6800-4091",
    "latitude": "37.7190170659",
    "longitude": "128.9048670017",
    "image": "",
    "category": "홈스테이"
  },
  {
    "id": "3101953",
    "title": "석등있는집 경주한옥숙소",
    "address": "경상북도 경주시 교촌안길 15-3 (교동)",
    "phone": "0507-1384-6063",
    "latitude": "35.8299805354",
    "longitude": "129.2161675954",
    "image": "",
    "category": "홈스테이"
  },
  {
    "id": "1872077",
    "title": "석정댁",
    "address": "경상북도 고령군 쌍림면 개실2길 6",
    "phone": "010-3207-4022",
    "latitude": "35.6670529242",
    "longitude": "128.2290727562",
    "image": "http://tong.visitkorea.or.kr/cms/resource/63/3435363_image2_1.jpg",
    "category": "홈스테이"
  },
  {
    "id": "3469889",
    "title": "석주재",
    "address": "경상남도 밀양시 산외면 금곡2길 50",
    "phone": "010-7247-4550",
    "latitude": "35.5106122528",
    "longitude": "128.8377263604",
    "image": "",
    "category": "홈스테이"
  },
  {
    "id": "2600371",
    "title": "선비촌",
    "address": "경상북도 영주시 순흥면 소백로 2796",
    "phone": "054-638-6444",
    "latitude": "36.9313626658",
    "longitude": "128.5811891709",
    "image": "",
    "category": "홈스테이"
  },
  {
    "id": "2597615",
    "title": "선성현문화단지한옥체험관",
    "address": "경상북도 안동시 도산면 선성5길 8",
    "phone": "054-841-0112",
    "latitude": "36.7001879229",
    "longitude": "128.8108754756",
    "image": "http://tong.visitkorea.or.kr/cms/resource/31/2679631_image2_1.jpg",
    "category": "홈스테이"
  },
  {
    "id": "2623941",
    "title": "선와당(이광명고택)",
    "address": "충청남도 보령시 주산면 방죽안길 33",
    "phone": "041-933-6422",
    "latitude": "36.2136960538",
    "longitude": "126.6398217662",
    "image": "http://tong.visitkorea.or.kr/cms/resource/46/2681046_image2_1.jpg",
    "category": "홈스테이"
  },
  {
    "id": "2950324",
    "title": "선유화길[한국관광 품질인증/Korea Quality]",
    "address": "전라남도 목포시 만호로 24-4",
    "phone": "010-3111-1182",
    "latitude": "34.7838902554",
    "longitude": "126.3835776244",
    "image": "http://tong.visitkorea.or.kr/cms/resource/64/3021564_image2_1.jpg",
    "category": "홈스테이"
  },
  {
    "id": "3102210",
    "title": "선음재",
    "address": "서울특별시 종로구 북촌로 94-14 (가회동)",
    "phone": "010-2882-1090",
    "latitude": "37.5850966614",
    "longitude": "126.9856309563",
    "image": "",
    "category": "홈스테이"
  },
  {
    "id": "2932889",
    "title": "선재스테이",
    "address": "충청북도 충주시 음촌2길 61-30",
    "phone": "010-4842-0408",
    "latitude": "37.1344965810",
    "longitude": "127.7792302191",
    "image": "",
    "category": "홈스테이"
  },
  {
    "id": "1872145",
    "title": "설아다원",
    "address": "전라남도 해남군 북일면 삼성길 153-21",
    "phone": "061-533-3083",
    "latitude": "34.4681580354",
    "longitude": "126.6601136214",
    "image": "http://tong.visitkorea.or.kr/cms/resource/25/3021525_image2_1.jpg",
    "category": "홈스테이"
  },
  {
    "id": "2600265",
    "title": "섬계고택",
    "address": "경상북도 영주시 문수면 무섬로234번길 11-7",
    "phone": "054-633-1011",
    "latitude": "36.7346248007",
    "longitude": "128.6188776654",
    "image": "",
    "category": "홈스테이"
  },
  {
    "id": "3438420",
    "title": "성북 은은한가",
    "address": "서울특별시 성북구 동소문로13가길 76-5 (동소문동4가)",
    "phone": "0507-1485-1088",
    "latitude": "37.5907436477",
    "longitude": "127.0090369956",
    "image": "",
    "category": "홈스테이"
  },
  {
    "id": "3102213",
    "title": "성심",
    "address": "전북특별자치도 전주시 완산구 은행로 30-3 (풍남동3가)",
    "phone": "010-3318-8384",
    "latitude": "35.8172084728",
    "longitude": "127.1519363587",
    "image": "",
    "category": "홈스테이"
  },
  {
    "id": "2594865",
    "title": "성암재",
    "address": "경상북도 봉화군 춘양면 서동길 19-18",
    "phone": "054-673-5011",
    "latitude": "36.9402401946",
    "longitude": "128.9136370309",
    "image": "http://tong.visitkorea.or.kr/cms/resource/86/3042286_image2_1.jpg",
    "category": "홈스테이"
  },
  {
    "id": "3105335",
    "title": "세렌디피아",
    "address": "전라남도 목포시 영산로 24-5 (대의동2가)",
    "phone": "010-8676-1713",
    "latitude": "34.7865427024",
    "longitude": "126.3816305103",
    "image": "",
    "category": "홈스테이"
  },
  {
    "id": "2660696",
    "title": "세연재",
    "address": "서울특별시 은평구 연서로50길 17",
    "phone": "",
    "latitude": "37.6403283002",
    "longitude": "126.9395335943",
    "image": "",
    "category": "홈스테이"
  },
  {
    "id": "2569552",
    "title": "셔블",
    "address": "경상북도 경주시 포석로1092번길 26-1",
    "phone": "010-7305-8609",
    "latitude": "35.8368157880",
    "longitude": "129.2115428065",
    "image": "http://tong.visitkorea.or.kr/cms/resource/78/2567078_image2_1.jpg",
    "category": "홈스테이"
  },
  {
    "id": "2047715",
    "title": "소강고택",
    "address": "경상북도 봉화군 바래미길 22",
    "phone": "010-9189-5578",
    "latitude": "36.8936916905",
    "longitude": "128.7123591267",
    "image": "http://tong.visitkorea.or.kr/cms/resource/80/2803880_image2_1.jpeg",
    "category": "홈스테이"
  },
  {
    "id": "2696312",
    "title": "소담스테이",
    "address": "서울특별시 마포구 마포대로14길 12-17",
    "phone": "",
    "latitude": "37.5480393261",
    "longitude": "126.9559902624",
    "image": "",
    "category": "홈스테이"
  },
  {
    "id": "2680781",
    "title": "소리터",
    "address": "전라남도 영암군 군서면 죽정서원길 9",
    "phone": "010-3632-1506",
    "latitude": "34.7621799636",
    "longitude": "126.6226153871",
    "image": "",
    "category": "홈스테이"
  },
  {
    "id": "3102031",
    "title": "소산당",
    "address": "전라남도 구례군 토지면 운조루길 35-17",
    "phone": "010-3671-8252",
    "latitude": "35.2066505326",
    "longitude": "127.5118592361",
    "image": "",
    "category": "홈스테이"
  },
  {
    "id": "2531372",
    "title": "소설재(첨성대점)",
    "address": "경상북도 경주시 포석로1050번길 48 (황남동)",
    "phone": "010-2237-6560",
    "latitude": "35.8342272477",
    "longitude": "129.2145342844",
    "image": "",
    "category": "홈스테이"
  },
  {
    "id": "3105332",
    "title": "소소담 스테이",
    "address": "경상북도 안동시 용상시장5길 3 (용상동)",
    "phone": "010-4829-4557",
    "latitude": "36.5577280243",
    "longitude": "128.7492712062",
    "image": "",
    "category": "홈스테이"
  },
  {
    "id": "3102089",
    "title": "소소정",
    "address": "경상북도 경주시 사정로50번길 10 (사정동)",
    "phone": "010-8533-1097",
    "latitude": "35.8358575032",
    "longitude": "129.2084014421",
    "image": "",
    "category": "홈스테이"
  },
  {
    "id": "2583699",
    "title": "소소하우스",
    "address": "서울특별시 종로구 필운대로5가길 16-5",
    "phone": "010-5286-0704",
    "latitude": "37.5803330123",
    "longitude": "126.9681632393",
    "image": "",
    "category": "홈스테이"
  },
  {
    "id": "2622784",
    "title": "소양고택 한옥스테이",
    "address": "전북특별자치도 완주군 소양면 송광수만로 472-23",
    "phone": "063-243-5222",
    "latitude": "35.9031141763",
    "longitude": "127.2433009708",
    "image": "http://tong.visitkorea.or.kr/cms/resource/20/3008820_image2_1.jpg",
    "category": "홈스테이"
  },
  {
    "id": "3102108",
    "title": "소여정",
    "address": "경상북도 경주시 원효로 182-4 (황오동)",
    "phone": "0507-1308-8590",
    "latitude": "35.8414654402",
    "longitude": "129.2209335177",
    "image": "",
    "category": "홈스테이"
  },
  {
    "id": "3469908",
    "title": "소연정한옥스테이",
    "address": "경상북도 안동시 서동문로 46-4 (태화동)",
    "phone": "010-4811-0078",
    "latitude": "36.5662236662",
    "longitude": "128.7168571715",
    "image": "",
    "category": "홈스테이"
  },
  {
    "id": "3438496",
    "title": "소우주",
    "address": "서울특별시 은평구 연서로50길 7 (진관동)",
    "phone": "010-5711-9969",
    "latitude": "37.6409698757",
    "longitude": "126.9386197703",
    "image": "",
    "category": "홈스테이"
  },
  {
    "id": "3438735",
    "title": "소월담",
    "address": "서울특별시 종로구 북촌로 20-25 (재동)",
    "phone": "010-7926-0774",
    "latitude": "37.5788251735",
    "longitude": "126.9858977767",
    "image": "",
    "category": "홈스테이"
  },
  {
    "id": "3438724",
    "title": "소월정",
    "address": "서울특별시 종로구 창덕궁길 172-2 (가회동)",
    "phone": "010-7926-0774",
    "latitude": "37.5832774441",
    "longitude": "126.9864920406",
    "image": "",
    "category": "홈스테이"
  },
  {
    "id": "3072231",
    "title": "소은고택",
    "address": "경상남도 밀양시 부북면 퇴로2길 14",
    "phone": "0507-1423-0251",
    "latitude": "35.5500997182",
    "longitude": "128.7003067554",
    "image": "http://tong.visitkorea.or.kr/cms/resource/39/3070139_image2_1.jpg",
    "category": "홈스테이"
  },
  {
    "id": "2587355",
    "title": "소이한옥",
    "address": "경상북도 경주시 첨성로81번길 22-4",
    "phone": "",
    "latitude": "35.8348493462",
    "longitude": "129.2116761840",
    "image": "",
    "category": "홈스테이"
  },
  {
    "id": "3532883",
    "title": "소풍한옥풀빌라",
    "address": "경상북도 경주시 북군3길 12-58 (북군동)",
    "phone": "010-2888-2503",
    "latitude": "35.8558535767",
    "longitude": "129.2670290677",
    "image": "",
    "category": "홈스테이"
  },
  {
    "id": "2706613",
    "title": "송계헌",
    "address": "경상북도 안동시 풍천면 병산길 332",
    "phone": "010-3522-1104",
    "latitude": "36.5430149752",
    "longitude": "128.5566859586",
    "image": "http://tong.visitkorea.or.kr/cms/resource/42/2706142_image2_1.jpg",
    "category": "홈스테이"
  },
  {
    "id": "2620182",
    "title": "송담 고택",
    "address": "경기도 용인시 처인구 이동읍 어진로 780",
    "phone": "",
    "latitude": "37.1065474816",
    "longitude": "127.1918979164",
    "image": "",
    "category": "홈스테이"
  },
  {
    "id": "1992543",
    "title": "송정고택",
    "address": "경상북도 청송군 파천면 송소고택길 15-1",
    "phone": "010-8746-6690",
    "latitude": "36.4359304808",
    "longitude": "129.0262446486",
    "image": "http://tong.visitkorea.or.kr/cms/resource/37/3055937_image2_1.jpg",
    "category": "홈스테이"
  },
  {
    "id": "2569165",
    "title": "수곡고택",
    "address": "경상북도 안동시 풍천면 가일길 78",
    "phone": "",
    "latitude": "36.5741025235",
    "longitude": "128.5263155432",
    "image": "http://tong.visitkorea.or.kr/cms/resource/08/2567008_image2_1.jpg",
    "category": "홈스테이"
  },
  {
    "id": "2613382",
    "title": "수곡당",
    "address": "전북특별자치도 남원시 고샘길 105-6",
    "phone": "010-9526-9111, 010-3356-1533",
    "latitude": "35.4053397332",
    "longitude": "127.3819738984",
    "image": "",
    "category": "홈스테이"
  },
  {
    "id": "2599504",
    "title": "수졸당",
    "address": "경상북도 안동시 도산면 하계길 1-9",
    "phone": "010-6265-0264",
    "latitude": "36.7338933212",
    "longitude": "128.8591729724",
    "image": "",
    "category": "홈스테이"
  },
  {
    "id": "2600248",
    "title": "수춘제(김태길) 고택",
    "address": "경상북도 영주시 문수면 무섬로234번길 7-3",
    "phone": "054-633-1011",
    "latitude": "36.7348414401",
    "longitude": "128.6187665577",
    "image": "",
    "category": "홈스테이"
  },
  {
    "id": "1872349",
    "title": "순천만 해룡성고택",
    "address": "전라남도 순천시 홍두길 136 (홍내동)",
    "phone": "061-744-1760",
    "latitude": "34.9199465254",
    "longitude": "127.5024785074",
    "image": "http://tong.visitkorea.or.kr/cms/resource/22/2588422_image2_1.jpg",
    "category": "홈스테이"
  },
  {
    "id": "2814147",
    "title": "순천만숲",
    "address": "전라남도 순천시 순천만길 374-1",
    "phone": "010-7570-1775",
    "latitude": "34.8972685866",
    "longitude": "127.5065148402",
    "image": "http://tong.visitkorea.or.kr/cms/resource/62/3021462_image2_1.jpg",
    "category": "홈스테이"
  },
  {
    "id": "3438617",
    "title": "스르르 한옥스테이",
    "address": "경상북도 안동시 태화3길 28 (태화동)",
    "phone": "0507-1337-1260",
    "latitude": "36.5623740127",
    "longitude": "128.7119382755",
    "image": "",
    "category": "홈스테이"
  },
  {
    "id": "3438585",
    "title": "스테이 구도",
    "address": "전라남도 목포시 마인계터로11번길 4 (죽동)",
    "phone": "010-8604-7327",
    "latitude": "34.7919170742",
    "longitude": "126.3802221726",
    "image": "",
    "category": "홈스테이"
  },
  {
    "id": "3102101",
    "title": "스테이 그믐",
    "address": "강원특별자치도 춘천시 법원뒷길 35-7 (효자동)",
    "phone": "0507-1449-8502",
    "latitude": "37.8711437823",
    "longitude": "127.7350377325",
    "image": "",
    "category": "홈스테이"
  },
  {
    "id": "3438622",
    "title": "스테이 나스러움",
    "address": "경상북도 안동시 태화길 20-1 (태화동)",
    "phone": "0507-1335-8429",
    "latitude": "36.5633294915",
    "longitude": "128.7136714267",
    "image": "",
    "category": "홈스테이"
  },
  {
    "id": "3438572",
    "title": "스테이 노아",
    "address": "충청남도 금산군 금산읍 은엉정1길 12-1",
    "phone": "0507-1424-7761",
    "latitude": "36.0992787948",
    "longitude": "127.4500690000",
    "image": "",
    "category": "홈스테이"
  },
  {
    "id": "2707439",
    "title": "스테이 데이 오프",
    "address": "서울특별시 종로구 자하문로1다길 6",
    "phone": "010–2429-0381",
    "latitude": "37.5773111969",
    "longitude": "126.9712158243",
    "image": "http://tong.visitkorea.or.kr/cms/resource/96/2707596_image2_1.jpg",
    "category": "홈스테이"
  },
  {
    "id": "3102069",
    "title": "스테이 물결",
    "address": "강원특별자치도 춘천시 백령로75번길 38 (효자동)",
    "phone": "010-8466-6518",
    "latitude": "37.8716465019",
    "longitude": "127.7350571602",
    "image": "",
    "category": "홈스테이"
  },
  {
    "id": "3532717",
    "title": "스테이 안김A",
    "address": "경상북도 경주시 첨성로99번길 26-5 (황남동)",
    "phone": "010-4548-6951",
    "latitude": "35.8355270720",
    "longitude": "129.2129954936",
    "image": "",
    "category": "홈스테이"
  },
  {
    "id": "3438126",
    "title": "스테이 어플로트",
    "address": "서울특별시 종로구 효자로7길 22-11 (통의동)",
    "phone": "0507-1369-3613",
    "latitude": "37.5787221716",
    "longitude": "126.9727823081",
    "image": "",
    "category": "홈스테이"
  },
  {
    "id": "3102106",
    "title": "스테이 원향",
    "address": "대구광역시 남구 이천로28길 27-2 (이천동)",
    "phone": "010-7552-9456",
    "latitude": "35.8543079491",
    "longitude": "128.5995960785",
    "image": "",
    "category": "홈스테이"
  },
  {
    "id": "3057070",
    "title": "스테이 은신희",
    "address": "전라남도 나주시 금성관길 38-5 (과원동)",
    "phone": "010-6319-2244",
    "latitude": "35.0344008468",
    "longitude": "126.7159893682",
    "image": "",
    "category": "홈스테이"
  },
  {
    "id": "3438567",
    "title": "스테이 자하",
    "address": "강원특별자치도 춘천시 소양로211번길 16-1 (근화동)",
    "phone": "0507-1394-1703",
    "latitude": "37.8918411779",
    "longitude": "127.7244936339",
    "image": "",
    "category": "홈스테이"
  },
  {
    "id": "2950330",
    "title": "스테이 초점[한국관광 품질인증/Korea Quality]",
    "address": "전라남도 나주시 당가길 33-6",
    "phone": "0507-1339-9891",
    "latitude": "35.0487197381",
    "longitude": "126.7794222966",
    "image": "",
    "category": "홈스테이"
  },
  {
    "id": "3438579",
    "title": "스테이 한울",
    "address": "전북특별자치도 전주시 완산구 은행로 84-10 (교동)",
    "phone": "0507-1471-5026",
    "latitude": "35.8126478872",
    "longitude": "127.1523586628",
    "image": "",
    "category": "홈스테이"
  },
  {
    "id": "3532759",
    "title": "스테이 희와",
    "address": "서울특별시 종로구 혜화로11가길 16-3 (명륜1가)",
    "phone": "010-6777-3499",
    "latitude": "37.5892547343",
    "longitude": "126.9980380409",
    "image": "",
    "category": "홈스테이"
  },
  {
    "id": "3102204",
    "title": "스테이넉넉",
    "address": "서울특별시 동대문구 왕산로5길 13-7 (신설동)",
    "phone": "0507-1387-0345",
    "latitude": "37.5775816043",
    "longitude": "127.0265885482",
    "image": "",
    "category": "홈스테이"
  },
  {
    "id": "2950209",
    "title": "스테이리운[한국관광 품질인증/Korea Quality]",
    "address": "전북특별자치도 남원시 고샘길 53-7",
    "phone": "0507-1493-0660",
    "latitude": "35.4053119073",
    "longitude": "127.3790241595",
    "image": "http://tong.visitkorea.or.kr/cms/resource/93/3074393_image2_1.jpg",
    "category": "홈스테이"
  },
  {
    "id": "3438359",
    "title": "스테이모일",
    "address": "서울특별시 종로구 율곡로10길 19 (권농동)",
    "phone": "0507-1382-0349",
    "latitude": "37.5766644064",
    "longitude": "126.9911084737",
    "image": "",
    "category": "홈스테이"
  },
  {
    "id": "3101965",
    "title": "스테이서문",
    "address": "전라남도 나주시 교동2길 9 (교동)",
    "phone": "010-7912-7200",
    "latitude": "35.0335842145",
    "longitude": "126.7125063628",
    "image": "",
    "category": "홈스테이"
  },
  {
    "id": "3102085",
    "title": "스테이시소",
    "address": "경상북도 안동시 태화중앙로 96-4 (태화동)",
    "phone": "0507-1344-1696",
    "latitude": "36.5608020057",
    "longitude": "128.7138409294",
    "image": "",
    "category": "홈스테이"
  },
  {
    "id": "3533114",
    "title": "스테이여유담",
    "address": "전라남도 나주시 남평읍 동촌로 226",
    "phone": "010-7255-4417",
    "latitude": "35.0514152998",
    "longitude": "126.8641119695",
    "image": "",
    "category": "홈스테이"
  },
  {
    "id": "3438561",
    "title": "스테이용궁",
    "address": "경기도 수원시 팔달구 수원천로316번길 24 (남수동)",
    "phone": "0507-1363-7645",
    "latitude": "37.2814130655",
    "longitude": "127.0197725134",
    "image": "",
    "category": "홈스테이"
  },
  {
    "id": "3469912",
    "title": "스테이유심",
    "address": "경상북도 안동시 서경지3길 25 (태화동)",
    "phone": "010-3565-8971",
    "latitude": "36.5602520879",
    "longitude": "128.7148658544",
    "image": "",
    "category": "홈스테이"
  },
  {
    "id": "3532712",
    "title": "스테이화요일",
    "address": "충청남도 아산시 인주면 인주로 376-100",
    "phone": "0507-1324-2239",
    "latitude": "36.8476611446",
    "longitude": "126.9046476864",
    "image": "",
    "category": "홈스테이"
  },
  {
    "id": "2811451",
    "title": "스테이황룡",
    "address": "전라남도 장성군 행복1길 5-3",
    "phone": "010-7142-5646",
    "latitude": "35.2949723093",
    "longitude": "126.7701058703",
    "image": "http://tong.visitkorea.or.kr/cms/resource/29/3073129_image2_1.jpg",
    "category": "홈스테이"
  },
  {
    "id": "2950191",
    "title": "시우재[한국관광 품질인증/Korea Quality]",
    "address": "인천광역시 연수구 동곡재로 74-33",
    "phone": "0507-1316-0120",
    "latitude": "37.4149635864",
    "longitude": "126.6698034034",
    "image": "",
    "category": "홈스테이"
  },
  {
    "id": "1972487",
    "title": "시원 한옥체험관",
    "address": "전북특별자치도 전주시 완산구 오목대길 45-41 (교동)",
    "phone": "010-6520-7840",
    "latitude": "35.8126590226",
    "longitude": "127.1538168661",
    "image": "http://tong.visitkorea.or.kr/cms/resource/24/2596624_image2_1.jpg",
    "category": "홈스테이"
  },
  {
    "id": "3533132",
    "title": "시월재",
    "address": "경기도 수원시 장안구 수원천로414번길 7-11 (연무동)",
    "phone": "010-7977-1408",
    "latitude": "37.2900676278",
    "longitude": "127.0202888908",
    "image": "",
    "category": "홈스테이"
  },
  {
    "id": "2465890",
    "title": "시은재",
    "address": "서울특별시 종로구 삼일대로 439",
    "phone": "010-5355-3029",
    "latitude": "37.5737035704",
    "longitude": "126.9872477984",
    "image": "http://tong.visitkorea.or.kr/cms/resource/51/2447351_image2_1.jpg",
    "category": "홈스테이"
  },
  {
    "id": "2950478",
    "title": "시휴별당[한국관광 품질인증/Korea Quality]",
    "address": "경상북도 경주시 첨성로49번길 15-1",
    "phone": "010-6266-8882",
    "latitude": "35.8343576587",
    "longitude": "129.2076348857",
    "image": "http://tong.visitkorea.or.kr/cms/resource/46/2948946_image2_1.JPG",
    "category": "홈스테이"
  },
  {
    "id": "2679990",
    "title": "신라불교초전지",
    "address": "경상북도 구미시 도개면 도개다곡길 389-46",
    "phone": "",
    "latitude": "36.2910706657",
    "longitude": "128.3632519698",
    "image": "http://tong.visitkorea.or.kr/cms/resource/49/2679949_image2_1.jpg",
    "category": "홈스테이"
  },
  {
    "id": "2598887",
    "title": "쌍암고택",
    "address": "경상북도 구미시 해평면 해평2길 40",
    "phone": "010-9692-0350",
    "latitude": "36.1929849513",
    "longitude": "128.3818864068",
    "image": "",
    "category": "홈스테이"
  },
  {
    "id": "3438629",
    "title": "아늑",
    "address": "경상북도 안동시 마들1길 19-18 (용상동)",
    "phone": "010-6865-0997",
    "latitude": "36.5542230178",
    "longitude": "128.7571789389",
    "image": "",
    "category": "홈스테이"
  },
  {
    "id": "3438569",
    "title": "아담",
    "address": "충청남도 공주시 대통1길 21 (봉황동)",
    "phone": "070-8989-9067",
    "latitude": "36.4506383907",
    "longitude": "127.1220666503",
    "image": "",
    "category": "홈스테이"
  },
  {
    "id": "3072227",
    "title": "아담한옥",
    "address": "서울특별시 종로구 필운대로6길 21 (통인동)",
    "phone": "0504-0904-2257",
    "latitude": "37.5803885888",
    "longitude": "126.9696769883",
    "image": "http://tong.visitkorea.or.kr/cms/resource/39/3070239_image2_1.jpg",
    "category": "홈스테이"
  },
  {
    "id": "3438249",
    "title": "아보헌",
    "address": "서울특별시 종로구 창덕궁길 104 (원서동)",
    "phone": "0507-1432-1018",
    "latitude": "37.5821220775",
    "longitude": "126.9895362401",
    "image": "",
    "category": "홈스테이"
  },
  {
    "id": "3438082",
    "title": "안길사가",
    "address": "서울특별시 종로구 북촌로1길 24-2 (안국동)",
    "phone": "0507-1459-1158",
    "latitude": "37.5774864148",
    "longitude": "126.9845034971",
    "image": "",
    "category": "홈스테이"
  },
  {
    "id": "2598834",
    "title": "안동 군자마을",
    "address": "경상북도 안동시 와룡면 군자리길 21",
    "phone": "",
    "latitude": "36.6732852614",
    "longitude": "128.8013965489",
    "image": "http://tong.visitkorea.or.kr/cms/resource/40/2678940_image2_1.jpg",
    "category": "홈스테이"
  },
  {
    "id": "2000725",
    "title": "안동 수애당",
    "address": "경상북도 안동시 임동면 수곡용계로 1714-11",
    "phone": "054-822-6661",
    "latitude": "36.5533762601",
    "longitude": "128.9234058865",
    "image": "",
    "category": "홈스테이"
  },
  {
    "id": "1883135",
    "title": "안동고택 이상루",
    "address": "경상북도 안동시 서후면 풍산태사로 3193-6",
    "phone": "010-3522-1542",
    "latitude": "36.6347484530",
    "longitude": "128.6784947054",
    "image": "http://tong.visitkorea.or.kr/cms/resource/94/2993094_image2_1.jpg",
    "category": "홈스테이"
  },
  {
    "id": "3469943",
    "title": "안동별장",
    "address": "경상북도 안동시 서동문로 46-6 (태화동)",
    "phone": "010-2773-2991",
    "latitude": "36.5661125684",
    "longitude": "128.7169127253",
    "image": "",
    "category": "홈스테이"
  },
  {
    "id": "3533131",
    "title": "안동한옥스테이휴",
    "address": "경상북도 안동시 태화8길 9-1 (태화동)",
    "phone": "010-8488-5613",
    "latitude": "36.5602409247",
    "longitude": "128.7120438826",
    "image": "",
    "category": "홈스테이"
  },
  {
    "id": "3532711",
    "title": "안스테이",
    "address": "경기도 가평군 상면 새터길 12-47",
    "phone": "010-3421-8184",
    "latitude": "37.7653442009",
    "longitude": "127.3927164586",
    "image": "",
    "category": "홈스테이"
  },
  {
    "id": "3438329",
    "title": "안유재",
    "address": "서울특별시 종로구 창덕궁7길 3 (원서동)",
    "phone": "0507-1373-8673",
    "latitude": "37.5833219051",
    "longitude": "126.9877058178",
    "image": "",
    "category": "홈스테이"
  },
  {
    "id": "3533161",
    "title": "앙니드 공이안",
    "address": "서울특별시 종로구 북촌로5가길 44-5 (화동)",
    "phone": "010-5570-7493",
    "latitude": "37.5816331005",
    "longitude": "126.9814925429",
    "image": "",
    "category": "홈스테이"
  },
  {
    "id": "1877312",
    "title": "양소당",
    "address": "경상북도 안동시 풍산읍 장태골길 28",
    "phone": "010-9005-0891, 010-5260-9565",
    "latitude": "36.5802355398",
    "longitude": "128.5468107666",
    "image": "http://tong.visitkorea.or.kr/cms/resource/55/2803255_image2_1.jpg",
    "category": "홈스테이"
  },
  {
    "id": "2594831",
    "title": "양참사댁(양동호 가옥 / 한옥152)",
    "address": "전라남도 화순군 도곡면 달아실길 24",
    "phone": "010-4200-6789",
    "latitude": "34.9843847639",
    "longitude": "126.9114233480",
    "image": "http://tong.visitkorea.or.kr/cms/resource/23/2594823_image2_1.jpg",
    "category": "홈스테이"
  },
  {
    "id": "2950323",
    "title": "양평 오후다섯시[한국관광 품질인증/Korea Quality]",
    "address": "경기도 양평군 불곡부처울길 51",
    "phone": "0507-1372-4624",
    "latitude": "37.4511945391",
    "longitude": "127.5432952100",
    "image": "http://tong.visitkorea.or.kr/cms/resource/27/2948927_image2_1.JPG",
    "category": "홈스테이"
  },
  {
    "id": "2050197",
    "title": "어련당",
    "address": "울산광역시 중구 산전길 61 어련당",
    "phone": "052-290-3692",
    "latitude": "35.5740924513",
    "longitude": "129.3503075669",
    "image": "http://tong.visitkorea.or.kr/cms/resource/84/2050184_image2_1.jpg",
    "category": "홈스테이"
  },
  {
    "id": "3532694",
    "title": "어보이",
    "address": "전북특별자치도 전주시 완산구 은행로 93-3 (교동)",
    "phone": "010-7541-4413",
    "latitude": "35.8116702363",
    "longitude": "127.1532391656",
    "image": "",
    "category": "홈스테이"
  },
  {
    "id": "2621825",
    "title": "어울림",
    "address": "전북특별자치도 전주시 완산구 은행로 75-5",
    "phone": "010-5622-7924",
    "latitude": "35.8133811543",
    "longitude": "127.1532946716",
    "image": "",
    "category": "홈스테이"
  },
  {
    "id": "3438582",
    "title": "여가",
    "address": "전북특별자치도 전주시 완산구 태조로 12-12 (풍남동3가)",
    "phone": "0507-1478-0503",
    "latitude": "35.8155642403",
    "longitude": "127.1534029381",
    "image": "",
    "category": "홈스테이"
  },
  {
    "id": "3438182",
    "title": "여느날",
    "address": "서울특별시 종로구 자하문로1길 49-9 (필운동)",
    "phone": "0507-1372-0080",
    "latitude": "37.5765695875",
    "longitude": "126.9696048813",
    "image": "",
    "category": "홈스테이"
  },
  {
    "id": "2608081",
    "title": "여락재",
    "address": "전라남도 강진군 달빛한옥길 38",
    "phone": "010-2633-7727",
    "latitude": "34.7407284068",
    "longitude": "126.7184380198",
    "image": "http://tong.visitkorea.or.kr/cms/resource/51/2803651_image2_1.jpeg",
    "category": "홈스테이"
  },
  {
    "id": "2706514",
    "title": "여수한옥체험관",
    "address": "전라남도 여수시 소라면 상관길 47",
    "phone": "061-682-5057",
    "latitude": "34.7485512874",
    "longitude": "127.6300855578",
    "image": "http://tong.visitkorea.or.kr/cms/resource/04/3021504_image2_1.jpg",
    "category": "홈스테이"
  },
  {
    "id": "3102131",
    "title": "여여재",
    "address": "경기도 수원시 팔달구 화서문로16번길 43 (신풍동)",
    "phone": "0507-1370-3993",
    "latitude": "37.2838653646",
    "longitude": "127.0089039867",
    "image": "",
    "category": "홈스테이"
  },
  {
    "id": "3438583",
    "title": "여유",
    "address": "전북특별자치도 전주시 완산구 향교길 155-22 (교동)",
    "phone": "0507-1341-5586",
    "latitude": "35.8124202435",
    "longitude": "127.1585858919",
    "image": "",
    "category": "홈스테이"
  },
  {
    "id": "3474159",
    "title": "여주현_감성독채한옥숙소",
    "address": "대구광역시 중구 서성로13길 7-6 (서성로1가)",
    "phone": "",
    "latitude": "35.8720251545",
    "longitude": "128.5869328122",
    "image": "",
    "category": "홈스테이"
  },
  {
    "id": "1883086",
    "title": "연경당",
    "address": "전라남도 광양시 중흥로 13-40",
    "phone": "",
    "latitude": "35.0156899854",
    "longitude": "127.5859520697",
    "image": "http://tong.visitkorea.or.kr/cms/resource/80/2918180_image2_1.jpg",
    "category": "홈스테이"
  },
  {
    "id": "2603884",
    "title": "연당",
    "address": "서울특별시 종로구 계동6길 3",
    "phone": "010-7735-5916",
    "latitude": "37.5826025329",
    "longitude": "126.9870725624",
    "image": "",
    "category": "홈스테이"
  },
  {
    "id": "3474182",
    "title": "연당 . 선물 같은 하루",
    "address": "전북특별자치도 전주시 완산구 경기전길 57-13 (풍남동3가)",
    "phone": "",
    "latitude": "35.8170057072",
    "longitude": "127.1513058647",
    "image": "",
    "category": "홈스테이"
  },
  {
    "id": "2575760",
    "title": "연우당",
    "address": "전북특별자치도 전주시 완산구 태조로 12-17",
    "phone": "010-2640-0300",
    "latitude": "35.8155864558",
    "longitude": "127.1531362943",
    "image": "http://tong.visitkorea.or.kr/cms/resource/69/2575469_image2_1.JPG",
    "category": "홈스테이"
  },
  {
    "id": "1883087",
    "title": "연우하우스[한국관광 품질인증/Korea Quality]",
    "address": "서울특별시 종로구 북촌로12길 5-13",
    "phone": "02-742-1115",
    "latitude": "37.5823358662",
    "longitude": "126.9853282846",
    "image": "http://tong.visitkorea.or.kr/cms/resource/52/3009452_image2_1.jpg",
    "category": "홈스테이"
  },
  {
    "id": "3102129",
    "title": "연월한옥",
    "address": "제주특별자치도 제주시 한경면 녹차분재로 505",
    "phone": "0507-1375-7752",
    "latitude": "33.3170326640",
    "longitude": "126.2698159646",
    "image": "",
    "category": "홈스테이"
  },
  {
    "id": "2600313",
    "title": "연풍고가",
    "address": "경상북도 고령군 쌍림면 개실1길 44",
    "phone": "054-956-4022",
    "latitude": "35.6710690884",
    "longitude": "128.2264339907",
    "image": "",
    "category": "홈스테이"
  },
  {
    "id": "1883104",
    "title": "연풍고택(문충고가)",
    "address": "경상북도 고령군 쌍림면 개실1길 44",
    "phone": "",
    "latitude": "35.6680139185",
    "longitude": "128.2286394345",
    "image": "http://tong.visitkorea.or.kr/cms/resource/75/3008775_image2_1.jpg",
    "category": "홈스테이"
  },
  {
    "id": "3072085",
    "title": "영진한옥애",
    "address": "강원특별자치도 강릉시 연곡면 홍질목길 16-2",
    "phone": "",
    "latitude": "37.8682485932",
    "longitude": "128.8432096061",
    "image": "http://tong.visitkorea.or.kr/cms/resource/02/3070402_image2_1.jpg",
    "category": "홈스테이"
  },
  {
    "id": "3102078",
    "title": "영진한옥애풀빌라",
    "address": "강원특별자치도 강릉시 연곡면 홍질목길 16-2",
    "phone": "010-3656-2660",
    "latitude": "37.8682485932",
    "longitude": "128.8432096061",
    "image": "",
    "category": "홈스테이"
  },
  {
    "id": "2620236",
    "title": "예다움",
    "address": "경상남도 산청군 단성면 지리산대로 2901-6",
    "phone": "",
    "latitude": "35.2737087577",
    "longitude": "127.9367784380",
    "image": "",
    "category": "홈스테이"
  },
  {
    "id": "2695660",
    "title": "예당큰집",
    "address": "충청남도 홍성군 장곡면 무한로 957-24",
    "phone": "041-642-3833",
    "latitude": "36.4940101157",
    "longitude": "126.7423162826",
    "image": "",
    "category": "홈스테이"
  },
  {
    "id": "2940719",
    "title": "예린당 바이 버틀러리",
    "address": "서울특별시 종로구 자하문로5가길 17-8",
    "phone": "",
    "latitude": "37.5782832921",
    "longitude": "126.9704353125",
    "image": "http://tong.visitkorea.or.kr/cms/resource/14/2940714_image2_1.jpg",
    "category": "홈스테이"
  },
  {
    "id": "3438545",
    "title": "예맥당 한옥스테이",
    "address": "서울특별시 은평구 연서로50길 11 (진관동)",
    "phone": "0507-1379-0957",
    "latitude": "37.6407671266",
    "longitude": "126.9388947509",
    "image": "",
    "category": "홈스테이"
  },
  {
    "id": "3532989",
    "title": "예선재",
    "address": "충청북도 충주시 거룡2길 48-9 (용산동)",
    "phone": "010-6542-8010",
    "latitude": "36.9621221339",
    "longitude": "127.9381541959",
    "image": "",
    "category": "홈스테이"
  },
  {
    "id": "2610549",
    "title": "예원당(한옥체험 예원당)",
    "address": "전북특별자치도 전주시 완산구 어진길 33-10",
    "phone": "",
    "latitude": "35.8173945762",
    "longitude": "127.1527418376",
    "image": "",
    "category": "홈스테이"
  },
  {
    "id": "2604100",
    "title": "예직한옥체험마을(용인예직한옥체험 마을)",
    "address": "경기도 용인시 처인구 예직로 24-28",
    "phone": "010-3254-4112",
    "latitude": "37.1918221048",
    "longitude": "127.2555842092",
    "image": "",
    "category": "홈스테이"
  },
  {
    "id": "2683032",
    "title": "예향",
    "address": "강원특별자치도 홍천군 화촌면 도광터길 208",
    "phone": "010-5620-2010",
    "latitude": "37.7047664737",
    "longitude": "128.0629601313",
    "image": "http://tong.visitkorea.or.kr/cms/resource/63/2682963_image2_1.jpg",
    "category": "홈스테이"
  },
  {
    "id": "2468936",
    "title": "옛날에금잔디",
    "address": "인천광역시 강화군 내가면 강화서로225번길 18-1",
    "phone": "010-6216-5598",
    "latitude": "37.7161235947",
    "longitude": "126.3892095829",
    "image": "http://tong.visitkorea.or.kr/cms/resource/23/2451823_image2_1.jpg",
    "category": "홈스테이"
  },
  {
    "id": "2950196",
    "title": "오늘[한국관광 품질인증/Korea Quality]",
    "address": "전북특별자치도 전주시 완산구 향교길 155-26",
    "phone": "0507-1348-1522",
    "latitude": "35.8125091181",
    "longitude": "127.1583525780",
    "image": "http://tong.visitkorea.or.kr/cms/resource/61/2948861_image2_1.jpg",
    "category": "홈스테이"
  },
  {
    "id": "3105217",
    "title": "오늘스테이 동대문점",
    "address": "서울특별시 동대문구 왕산로26가길 14 (용두동)",
    "phone": "010-3981-0251",
    "latitude": "37.5771124064",
    "longitude": "127.0372681437",
    "image": "",
    "category": "홈스테이"
  },
  {
    "id": "2607653",
    "title": "오람정",
    "address": "경상북도 경주시 내남면 내남로 393-62",
    "phone": "010-8557-6500",
    "latitude": "35.7798022515",
    "longitude": "129.1836552030",
    "image": "",
    "category": "홈스테이"
  },
  {
    "id": "3102200",
    "title": "오래된 숲(송산)",
    "address": "전라남도 장흥군 장흥읍 송산길 59",
    "phone": "010-5239-1592",
    "latitude": "34.6530355573",
    "longitude": "126.8901667154",
    "image": "",
    "category": "홈스테이"
  },
  {
    "id": "3072197",
    "title": "오롯이, 한옥",
    "address": "서울특별시 종로구 필운대로5가길 13-4 (누하동)",
    "phone": "0507-1342-2361",
    "latitude": "37.5800052708",
    "longitude": "126.9680049295",
    "image": "",
    "category": "홈스테이"
  },
  {
    "id": "2706485",
    "title": "오류헌",
    "address": "경상북도 안동시 임하면 기르마제길 18-15",
    "phone": "054-822-2704",
    "latitude": "36.5195151591",
    "longitude": "128.8668396641",
    "image": "http://tong.visitkorea.or.kr/cms/resource/29/2706129_image2_1.jpg",
    "category": "홈스테이"
  },
  {
    "id": "3532595",
    "title": "오브헤리티지",
    "address": "전라남도 고흥군 도양읍 용정등넘길 73",
    "phone": "061-843-5357",
    "latitude": "34.5466266196",
    "longitude": "127.1371420931",
    "image": "",
    "category": "홈스테이"
  },
  {
    "id": "3102073",
    "title": "오원 스테이",
    "address": "경상북도 경주시 사정로50번길 3-4 (사정동)",
    "phone": "010-8583-2455",
    "latitude": "35.8363491244",
    "longitude": "129.2089291600",
    "image": "",
    "category": "홈스테이"
  },
  {
    "id": "3474160",
    "title": "오창 한옥 7호 솔향",
    "address": "충청북도 청주시 청원구 오창읍 미래지로 71-63",
    "phone": "",
    "latitude": "36.7351413171",
    "longitude": "127.4051251292",
    "image": "",
    "category": "홈스테이"
  },
  {
    "id": "3072218",
    "title": "오히",
    "address": "경상북도 경주시 탑리1길 18-31 (탑동)",
    "phone": "",
    "latitude": "35.8241700130",
    "longitude": "129.2125819637",
    "image": "http://tong.visitkorea.or.kr/cms/resource/42/3070742_image2_1.jpg",
    "category": "홈스테이"
  },
  {
    "id": "2572817",
    "title": "옥산정사 독락당",
    "address": "경상북도 경주시 안강읍 옥산서원길 300-3",
    "phone": "",
    "latitude": "36.0169583419",
    "longitude": "129.1599755192",
    "image": "",
    "category": "홈스테이"
  },
  {
    "id": "1883590",
    "title": "옥연정사",
    "address": "경상북도 안동시 풍천면 광덕솔밭길 86",
    "phone": "054-854-2202",
    "latitude": "36.5433753219",
    "longitude": "128.5180060538",
    "image": "http://tong.visitkorea.or.kr/cms/resource/73/3016973_image2_1.jpg",
    "category": "홈스테이"
  },
  {
    "id": "2854436",
    "title": "옥천전통문화체험관",
    "address": "충청북도 옥천군 향수길 100",
    "phone": "043-730-3420",
    "latitude": "36.3167313825",
    "longitude": "127.5854621456",
    "image": "http://tong.visitkorea.or.kr/cms/resource/53/3070753_image2_1.jpg",
    "category": "홈스테이"
  },
  {
    "id": "3102111",
    "title": "옥천풍경",
    "address": "전라남도 순천시 호남1길 10 (옥천동)",
    "phone": "010-6504-2010",
    "latitude": "34.9528313626",
    "longitude": "127.4817989324",
    "image": "",
    "category": "홈스테이"
  },
  {
    "id": "2595862",
    "title": "온계종택 삼백당",
    "address": "경상북도 안동시 온혜중마길 20",
    "phone": "010-2988-3435",
    "latitude": "36.7495632059",
    "longitude": "128.8304056259",
    "image": "http://tong.visitkorea.or.kr/cms/resource/75/3021675_image2_1.jpg",
    "category": "홈스테이"
  },
  {
    "id": "2598978",
    "title": "온계종택(삼백당)",
    "address": "경상북도 안동시 도산면 온혜중마길 20",
    "phone": "010-2988-3435",
    "latitude": "36.7526266950",
    "longitude": "128.8278168774",
    "image": "",
    "category": "홈스테이"
  },
  {
    "id": "2569980",
    "title": "온고을",
    "address": "전북특별자치도 전주시 완산구 향교길 51-10",
    "phone": "010-3280-6677",
    "latitude": "35.8122534899",
    "longitude": "127.1524586644",
    "image": "http://tong.visitkorea.or.kr/cms/resource/02/2568002_image2_1.jpg",
    "category": "홈스테이"
  },
  {
    "id": "3102067",
    "title": "온새미한옥",
    "address": "경상북도 경주시 포석로1050번길 8-6 (황남동)",
    "phone": "0507-1364-1437",
    "latitude": "35.8342438298",
    "longitude": "129.2101318918",
    "image": "",
    "category": "홈스테이"
  },
  {
    "id": "3102086",
    "title": "온양가",
    "address": "강원특별자치도 횡성군 청일면 춘당로289번길 51",
    "phone": "010-2268-0414",
    "latitude": "37.6243138424",
    "longitude": "128.1655476914",
    "image": "",
    "category": "홈스테이"
  },
  {
    "id": "3072240",
    "title": "온유헌 바이 버틀러리",
    "address": "서울특별시 종로구 계동길 92-19 (계동)",
    "phone": "",
    "latitude": "37.5816109890",
    "longitude": "126.9874892192",
    "image": "http://tong.visitkorea.or.kr/cms/resource/58/3078458_image2_1.jpg",
    "category": "홈스테이"
  },
  {
    "id": "3533160",
    "title": "와하녹",
    "address": "서울특별시 종로구 창경궁로26길 38-13 (명륜4가)",
    "phone": "010-7501-2722",
    "latitude": "37.5817723039",
    "longitude": "126.9999075272",
    "image": "",
    "category": "홈스테이"
  },
  {
    "id": "2706590",
    "title": "왕의지밀 고종관",
    "address": "전북특별자치도 전주시 완산구 춘향로 5218-8",
    "phone": "063-284-1004",
    "latitude": "35.8000747703",
    "longitude": "127.1784066740",
    "image": "http://tong.visitkorea.or.kr/cms/resource/37/2705937_image2_1.jpg",
    "category": "홈스테이"
  },
  {
    "id": "2706533",
    "title": "왕의지밀 문종관",
    "address": "전북특별자치도 전주시 완산구 춘향로 5218-20",
    "phone": "063-284-1004",
    "latitude": "35.8006274628",
    "longitude": "127.1771484385",
    "image": "http://tong.visitkorea.or.kr/cms/resource/18/2705918_image2_1.jpg",
    "category": "홈스테이"
  },
  {
    "id": "2706601",
    "title": "왕의지밀 선조관",
    "address": "전북특별자치도 전주시 완산구 춘향로 5218-16",
    "phone": "063-284-1004",
    "latitude": "35.8004941532",
    "longitude": "127.1776345099",
    "image": "http://tong.visitkorea.or.kr/cms/resource/51/2705951_image2_1.jpg",
    "category": "홈스테이"
  },
  {
    "id": "2706521",
    "title": "왕의지밀 세조관",
    "address": "전북특별자치도 전주시 완산구 춘향로 5218-18",
    "phone": "063-284-1004",
    "latitude": "35.8005524757",
    "longitude": "127.1774095280",
    "image": "http://tong.visitkorea.or.kr/cms/resource/13/2705913_image2_1.jpg",
    "category": "홈스테이"
  },
  {
    "id": "2706561",
    "title": "왕의지밀 세종관",
    "address": "전북특별자치도 전주시 완산구 춘향로 5218-22",
    "phone": "063-284-1004",
    "latitude": "35.8006968947",
    "longitude": "127.1768790159",
    "image": "http://tong.visitkorea.or.kr/cms/resource/23/2705923_image2_1.jpg",
    "category": "홈스테이"
  },
  {
    "id": "2706592",
    "title": "왕의지밀 숙종관",
    "address": "전북특별자치도 전주시 완산구 춘향로 5218-14",
    "phone": "063-284-1004",
    "latitude": "35.8004469410",
    "longitude": "127.1778761560",
    "image": "http://tong.visitkorea.or.kr/cms/resource/62/2706062_image2_1.jpg",
    "category": "홈스테이"
  },
  {
    "id": "2706568",
    "title": "왕의지밀 순종관",
    "address": "전북특별자치도 전주시 완산구 춘향로 5218-6",
    "phone": "063-284-1004",
    "latitude": "35.7998414647",
    "longitude": "127.1784788965",
    "image": "http://tong.visitkorea.or.kr/cms/resource/59/2706059_image2_1.jpg",
    "category": "홈스테이"
  },
  {
    "id": "2706591",
    "title": "왕의지밀 정조관",
    "address": "전북특별자치도 전주시 완산구 춘향로 5218-10",
    "phone": "063-284-1004",
    "latitude": "35.8003330727",
    "longitude": "127.1783705601",
    "image": "http://tong.visitkorea.or.kr/cms/resource/44/2705944_image2_1.jpg",
    "category": "홈스테이"
  },
  {
    "id": "2706602",
    "title": "왕의지밀 태조관",
    "address": "전북특별자치도 전주시 완산구 춘향로 5218-26",
    "phone": "063-284-1004",
    "latitude": "35.8006802193",
    "longitude": "127.1762901801",
    "image": "http://tong.visitkorea.or.kr/cms/resource/54/2705954_image2_1.jpg",
    "category": "홈스테이"
  },
  {
    "id": "2706583",
    "title": "왕의지밀 태종관",
    "address": "전북특별자치도 전주시 완산구 춘향로 5218-24",
    "phone": "063-284-1004",
    "latitude": "35.8007468842",
    "longitude": "127.1765984844",
    "image": "http://tong.visitkorea.or.kr/cms/resource/30/2705930_image2_1.jpg",
    "category": "홈스테이"
  },
  {
    "id": "3101941",
    "title": "우드인스테이",
    "address": "경상북도 경주시 강변로152번길 7 (사정동)",
    "phone": "010-9730-7510, 0503-5052-1009",
    "latitude": "35.8375877757",
    "longitude": "129.2037351353",
    "image": "",
    "category": "홈스테이"
  },
  {
    "id": "2569237",
    "title": "운정루",
    "address": "경상북도 경주시 칠불암길 77-14",
    "phone": "",
    "latitude": "35.7912826861",
    "longitude": "129.2458966484",
    "image": "http://tong.visitkorea.or.kr/cms/resource/42/2567042_image2_1.jpg",
    "category": "홈스테이"
  },
  {
    "id": "3106623",
    "title": "원화루",
    "address": "경상북도 경주시 포석로 828-21 (배동)",
    "phone": "010-7667-3355",
    "latitude": "35.8142822173",
    "longitude": "129.2114101261",
    "image": "",
    "category": "홈스테이"
  },
  {
    "id": "2613097",
    "title": "월암재",
    "address": "경상북도 경주시 남간안길 5-10",
    "phone": "010-3570-1950",
    "latitude": "35.8156710399",
    "longitude": "129.2162068881",
    "image": "",
    "category": "홈스테이"
  },
  {
    "id": "2668037",
    "title": "월암종택(김호장군고택)",
    "address": "경상북도 경주시 식혜골길 35",
    "phone": "",
    "latitude": "35.8196345282",
    "longitude": "129.2186704484",
    "image": "",
    "category": "홈스테이"
  },
  {
    "id": "3438233",
    "title": "월운",
    "address": "서울특별시 종로구 율곡로10길 79-1 (권농동)",
    "phone": "0507-1355-8640",
    "latitude": "37.5741036037",
    "longitude": "126.9917001593",
    "image": "",
    "category": "홈스테이"
  },
  {
    "id": "1883593",
    "title": "월인당",
    "address": "전라남도 영암군 모정1길 37-11",
    "phone": "061-471-7675",
    "latitude": "34.7777835946",
    "longitude": "126.6123770221",
    "image": "http://tong.visitkorea.or.kr/cms/resource/73/2574173_image2_1.jpg",
    "category": "홈스테이"
  },
  {
    "id": "2576371",
    "title": "월출산 달빛정원",
    "address": "전라남도 영암군 군서면 월암길 116-11",
    "phone": "010-9136-1937",
    "latitude": "34.7708378382",
    "longitude": "126.6537624307",
    "image": "http://tong.visitkorea.or.kr/cms/resource/23/2576023_image2_1.PNG",
    "category": "홈스테이"
  },
  {
    "id": "2699326",
    "title": "월출산 청풍명월",
    "address": "전라남도 영암군 군서면 월암길 116-29",
    "phone": "",
    "latitude": "34.7698768483",
    "longitude": "126.6545568287",
    "image": "",
    "category": "홈스테이"
  },
  {
    "id": "3532598",
    "title": "월하",
    "address": "경상북도 경주시 북성로51번길 7 (서부동)",
    "phone": "010-7514-1711",
    "latitude": "35.8480672181",
    "longitude": "129.2074150700",
    "image": "",
    "category": "홈스테이"
  },
  {
    "id": "3532770",
    "title": "월하고택",
    "address": "경기도 남양주시 수동면 비룡로 981-2",
    "phone": "010-5456-6569",
    "latitude": "37.7194453066",
    "longitude": "127.3132083672",
    "image": "",
    "category": "홈스테이"
  },
  {
    "id": "3116447",
    "title": "웰컴미스테익스",
    "address": "서울특별시 종로구 창의문로7길 27 (부암동)",
    "phone": "",
    "latitude": "37.5917760390",
    "longitude": "126.9632439189",
    "image": "",
    "category": "홈스테이"
  },
  {
    "id": "2707242",
    "title": "위연재",
    "address": "경상북도 경주시 쪽샘길 7",
    "phone": "010-5694-2426",
    "latitude": "35.8361882036",
    "longitude": "129.2180172566",
    "image": "http://tong.visitkorea.or.kr/cms/resource/21/2731921_image2_1.jpg",
    "category": "홈스테이"
  },
  {
    "id": "3532950",
    "title": "유류헌",
    "address": "강원특별자치도 춘천시 춘천로269번길 19-6 (후평동)",
    "phone": "010-8466-6518",
    "latitude": "37.8816538055",
    "longitude": "127.7422562076",
    "image": "",
    "category": "홈스테이"
  },
  {
    "id": "3438041",
    "title": "유선재",
    "address": "경기도 양평군 양동면 장만대길 89-11",
    "phone": "0507-1344-4366",
    "latitude": "37.4905124838",
    "longitude": "127.7092929219",
    "image": "",
    "category": "홈스테이"
  },