[
  {
    "id": "3535858",
    "title": "멕시칸치킨 연곡점",
    "address": "강원특별자치도 강릉시 연곡면 진고개로 2719",
    "phone": "",
    "latitude": "37.8594717010",
    "longitude": "128.8364938177",
    "image": "",
    "category": "이색음식점",
    "original_category": "한식"
  },
  {
    "id": "2840903",
    "title": "양가네 신화월드 본점",
    "address": "제주특별자치도 서귀포시 안덕면 동광로 112",
    "phone": "",
    "latitude": "33.3062571628",
    "longitude": "126.3389629754",
    "image": "http://tong.visitkorea.or.kr/cms/resource/00/2840900_image2_1.jpg",
    "category": "이색음식점",
    "original_category": "한식"
  },
  {
    "id": "2737366",
    "title": "퓨전굽는삼계탕",
    "address": "경기도 시흥시 동서로168번길 71-1 (월곶동)",
    "phone": "",
    "latitude": "37.3771779921",
    "longitude": "126.7652040954",
    "image": "http://tong.visitkorea.or.kr/cms/resource/08/2737108_image2_1.jpg",
    "category": "이색음식점",
    "original_category": "한식"
  },
  {
    "id": "2904915",
    "title": "퓨전한정식마실",
    "address": "전북특별자치도 고창군 월암수월길 104-8",
    "phone": "",
    "latitude": "35.4309533314",
    "longitude": "126.7229705242",
    "image": "http://tong.visitkorea.or.kr/cms/resource/00/2904900_image2_1.jpeg",
    "category": "이색음식점",
    "original_category": "한식"
  },
  {
    "id": "2868410",
    "title": "곰타코",
    "address": "경기도 고양시 일산동구 백석로108번길 6-8 (백석동)",
    "phone": "",
    "latitude": "37.6487607363",
    "longitude": "126.7889359946",
    "image": "http://tong.visitkorea.or.kr/cms/resource/08/2868408_image2_1.jpg",
    "category": "이색음식점",
    "original_category": "서양식"
  },
  {
    "id": "2903776",
    "title": "낙원타코 강남역점",
    "address": "서울특별시 서초구 서초대로73길 7 (서초동)",
    "phone": "",
    "latitude": "37.4981852488",
    "longitude": "127.0252936928",
    "image": "",
    "category": "이색음식점",
    "original_category": "서양식"
  },
  {
    "id": "2894932",
    "title": "도쎄멕시칸",
    "address": "서울특별시 성동구 왕십리로 58 (성수동1가)",
    "phone": "",
    "latitude": "37.5427498754",
    "longitude": "127.0452211721",
    "image": "http://tong.visitkorea.or.kr/cms/resource/19/2894919_image2_1.jpg",
    "category": "이색음식점",
    "original_category": "서양식"
  },
  {
    "id": "3358922",
    "title": "모나미 카레",
    "address": "경기도 수원시 팔달구 화서문로17번길 52 (장안동)",
    "phone": "",
    "latitude": "37.2867262010",
    "longitude": "127.0120536208",
    "image": "http://tong.visitkorea.or.kr/cms/resource/69/3424269_image2_1.JPG",
    "category": "이색음식점",
    "original_category": "서양식"
  },
  {
    "id": "2839397",
    "title": "바이킹스워프 롯데월드몰점",
    "address": "서울특별시 송파구 올림픽로 300 롯데월드타워앤드롯데월드몰",
    "phone": "",
    "latitude": "37.5142459111",
    "longitude": "127.1040305171",
    "image": "http://tong.visitkorea.or.kr/cms/resource/92/2839392_image2_1.jpg",
    "category": "이색음식점",
    "original_category": "서양식"
  },
  {
    "id": "2871897",
    "title": "뱅인타코 제주본점",
    "address": "제주특별자치도 서귀포시 대정읍 에듀시티로 74 (라온프라이빗에듀)",
    "phone": "",
    "latitude": "33.2886026732",
    "longitude": "126.2826099295",
    "image": "http://tong.visitkorea.or.kr/cms/resource/82/2871882_image2_1.jpg",
    "category": "이색음식점",
    "original_category": "서양식"
  },
  {
    "id": "2895024",
    "title": "타코마이너",
    "address": "서울특별시 성동구 연무장길 39-13 (성수동2가)",
    "phone": "",
    "latitude": "37.5433138540",
    "longitude": "127.0538675913",
    "image": "http://tong.visitkorea.or.kr/cms/resource/21/2895021_image2_1.JPG",
    "category": "이색음식점",
    "original_category": "서양식"
  },
  {
    "id": "2852108",
    "title": "심바카레",
    "address": "제주특별자치도 제주시 애월읍 애월로 87-16",
    "phone": "",
    "latitude": "33.4634172083",
    "longitude": "126.3168641577",
    "image": "http://tong.visitkorea.or.kr/cms/resource/04/2852104_image2_1.jpg",
    "category": "이색음식점",
    "original_category": "중식"
  },
  {
    "id": "250577",
    "title": "가남지",
    "address": "대전광역시 유성구 대덕대로 588",
    "phone": "",
    "latitude": "36.3853504089",
    "longitude": "127.3788898499",
    "image": "http://tong.visitkorea.or.kr/cms/resource/78/3032478_image2_1.JPG",
    "category": "이색음식점"
  },
  {
    "id": "2735333",
    "title": "갈릴리농원 본관",
    "address": "경기도 파주시 탄현면 방촌로 1196",
    "phone": "",
    "latitude": "37.8355604177",
    "longitude": "126.7457124396",
    "image": "http://tong.visitkorea.or.kr/cms/resource/87/2735287_image2_1.jpg",
    "category": "이색음식점"
  },
  {
    "id": "2742157",
    "title": "강원토종삼계탕",
    "address": "경기도 부천시 원미구 부일로237번길 23 (상동)",
    "phone": "",
    "latitude": "37.4895175686",
    "longitude": "126.7564350971",
    "image": "http://tong.visitkorea.or.kr/cms/resource/16/2742416_image2_1.jpg",
    "category": "이색음식점"
  },
  {
    "id": "2913269",
    "title": "개스토랑in위촌길299",
    "address": "강원특별자치도 강릉시 성산면 위촌길 299",
    "phone": "",
    "latitude": "37.7596277039",
    "longitude": "128.8364719082",
    "image": "http://tong.visitkorea.or.kr/cms/resource/77/2919277_image2_1.jpg",
    "category": "이색음식점"
  },
  {
    "id": "135288",
    "title": "고우니가든",
    "address": "제주특별자치도 제주시 조천읍 남조로 2625",
    "phone": "064-782-1418",
    "latitude": "33.4964050036",
    "longitude": "126.6524703491",
    "image": "http://tong.visitkorea.or.kr/cms/resource/69/1934469_image2_1.jpg",
    "category": "이색음식점"
  },
  {
    "id": "3354918",
    "title": "광명동굴 푸드코트",
    "address": "경기도 광명시 가학로85번길 142 (가학동)",
    "phone": "",
    "latitude": "37.4243548415",
    "longitude": "126.8648909266",
    "image": "http://tong.visitkorea.or.kr/cms/resource/04/3422304_image2_1.jpg",
    "category": "이색음식점"
  },
  {
    "id": "2543919",
    "title": "광화문 세종클럽",
    "address": "서울특별시 종로구 새문안로5가길 7 (내수동)",
    "phone": "",
    "latitude": "37.5728256579",
    "longitude": "126.9740518037",
    "image": "",
    "category": "이색음식점"
  },
  {
    "id": "2789667",
    "title": "구스아일랜드 브루하우스",
    "address": "서울특별시 강남구 역삼로 118 (역삼동)",
    "phone": "",
    "latitude": "37.4934831403",
    "longitude": "127.0321959757",
    "image": "http://tong.visitkorea.or.kr/cms/resource/57/2796157_image2_1.jpg",
    "category": "이색음식점"
  },
  {
    "id": "2769703",
    "title": "구이산",
    "address": "충청남도 공주시 임금봉길 88-27",
    "phone": "",
    "latitude": "36.3662197871",
    "longitude": "127.2514823280",
    "image": "",
    "category": "이색음식점"
  },
  {
    "id": "1104481",
    "title": "기러기농장가든",
    "address": "대구광역시 군위군 효령면 용매로 788",
    "phone": "054-382-6337",
    "latitude": "36.0847289836",
    "longitude": "128.5957788579",
    "image": "http://tong.visitkorea.or.kr/cms/resource/40/1969240_image2_1.jpg",
    "category": "이색음식점"
  },
  {
    "id": "2750708",
    "title": "김쉐프의텃밭",
    "address": "경기도 이천시 백사면 청백리로89번길 31",
    "phone": "",
    "latitude": "37.3053712301",
    "longitude": "127.4721974991",
    "image": "http://tong.visitkorea.or.kr/cms/resource/08/2932308_image2_1.jpg",
    "category": "이색음식점"
  },
  {
    "id": "595178",
    "title": "까르본",
    "address": "인천광역시 연수구 앵고개로87번길 44-19",
    "phone": "032-832-9449",
    "latitude": "37.4147355747",
    "longitude": "126.6550380890",
    "image": "http://tong.visitkorea.or.kr/cms/resource/01/1884701_image2_1.jpg",
    "category": "이색음식점"
  },
  {
    "id": "2870271",
    "title": "까폼",
    "address": "서울특별시 강남구 선릉로153길 18",
    "phone": "",
    "latitude": "37.5249351480",
    "longitude": "127.0380140003",
    "image": "http://tong.visitkorea.or.kr/cms/resource/70/2870270_image2_1.jpg",
    "category": "이색음식점"
  },
  {
    "id": "2827975",
    "title": "깎뜨쌀국수",
    "address": "서울특별시 강동구 구천면로40길 14",
    "phone": "",
    "latitude": "37.5453595105",
    "longitude": "127.1342657698",
    "image": "",
    "category": "이색음식점"
  },
  {
    "id": "2786045",
    "title": "깔리",
    "address": "서울특별시 종로구 대학로11길 43",
    "phone": "",
    "latitude": "37.5825166505",
    "longitude": "126.9992714530",
    "image": "http://tong.visitkorea.or.kr/cms/resource/29/2792529_image2_1.jpg",
    "category": "이색음식점"
  },
  {
    "id": "2932849",
    "title": "깜뚜누들",
    "address": "충청남도 논산시 옥녀봉로 47-1",
    "phone": "",
    "latitude": "36.1627333838",
    "longitude": "127.0162199330",
    "image": "",
    "category": "이색음식점"
  },
  {
    "id": "2894842",
    "title": "꾸아 성수점",
    "address": "서울특별시 성동구 왕십리로 94-2 (성수동1가)",
    "phone": "",
    "latitude": "37.5461744723",
    "longitude": "127.0449294351",
    "image": "http://tong.visitkorea.or.kr/cms/resource/17/2894817_image2_1.jpg",
    "category": "이색음식점"
  },
  {
    "id": "3356102",
    "title": "꿍냐우 행궁점",
    "address": "경기도 수원시 팔달구 화서문로16번길 27 (신풍동)",
    "phone": "",
    "latitude": "37.2842319917",
    "longitude": "127.0090095227",
    "image": "http://tong.visitkorea.or.kr/cms/resource/88/3424288_image2_1.jpg",
    "category": "이색음식점"
  },
  {
    "id": "2913331",
    "title": "나뽕남 본점",
    "address": "강원특별자치도 양양군 현남면 새나루길 9-8",
    "phone": "",
    "latitude": "37.9716183452",
    "longitude": "128.7612526877",
    "image": "http://tong.visitkorea.or.kr/cms/resource/56/2919856_image2_1.jpg",
    "category": "이색음식점"
  },
  {
    "id": "3011774",
    "title": "남이섬밥플렉스",
    "address": "강원특별자치도 춘천시 남이섬길 1 남이섬",
    "phone": "",
    "latitude": "37.7963208193",
    "longitude": "127.5255090138",
    "image": "http://tong.visitkorea.or.kr/cms/resource/55/3011755_image2_1.jpg",
    "category": "이색음식점"
  },
  {
    "id": "836008",
    "title": "뉴델리",
    "address": "서울특별시 동대문구 경희대로6길 5",
    "phone": "02-957-7955",
    "latitude": "37.5933719136",
    "longitude": "127.0531301254",
    "image": "http://tong.visitkorea.or.kr/cms/resource/58/3577458_image2_1.jpg",
    "category": "이색음식점"
  },
  {
    "id": "2859678",
    "title": "다낭",
    "address": "충청북도 청주시 흥덕구 오송읍 오송생명3로 65-22",
    "phone": "",
    "latitude": "36.6312324365",
    "longitude": "127.3283515557",
    "image": "http://tong.visitkorea.or.kr/cms/resource/64/2859664_image2_1.jpg",
    "category": "이색음식점"
  },
  {
    "id": "2925223",
    "title": "다채로움 월남쌈",
    "address": "경기도 성남시 분당구 하오개로 337",
    "phone": "",
    "latitude": "37.3918842548",
    "longitude": "127.0565577385",
    "image": "http://tong.visitkorea.or.kr/cms/resource/11/2925211_image2_1.jpg",
    "category": "이색음식점"
  },
  {
    "id": "2781452",
    "title": "단양연화",
    "address": "충청북도 단양군 단성면 상선암길 7",
    "phone": "",
    "latitude": "36.8740388323",
    "longitude": "128.2931110317",
    "image": "",
    "category": "이색음식점"
  },
  {
    "id": "2838872",
    "title": "더스타뷔페",
    "address": "부산광역시 부산진구 중앙대로666번길 50 (부전동, 더샵 센트럴스타)",
    "phone": "",
    "latitude": "35.1521316444",
    "longitude": "129.0619694214",
    "image": "http://tong.visitkorea.or.kr/cms/resource/63/2838863_image2_1.jpg",
    "category": "이색음식점"
  },
  {
    "id": "2864585",
    "title": "더커먼",
    "address": "대구광역시 중구 국채보상로 741",
    "phone": "",
    "latitude": "35.8686843233",
    "longitude": "128.6117501630",
    "image": "",
    "category": "이색음식점"
  },
  {
    "id": "2733974",
    "title": "더클래스 청담",
    "address": "서울특별시 강남구 압구정로60길 17-5",
    "phone": "",
    "latitude": "37.5261878572",
    "longitude": "127.0422913531",
    "image": "http://tong.visitkorea.or.kr/cms/resource/98/2779098_image2_1.png",
    "category": "이색음식점"
  },
  {
    "id": "3546378",
    "title": "덕클",
    "address": "울산광역시 중구 신기4길 18 (태화동)",
    "phone": "",
    "latitude": "35.5505774129",
    "longitude": "129.2963490499",
    "image": "http://tong.visitkorea.or.kr/cms/resource/77/3546377_image2_1.jpg",
    "category": "이색음식점"
  },
  {
    "id": "2807800",
    "title": "도노마르코",
    "address": "충청남도 천안시 서북구 불당2길 24-11",
    "phone": "",
    "latitude": "36.8038003501",
    "longitude": "127.1082971759",
    "image": "",
    "category": "이색음식점"
  },
  {
    "id": "2806871",
    "title": "도토리키친",
    "address": "제주특별자치도 제주시 북성로 59 (삼도이동)",
    "phone": "",
    "latitude": "33.5154174266",
    "longitude": "126.5186148802",
    "image": "http://tong.visitkorea.or.kr/cms/resource/55/3556355_image2_1.png",
    "category": "이색음식점"
  },
  {
    "id": "820593",
    "title": "두바이레스토랑",
    "address": "서울특별시 용산구 이태원로 192",
    "phone": "02-798-9277",
    "latitude": "37.5343444008",
    "longitude": "126.9953703949",
    "image": "http://tong.visitkorea.or.kr/cms/resource/05/818705_image2_1.jpg",
    "category": "이색음식점"
  },
  {
    "id": "2858292",
    "title": "또시아",
    "address": "부산광역시 영도구 절영로 6",
    "phone": "",
    "latitude": "35.0937072312",
    "longitude": "129.0403590084",
    "image": "",
    "category": "이색음식점"
  },
  {
    "id": "2782709",
    "title": "똠팔이 이천본점",
    "address": "경기도 이천시 부발읍 경충대로2092번길 14",
    "phone": "",
    "latitude": "37.2519416371",
    "longitude": "127.4908612235",
    "image": "http://tong.visitkorea.or.kr/cms/resource/35/2826735_image2_1.jpg",
    "category": "이색음식점"
  },
  {
    "id": "2782900",
    "title": "띠아낭",
    "address": "서울특별시 강서구 화곡로64길 72",
    "phone": "",
    "latitude": "37.5559616332",
    "longitude": "126.8569018500",
    "image": "http://tong.visitkorea.or.kr/cms/resource/00/2788100_image2_1.jpg",
    "category": "이색음식점"
  },
  {
    "id": "2843587",
    "title": "띤뜨",
    "address": "인천광역시 서구 청라루비로42번길 14",
    "phone": "",
    "latitude": "37.5287776459",
    "longitude": "126.6420444393",
    "image": "",
    "category": "이색음식점"
  },
  {
    "id": "2806130",
    "title": "라가",
    "address": "대구광역시 수성구 신매로16길 45 (신매동)",
    "phone": "",
    "latitude": "35.8385173222",
    "longitude": "128.7095229530",
    "image": "",
    "category": "이색음식점"
  },
  {
    "id": "2732301",
    "title": "라본테이블 본점",
    "address": "경기도 화성시 동탄반석로 172 동탄 파라곤 1차 102동 2층",
    "phone": "",
    "latitude": "37.2040729466",
    "longitude": "127.0717588484",
    "image": "http://tong.visitkorea.or.kr/cms/resource/42/2783042_image2_1.jpg",
    "category": "이색음식점"
  },
  {
    "id": "2844199",
    "title": "라온하제",
    "address": "경상남도 창원시 성산구 삼귀로 361",
    "phone": "",
    "latitude": "35.1627943608",
    "longitude": "128.6077281683",
    "image": "http://tong.visitkorea.or.kr/cms/resource/98/2844198_image2_1.JPG",
    "category": "이색음식점"
  },
  {
    "id": "2781418",
    "title": "라운지붐",
    "address": "전라남도 영암군 삼호읍 녹색로 609",
    "phone": "",
    "latitude": "34.7787614397",
    "longitude": "126.4545214826",
    "image": "",
    "category": "이색음식점"
  },
  {
    "id": "1405489",
    "title": "라지마할",
    "address": "제주특별자치도 제주시 신광로 43",
    "phone": "064-749-4924",
    "latitude": "33.4882477612",
    "longitude": "126.4902735165",
    "image": "",
    "category": "이색음식점"
  },
  {
    "id": "2756772",
    "title": "리옹 동탄본점",
    "address": "경기도 화성시 동탄치동천로3길 6-27 (영천동)",
    "phone": "",
    "latitude": "37.2033711469",
    "longitude": "127.1219015459",
    "image": "http://tong.visitkorea.or.kr/cms/resource/15/2756915_image2_1.jpg",
    "category": "이색음식점"
  },
  {
    "id": "2913097",
    "title": "리코타코",
    "address": "대전광역시 유성구 대학로155번길 29 (궁동)",
    "phone": "",
    "latitude": "36.3621858901",
    "longitude": "127.3505041294",
    "image": "http://tong.visitkorea.or.kr/cms/resource/85/2913085_image2_1.jpg",
    "category": "이색음식점"
  },
  {
    "id": "2783430",
    "title": "마루나키친",
    "address": "제주특별자치도 제주시 한경면 금등4길 11",
    "phone": "",
    "latitude": "33.3619682017",
    "longitude": "126.1958075111",
    "image": "http://tong.visitkorea.or.kr/cms/resource/25/2784625_image2_1.jpg",
    "category": "이색음식점"
  },
  {
    "id": "2913298",
    "title": "마마타타",
    "address": "강원특별자치도 강릉시 경포로 33-25 2층",
    "phone": "",
    "latitude": "37.7737907780",
    "longitude": "128.8787898796",
    "image": "http://tong.visitkorea.or.kr/cms/resource/86/2919586_image2_1.jpg",
    "category": "이색음식점"
  },
  {
    "id": "2833148",
    "title": "마벨리에",
    "address": "경기도 안양시 동안구 관평로 175 (관양동)",
    "phone": "",
    "latitude": "37.3925324561",
    "longitude": "126.9602414763",
    "image": "http://tong.visitkorea.or.kr/cms/resource/41/2833141_image2_1.jpg",
    "category": "이색음식점"
  },
  {
    "id": "2025260",
    "title": "마지",
    "address": "서울특별시 종로구 자하문로5길 19",
    "phone": "02-536-5228",
    "latitude": "37.5776167085",
    "longitude": "126.9707714116",
    "image": "",
    "category": "이색음식점"
  },
  {
    "id": "2900310",
    "title": "마하차이 성수본점",
    "address": "서울특별시 성동구 뚝섬로 399 (성수동2가)",
    "phone": "",
    "latitude": "37.5390004886",
    "longitude": "127.0550981573",
    "image": "http://tong.visitkorea.or.kr/cms/resource/95/2900295_image2_1.jpg",
    "category": "이색음식점"
  },
  {
    "id": "2871956",
    "title": "만복반미 노형 본점",
    "address": "제주특별자치도 제주시 수덕9길 82-4 (노형동)",
    "phone": "",
    "latitude": "33.4834035344",
    "longitude": "126.4702031482",
    "image": "http://tong.visitkorea.or.kr/cms/resource/49/2871949_image2_1.jpg",
    "category": "이색음식점"
  },
  {
    "id": "2891900",
    "title": "매자식당",
    "address": "강원특별자치도 속초시 번영로105번길 17",
    "phone": "",
    "latitude": "38.2102788741",
    "longitude": "128.5865388634",
    "image": "http://tong.visitkorea.or.kr/cms/resource/75/2891875_image2_1.jpg",
    "category": "이색음식점"
  },
  {
    "id": "2854418",
    "title": "머노까머나 송도점",
    "address": "인천광역시 연수구 해돋이로 107 송도 더샵 퍼스트월드",
    "phone": "",
    "latitude": "37.3914992991",
    "longitude": "126.6502280598",
    "image": "http://tong.visitkorea.or.kr/cms/resource/16/2854416_image2_1.jpg",
    "category": "이색음식점"
  },
  {
    "id": "2846754",
    "title": "메콩사롱",
    "address": "인천광역시 중구 참외전로158번길 14 (경동)",
    "phone": "",
    "latitude": "37.4723646043",
    "longitude": "126.6331912608",
    "image": "http://tong.visitkorea.or.kr/cms/resource/32/2846732_image2_1.jpg",
    "category": "이색음식점"
  },
  {
    "id": "2870937",
    "title": "메콩스카이",
    "address": "제주특별자치도 제주시 연오로 35 (오라삼동)",
    "phone": "",
    "latitude": "33.4901477379",
    "longitude": "126.5020363394",
    "image": "http://tong.visitkorea.or.kr/cms/resource/18/2870918_image2_1.jpg",
    "category": "이색음식점"
  },
  {
    "id": "2755477",
    "title": "모스가든",
    "address": "서울특별시 강남구 논현로139길 12",
    "phone": "",
    "latitude": "37.5167137081",
    "longitude": "127.0283873324",
    "image": "",
    "category": "이색음식점"
  },
  {
    "id": "2670980",
    "title": "몽뜨레셰프",
    "address": "경상북도 안동시 관광단지로 346-124",
    "phone": "054-813-5454",
    "latitude": "36.5679718406",
    "longitude": "128.7779072563",
    "image": "http://tong.visitkorea.or.kr/cms/resource/77/2671077_image2_1.jpg",
    "category": "이색음식점"
  },
  {
    "id": "2809043",
    "title": "무화과식당",
    "address": "경기도 부천시 원미구 신흥로238번길 26 (중동)",
    "phone": "",
    "latitude": "37.5046384002",
    "longitude": "126.7770883467",
    "image": "http://tong.visitkorea.or.kr/cms/resource/67/3578767_image2_1.jpg",
    "category": "이색음식점"
  },
  {
    "id": "2836946",
    "title": "문호리쌀국수",
    "address": "경기도 양평군 서종면 북한강로 806",
    "phone": "",
    "latitude": "37.6089699254",
    "longitude": "127.3498887751",
    "image": "http://tong.visitkorea.or.kr/cms/resource/32/2836932_image2_1.jpg",
    "category": "이색음식점"
  },
  {
    "id": "2742176",
    "title": "미가훠궈양고기",
    "address": "경기도 용인시 수지구 풍덕천로140번길 15 (풍덕천동)",
    "phone": "",
    "latitude": "37.3227735674",
    "longitude": "127.0982225663",
    "image": "http://tong.visitkorea.or.kr/cms/resource/59/2750759_image2_1.jpg",
    "category": "이색음식점"
  },
  {
    "id": "2875618",
    "title": "미니타이",
    "address": "경기도 고양시 일산동구 산두로145번길 1 (정발산동)",
    "phone": "",
    "latitude": "37.6705109088",
    "longitude": "126.7848274231",
    "image": "http://tong.visitkorea.or.kr/cms/resource/08/2875608_image2_1.jpg",
    "category": "이색음식점"
  },
  {
    "id": "2806716",
    "title": "미미옥",
    "address": "서울특별시 용산구 한강로3가 한강대로15길 (27)",
    "phone": "",
    "latitude": "37.5263308628",
    "longitude": "126.9630207911",
    "image": "",
    "category": "이색음식점"
  },
  {
    "id": "2759845",
    "title": "미소다",
    "address": "경기도 고양시 일산동구 무궁화로93번길 6-2",
    "phone": "",
    "latitude": "37.6665833860",
    "longitude": "126.7734563504",
    "image": "http://tong.visitkorea.or.kr/cms/resource/39/2760139_image2_1.jpg",
    "category": "이색음식점"
  },
  {
    "id": "1404293",
    "title": "바그다드",
    "address": "제주특별자치도 제주시 관덕로8길 34",
    "phone": "064-757-8182",
    "latitude": "33.5103069552",
    "longitude": "126.5232423720",
    "image": "",
    "category": "이색음식점"
  },
  {
    "id": "2913020",
    "title": "바네스타코 송도트리플스트리트점",
    "address": "인천광역시 연수구 송도과학로16번길 33-2 송도 트리플스트리트",
    "phone": "",
    "latitude": "37.3804979755",
    "longitude": "126.6602441186",
    "image": "http://tong.visitkorea.or.kr/cms/resource/01/2913001_image2_1.JPG",
    "category": "이색음식점"
  },
  {
    "id": "2918770",
    "title": "바른쌀국수",
    "address": "서울특별시 구로구 디지털로33길 48 (구로동)",
    "phone": "",
    "latitude": "37.4873119484",
    "longitude": "126.8945197967",
    "image": "",
    "category": "이색음식점"
  },
  {
    "id": "232215",
    "title": "바바인디아 강남역점",
    "address": "서울특별시 서초구 강남대로 359",
    "phone": "02-521-4588",
    "latitude": "37.4948051443",
    "longitude": "127.0285907113",
    "image": "http://tong.visitkorea.or.kr/cms/resource/15/1807915_image2_1.jpg",
    "category": "이색음식점"
  },
  {
    "id": "2831100",
    "title": "반110(BARN110)",
    "address": "경기도 고양시 일산동구 율천로7번길 7-7 (정발산동)",
    "phone": "",
    "latitude": "37.6666918832",
    "longitude": "126.7833693308",
    "image": "http://tong.visitkorea.or.kr/cms/resource/85/2831085_image2_1.JPG",
    "category": "이색음식점"
  },
  {
    "id": "2830163",
    "title": "반마이",
    "address": "경기도 파주시 교하로 555 (동패동)",
    "phone": "",
    "latitude": "37.7061638930",
    "longitude": "126.7176714464",
    "image": "http://tong.visitkorea.or.kr/cms/resource/51/2830151_image2_1.jpg",
    "category": "이색음식점"
  },
  {
    "id": "2863775",
    "title": "반양",
    "address": "제주특별자치도 서귀포시 대정읍 중산간서로 2985",
    "phone": "",
    "latitude": "33.2812303818",
    "longitude": "126.2261788847",
    "image": "http://tong.visitkorea.or.kr/cms/resource/67/2863767_image2_1.jpg",
    "category": "이색음식점"
  },
  {
    "id": "2859622",
    "title": "반치앙마이",
    "address": "경기도 하남시 미사강변중앙로 157 (망월동)",
    "phone": "",
    "latitude": "37.5606698647",
    "longitude": "127.1907657475",
    "image": "http://tong.visitkorea.or.kr/cms/resource/03/2859603_image2_1.jpg",
    "category": "이색음식점"
  },
  {
    "id": "2865929",
    "title": "베스타",
    "address": "대전광역시 서구 만년로 70 (만년동)",
    "phone": "",
    "latitude": "36.3669830969",
    "longitude": "127.3805651984",
    "image": "http://tong.visitkorea.or.kr/cms/resource/22/2865922_image2_1.jpg",
    "category": "이색음식점"
  },
  {
    "id": "2789499",
    "title": "베이스캠프",
    "address": "서울특별시 마포구 잔다리로3안길 21 (서교동)",
    "phone": "",
    "latitude": "37.5508383519",
    "longitude": "126.9197768169",
    "image": "http://tong.visitkorea.or.kr/cms/resource/21/2795321_image2_1.jpg",
    "category": "이색음식점"
  },
  {
    "id": "2796050",
    "title": "베트남 쌀국수",
    "address": "강원특별자치도 평창군 평창읍 백오1길 21",
    "phone": "",
    "latitude": "37.3671228906",
    "longitude": "128.3940347462",
    "image": "http://tong.visitkorea.or.kr/cms/resource/65/2795565_image2_1.jpg",
    "category": "이색음식점"
  },
  {
    "id": "2852796",
    "title": "베트남식당&마트",
    "address": "전라남도 담양군 담양읍 중앙로 92-1",
    "phone": "",
    "latitude": "35.3214284661",
    "longitude": "126.9823308458",
    "image": "http://tong.visitkorea.or.kr/cms/resource/80/2852780_image2_1.JPG",
    "category": "이색음식점"
  },
  {
    "id": "3445867",
    "title": "벳남반미",
    "address": "경기도 화성시 향남읍 상신하길로298번길 7-13",
    "phone": "507-1312-4633",
    "latitude": "37.1154831218",
    "longitude": "126.9115452731",
    "image": "http://tong.visitkorea.or.kr/cms/resource/03/3445803_image2_1.jpg",
    "category": "이색음식점"
  },
  {
    "id": "402929",
    "title": "부다스벨리 이태원",
    "address": "서울특별시 용산구 녹사평대로40길 48",
    "phone": "02-796-9330",
    "latitude": "37.5343748281",
    "longitude": "126.9884099171",
    "image": "",
    "category": "이색음식점"
  },
  {
    "id": "2804495",
    "title": "부들파이터",
    "address": "부산광역시 부산진구 서전로46번길 86",
    "phone": "",
    "latitude": "35.1539398273",
    "longitude": "129.0647663510",
    "image": "",
    "category": "이색음식점"
  },
  {
    "id": "2840639",
    "title": "분보남보",
    "address": "경상북도 경산시 장산로24길 21 (삼남동)",
    "phone": "",
    "latitude": "35.8162731414",
    "longitude": "128.7379377410",
    "image": "http://tong.visitkorea.or.kr/cms/resource/28/2840628_image2_1.jpg",
    "category": "이색음식점"
  },
  {
    "id": "2831470",
    "title": "분분",
    "address": "경기도 안양시 동안구 동편로27번길 17 (관양동)",
    "phone": "",
    "latitude": "37.4070059781",
    "longitude": "126.9714956018",
    "image": "http://tong.visitkorea.or.kr/cms/resource/63/2831463_image2_1.jpg",
    "category": "이색음식점"
  },
  {
    "id": "2850267",
    "title": "불당호치민",
    "address": "충청남도 천안시 서북구 불당16길 27-2",
    "phone": "",
    "latitude": "36.8015061641",
    "longitude": "127.1079528260",
    "image": "http://tong.visitkorea.or.kr/cms/resource/57/2850257_image2_1.jpg",
    "category": "이색음식점"
  },
  {
    "id": "2773344",
    "title": "브루어리엠",
    "address": "강원특별자치도 평창군 대관령면 올림픽로 715",
    "phone": "",
    "latitude": "37.6509988422",
    "longitude": "128.7055814809",
    "image": "http://tong.visitkorea.or.kr/cms/resource/22/2773322_image2_1.jpg",
    "category": "이색음식점"
  },
  {
    "id": "2842742",
    "title": "블랙밤부",
    "address": "경기도 양평군 서종면 꽃대울2길 39-2",
    "phone": "",
    "latitude": "37.6242377618",
    "longitude": "127.3589458441",
    "image": "http://tong.visitkorea.or.kr/cms/resource/26/2842726_image2_1.jpeg",
    "category": "이색음식점"
  },
  {
    "id": "2873764",
    "title": "블루미파티하우스",
    "address": "경기도 부천시 신흥로 170-1 위브더스테이트",
    "phone": "",
    "latitude": "37.4990224096",
    "longitude": "126.7784050509",
    "image": "http://tong.visitkorea.or.kr/cms/resource/43/2873743_image2_1.jpg",
    "category": "이색음식점"
  },
  {
    "id": "2852038",
    "title": "블루사이공",
    "address": "제주특별자치도 제주시 애월읍 중산간서로 6333",
    "phone": "",
    "latitude": "33.4570443540",
    "longitude": "126.4080008181",
    "image": "http://tong.visitkorea.or.kr/cms/resource/29/2852029_image2_1.jpg",
    "category": "이색음식점"
  },
  {
    "id": "2495467",
    "title": "비타포",
    "address": "서울특별시 성북구 동소문로 7-3 (동소문동1가)",
    "phone": "0507-1442-8924",
    "latitude": "37.5891993421",
    "longitude": "127.0067650247",
    "image": "",
    "category": "이색음식점"
  },
  {
    "id": "2852908",
    "title": "빈103",
    "address": "경기도 구리시 벌말로80번길 38",
    "phone": "",
    "latitude": "37.5829942735",
    "longitude": "127.1478523493",
    "image": "http://tong.visitkorea.or.kr/cms/resource/93/2852893_image2_1.jpg",
    "category": "이색음식점"
  },
  {
    "id": "232205",
    "title": "뿌자",
    "address": "서울특별시 종로구 종로 327",
    "phone": "02-744-2199",
    "latitude": "37.5727402733",
    "longitude": "127.0139676127",
    "image": "http://tong.visitkorea.or.kr/cms/resource/11/1360011_image2_1.jpg",
    "category": "이색음식점"
  },
  {
    "id": "2807250",
    "title": "사생활",
    "address": "충청남도 천안시 서북구 불당32길 9 (불당동)",
    "phone": "",
    "latitude": "36.8085330717",
    "longitude": "127.1045168317",
    "image": "",
    "category": "이색음식점"
  },
  {
    "id": "2846168",
    "title": "사파키친",
    "address": "대구광역시 동구 동부로34길 10 (신천동)",
    "phone": "",
    "latitude": "35.8767337661",
    "longitude": "128.6309038079",
    "image": "http://tong.visitkorea.or.kr/cms/resource/63/2846163_image2_1.jpg",
    "category": "이색음식점"
  },
  {
    "id": "2009928",
    "title": "산도토리임자탕",
    "address": "서울특별시 도봉구 덕릉로60길 13",
    "phone": "02-903-9928",
    "latitude": "37.6396246351",
    "longitude": "127.0401188840",
    "image": "",
    "category": "이색음식점"
  },
  {
    "id": "250564",
    "title": "산띠",
    "address": "서울특별시 마포구 와우산로27길 70",
    "phone": "02-6052-3989",
    "latitude": "37.5555323440",
    "longitude": "126.9249762108",
    "image": "http://tong.visitkorea.or.kr/cms/resource/81/3567681_image2_1.jpg",
    "category": "이색음식점"
  },
  {
    "id": "2736434",
    "title": "산속비버스",
    "address": "경기도 동두천시 쇠목길 378 (광암동)",
    "phone": "",
    "latitude": "37.9096695031",
    "longitude": "127.1129017008",
    "image": "http://tong.visitkorea.or.kr/cms/resource/18/2736518_image2_1.jpg",
    "category": "이색음식점"
  },
  {
    "id": "402970",
    "title": "산촌",
    "address": "서울특별시 종로구 인사동길 30-13",
    "phone": "02-735-0312",
    "latitude": "37.5738535360",
    "longitude": "126.9863034359",
    "image": "",
    "category": "이색음식점"
  },
  {
    "id": "2708692",
    "title": "색달해녀의집",
    "address": "제주특별자치도 서귀포시 중문관광로 154-17",
    "phone": "",
    "latitude": "33.2450679043",
    "longitude": "126.4156104662",
    "image": "",
    "category": "이색음식점"
  },
  {
    "id": "2867731",
    "title": "샤블리",
    "address": "서울특별시 강남구 강남대로152길 35",
    "phone": "",
    "latitude": "37.5181412090",
    "longitude": "127.0222128537",
    "image": "http://tong.visitkorea.or.kr/cms/resource/17/2867717_image2_1.jpg",
    "category": "이색음식점"
  },
  {
    "id": "2913221",
    "title": "세계주류마켓",
    "address": "강원특별자치도 춘천시 동내면 순환대로 632",
    "phone": "",
    "latitude": "37.8399423597",
    "longitude": "127.7620834199",
    "image": "http://tong.visitkorea.or.kr/cms/resource/24/2918924_image2_1.jpg",
    "category": "이색음식점"
  },
  {
    "id": "2796739",
    "title": "세이지",
    "address": "강원특별자치도 평창군 봉평면 태기로 80-56",
    "phone": "",
    "latitude": "37.5869988399",
    "longitude": "128.3187849630",
    "image": "http://tong.visitkorea.or.kr/cms/resource/18/2796718_image2_1.JPG",
    "category": "이색음식점"
  },
  {
    "id": "402996",
    "title": "소선재",
    "address": "서울특별시 종로구 삼청로 113-1 (삼청동)",
    "phone": "02-730-7002",
    "latitude": "37.5855937574",
    "longitude": "126.9818062910",
    "image": "",
    "category": "이색음식점"
  },
  {
    "id": "2853799",
    "title": "소이연남",
    "address": "서울특별시 마포구 동교로 267 (연남동)",
    "phone": "",
    "latitude": "37.5635841930",
    "longitude": "126.9253926121",
    "image": "http://tong.visitkorea.or.kr/cms/resource/94/2853794_image2_1.jpg",
    "category": "이색음식점"
  },
  {
    "id": "2833345",
    "title": "솔티 인도네팔레스토랑",
    "address": "경기도 안산시 단원구 중앙대로 453",
    "phone": "",
    "latitude": "37.3284063063",
    "longitude": "126.7897143306",
    "image": "",
    "category": "이색음식점"
  },
  {
    "id": "2856391",
    "title": "수퍼판",
    "address": "서울특별시 강남구 논현로167길 15 (신사동)",
    "phone": "",
    "latitude": "37.5245016648",
    "longitude": "127.0268622503",
    "image": "http://tong.visitkorea.or.kr/cms/resource/84/2856384_image2_1.jpg",
    "category": "이색음식점"
  },
  {
    "id": "2864269",
    "title": "숲 제주",
    "address": "제주특별자치도 제주시 무근성3길 9 (삼도이동)",
    "phone": "",
    "latitude": "33.5137787240",
    "longitude": "126.5189482217",
    "image": "http://tong.visitkorea.or.kr/cms/resource/66/2864266_image2_1.JPG",
    "category": "이색음식점"
  },
  {
    "id": "2899343",
    "title": "시옹마오",
    "address": "서울특별시 성동구 연무장7길 7-1 (성수동2가)",
    "phone": "",
    "latitude": "37.5435249514",
    "longitude": "127.0544675306",
    "image": "http://tong.visitkorea.or.kr/cms/resource/33/2899333_image2_1.jpg",
    "category": "이색음식점"
  },
  {
    "id": "2862209",
    "title": "심슨더스파이스",
    "address": "경기도 파주시 운정벌판길 24-22 (상지석동)",
    "phone": "",
    "latitude": "37.7272234925",
    "longitude": "126.7705465711",
    "image": "http://tong.visitkorea.or.kr/cms/resource/96/2862196_image2_1.JPG",
    "category": "이색음식점"
  },
  {
    "id": "2863658",
    "title": "싸이공레시피",
    "address": "제주특별자치도 제주시 애월읍 하귀로25길 2",
    "phone": "",
    "latitude": "33.4797111671",
    "longitude": "126.4002870893",
    "image": "http://tong.visitkorea.or.kr/cms/resource/40/2863640_image2_1.jpg",
    "category": "이색음식점"
  },
  {
    "id": "2841097",
    "title": "쏭타이 본점",
    "address": "서울특별시 용산구 이태원로20가길 7-2",
    "phone": "",
    "latitude": "37.5337777517",
    "longitude": "126.9926956553",
    "image": "",
    "category": "이색음식점"
  },
  {
    "id": "1021125",
    "title": "씨네 드 쉐프(CINE de CHEF)",
    "address": "서울특별시 강남구 압구정로30길 45 (신사동)",
    "phone": "02-3446-0541~2",
    "latitude": "37.5243739484",
    "longitude": "127.0294397966",
    "image": "http://tong.visitkorea.or.kr/cms/resource/82/2926682_image2_1.JPG",
    "category": "이색음식점"
  },
  {
    "id": "820738",
    "title": "아라베스크",
    "address": "인천광역시 중구 우현로 80 (인현동)",
    "phone": "032-764-0064",
    "latitude": "37.4740032546",
    "longitude": "126.6304525767",
    "image": "",
    "category": "이색음식점"
  },
  {
    "id": "2023561",
    "title": "아승지",
    "address": "서울특별시 영등포구 신길로 176 (신길동)",
    "phone": "02-836-8442",
    "latitude": "37.5078987438",
    "longitude": "126.9112204743",
    "image": "",
    "category": "이색음식점"
  },
  {
    "id": "816289",
    "title": "아시아아시아",
    "address": "경기도 고양시 일산동구 정발산로 24",
    "phone": "031-901-0086",
    "latitude": "37.6558818280",
    "longitude": "126.7720095624",
    "image": "http://tong.visitkorea.or.kr/cms/resource/86/816986_image2_1.jpg",
    "category": "이색음식점"
  },
  {
    "id": "2558135",
    "title": "아시안 패밀리 레스토랑 동문",
    "address": "강원특별자치도 춘천시 남산면 남이섬길 1",
    "phone": "031-580-8099",
    "latitude": "37.7901159965",
    "longitude": "127.5261035858",
    "image": "http://tong.visitkorea.or.kr/cms/resource/38/3355438_image2_1.jpg",
    "category": "이색음식점"
  },
  {
    "id": "2819304",
    "title": "아시안쿠진 경복궁점",
    "address": "서울특별시 종로구 자하문로1길 7-1",
    "phone": "",
    "latitude": "37.5765168579",
    "longitude": "126.9719546683",
    "image": "",
    "category": "이색음식점"
  },
  {
    "id": "3369976",
    "title": "아오바바",
    "address": "충청북도 제천시 덕산면 약초로3안길 9",
    "phone": "010-2007-4398",
    "latitude": "36.9084964277",
    "longitude": "128.1674685051",
    "image": "http://tong.visitkorea.or.kr/cms/resource/96/3371396_image2_1.jpg",
    "category": "이색음식점"
  },
  {
    "id": "2849217",
    "title": "아일래나라운지",
    "address": "강원특별자치도 춘천시 남이섬길 1 남이섬",
    "phone": "",
    "latitude": "37.7963208193",
    "longitude": "127.5255090138",
    "image": "",
    "category": "이색음식점"
  },
  {
    "id": "2913288",
    "title": "아임파인쉬림프",
    "address": "강원특별자치도 속초시 중앙로129번길 34",
    "phone": "",
    "latitude": "38.2042185292",
    "longitude": "128.5896498809",
    "image": "http://tong.visitkorea.or.kr/cms/resource/86/2919486_image2_1.jpg",
    "category": "이색음식점"
  },
  {
    "id": "2907196",
    "title": "아트랑 샤브&구이월남쌈",
    "address": "인천광역시 남동구 구월남로 151 (구월동)",
    "phone": "",
    "latitude": "37.4534264294",
    "longitude": "126.7062906757",
    "image": "http://tong.visitkorea.or.kr/cms/resource/11/2906911_image2_1.JPG",
    "category": "이색음식점"
  },
  {
    "id": "2870631",
    "title": "안남",
    "address": "서울특별시 강남구 언주로 118 우성캐릭터199",
    "phone": "",
    "latitude": "37.4865509530",
    "longitude": "127.0511916655",
    "image": "http://tong.visitkorea.or.kr/cms/resource/26/2870626_image2_1.jpg",
    "category": "이색음식점"
  },
  {
    "id": "2874994",
    "title": "안안",
    "address": "경기도 성남시 분당구 운중로138번길 28-4 (운중동)",
    "phone": "",
    "latitude": "37.3907986283",
    "longitude": "127.0765559525",
    "image": "http://tong.visitkorea.or.kr/cms/resource/88/2874988_image2_1.jpg",
    "category": "이색음식점"
  },
  {
    "id": "2868893",
    "title": "알로이삥삥",
    "address": "부산광역시 수영구 민락수변로 127",
    "phone": "",
    "latitude": "35.1554048353",
    "longitude": "129.1341769402",
    "image": "http://tong.visitkorea.or.kr/cms/resource/74/2868874_image2_1.jpg",
    "category": "이색음식점"
  },
  {
    "id": "2809941",
    "title": "알페도",
    "address": "서울특별시 용산구 이태원로 174 (이태원동)",
    "phone": "",
    "latitude": "37.5343332526",
    "longitude": "126.9932483664",
    "image": "http://tong.visitkorea.or.kr/cms/resource/82/2809082_image2_1.jpg",
    "category": "이색음식점"
  },
  {
    "id": "2830287",
    "title": "앤조이터키",
    "address": "경기도 파주시 탄현면 헤이리마을길 37-33",
    "phone": "",
    "latitude": "37.7876012685",
    "longitude": "126.6978098532",
    "image": "http://tong.visitkorea.or.kr/cms/resource/73/2830273_image2_1.jpg",
    "category": "이색음식점"
  },
  {
    "id": "2778458",
    "title": "양원",
    "address": "인천광역시 서구 보석로12번안길 28 (청라동)",
    "phone": "",
    "latitude": "37.5208227523",
    "longitude": "126.6271404661",
    "image": "",
    "category": "이색음식점"
  },
  {
    "id": "2832670",
    "title": "어반브룩",
    "address": "광주광역시 남구 임암길 181",
    "phone": "",
    "latitude": "35.1019874165",
    "longitude": "126.8667576977",
    "image": "http://tong.visitkorea.or.kr/cms/resource/63/2832663_image2_1.jpg",
    "category": "이색음식점"
  },
  {
    "id": "2777936",
    "title": "어밤부",
    "address": "부산광역시 해운대구 송정광어골로 87 (송정동)",
    "phone": "",
    "latitude": "35.1737594951",
    "longitude": "129.1967043326",
    "image": "http://tong.visitkorea.or.kr/cms/resource/34/2794834_image2_1.jpg",
    "category": "이색음식점"
  },
  {
    "id": "2899977",
    "title": "엉클인더키친 센트럴파크 본점",
    "address": "인천광역시 연수구 센트럴로 232 (송도동, 더샵센트럴파크1)",
    "phone": "",
    "latitude": "37.3963957249",
    "longitude": "126.6373096572",
    "image": "http://tong.visitkorea.or.kr/cms/resource/68/2899968_image2_1.jpg",
    "category": "이색음식점"
  },
  {
    "id": "232206",
    "title": "에베레스트 레스토랑 동대문본점",
    "address": "서울특별시 종로구 종로51가길 2-1",
    "phone": "02-766-8850",
    "latitude": "37.5725652673",
    "longitude": "127.0125010850",
    "image": "",
    "category": "이색음식점"
  },
  {
    "id": "2987927",
    "title": "에베레스트커리월드",
    "address": "서울특별시 종로구 종로 305",
    "phone": "",
    "latitude": "37.5721708521",
    "longitude": "127.0115817361",
    "image": "http://tong.visitkorea.or.kr/cms/resource/17/2987917_image2_1.JPG",
    "category": "이색음식점"
  },
  {
    "id": "1839165",
    "title": "연꽃이야기",
    "address": "충청남도 부여군 부여읍 성왕로 22",
    "phone": "041-833-3336",
    "latitude": "36.2687637933",
    "longitude": "126.9065463936",
    "image": "",
    "category": "이색음식점"
  },
  {
    "id": "2866094",
    "title": "오드리",
    "address": "경기도 남양주시 순화궁로 492-15 (별내동)",
    "phone": "",
    "latitude": "37.6700780697",
    "longitude": "127.1188108386",
    "image": "http://tong.visitkorea.or.kr/cms/resource/83/2866083_image2_1.JPG",
    "category": "이색음식점"
  },
  {
    "id": "2904375",
    "title": "오랑우탄면사무소",
    "address": "제주특별자치도 서귀포시 산방로 367-1",
    "phone": "",
    "latitude": "33.2311675843",
    "longitude": "126.2975710170",
    "image": "http://tong.visitkorea.or.kr/cms/resource/72/2904372_image2_1.jpg",
    "category": "이색음식점"
  },
  {
    "id": "2763515",
    "title": "와이키키마켓",
    "address": "서울특별시 마포구 마포나루길 332",
    "phone": "",
    "latitude": "37.5589618514",
    "longitude": "126.8886655357",
    "image": "",
    "category": "이색음식점"
  },
  {
    "id": "2778878",
    "title": "완벽한인생 브루어리",
    "address": "경상남도 남해군 삼동면 독일로 30",
    "phone": "",
    "latitude": "34.7974641190",
    "longitude": "128.0435120582",
    "image": "",
    "category": "이색음식점"
  },
  {
    "id": "3038513",
    "title": "완앤송",
    "address": "강원특별자치도 속초시 중앙로 377 (장사동)",
    "phone": "",
    "latitude": "38.2218387017",
    "longitude": "128.5897298787",
    "image": "http://tong.visitkorea.or.kr/cms/resource/02/3038502_image2_1.jpg",
    "category": "이색음식점"
  },
  {
    "id": "2724410",
    "title": "우연하게도",
    "address": "전북특별자치도 김제시 금산면 우림로 188-13",
    "phone": "",
    "latitude": "35.7348048874",
    "longitude": "127.0452785506",
    "image": "",
    "category": "이색음식점"
  },
  {
    "id": "2867662",
    "title": "원조18번완당",
    "address": "부산광역시 서구 구덕로238번길 6 (부용동1가)",
    "phone": "",
    "latitude": "35.1058055113",
    "longitude": "129.0204854066",
    "image": "http://tong.visitkorea.or.kr/cms/resource/35/2867635_image2_1.JPG",
    "category": "이색음식점"
  },
  {
    "id": "2841018",
    "title": "월남면반",
    "address": "부산광역시 강서구 명지국제6로302번길 19-3 (명지동)",
    "phone": "",
    "latitude": "35.1025013632",
    "longitude": "128.9257409618",
    "image": "http://tong.visitkorea.or.kr/cms/resource/07/2841007_image2_1.jpg",
    "category": "이색음식점"
  },
  {
    "id": "2807637",
    "title": "윤공",
    "address": "서울특별시 동작구 동작대로7길 49",
    "phone": "",
    "latitude": "37.4786978034",
    "longitude": "126.9796039575",
    "image": "",
    "category": "이색음식점"
  },
  {
    "id": "2624930",
    "title": "이스트 바이 게이트",
    "address": "인천광역시 연수구 송도국제대로 123",
    "phone": "",
    "latitude": "37.3816811302",
    "longitude": "126.6579304073",
    "image": "http://tong.visitkorea.or.kr/cms/resource/63/2926863_image2_1.jpg",
    "category": "이색음식점"
  },
  {
    "id": "2868267",
    "title": "이중생업",
    "address": "울산광역시 남구 삼산로266번길 5-1",
    "phone": "",
    "latitude": "35.5385795150",
    "longitude": "129.3363931164",
    "image": "http://tong.visitkorea.or.kr/cms/resource/65/2868265_image2_1.jpg",
    "category": "이색음식점"
  },
  {
    "id": "2717584",
    "title": "인더레인",
    "address": "대전광역시 중구 대종로 485-1",
    "phone": "",
    "latitude": "36.3276467374",
    "longitude": "127.4260510881",
    "image": "",
    "category": "이색음식점"
  },
  {
    "id": "2865976",
    "title": "인디(INDY)",
    "address": "대전광역시 서구 대덕대로 246 (둔산동)",
    "phone": "",
    "latitude": "36.3547817046",
    "longitude": "127.3800016913",
    "image": "http://tong.visitkorea.or.kr/cms/resource/73/2865973_image2_1.jpg",
    "category": "이색음식점"
  },
  {
    "id": "2687961",
    "title": "인생쌀국수",
    "address": "강원특별자치도 원주시 양지로 16 (반곡동)",
    "phone": "033-733-0048",
    "latitude": "37.3245867022",
    "longitude": "127.9805260213",
    "image": "http://tong.visitkorea.or.kr/cms/resource/65/2701365_image2_1.jpg",
    "category": "이색음식점"
  },
  {
    "id": "2913156",
    "title": "잇마이타이",
    "address": "대전광역시 유성구 문화원로 77 (봉명동, 그랑펠리체)",
    "phone": "",
    "latitude": "36.3594777606",
    "longitude": "127.3445519572",
    "image": "http://tong.visitkorea.or.kr/cms/resource/46/2913146_image2_1.jpg",
    "category": "이색음식점"
  },
  {
    "id": "2817062",
    "title": "잘루스",
    "address": "서울특별시 중구 을지로44길 12 뉴금호타워",
    "phone": "",
    "latitude": "37.5656576269",
    "longitude": "127.0063573965",
    "image": "",
    "category": "이색음식점"
  },
  {
    "id": "2747308",
    "title": "장군수산",
    "address": "경기도 광주시 창뜰아랫길 31 (능평동)",
    "phone": "",
    "latitude": "37.3479941077",
    "longitude": "127.1672378144",
    "image": "http://tong.visitkorea.or.kr/cms/resource/76/2750676_image2_1.png",
    "category": "이색음식점"
  },
  {
    "id": "2903923",
    "title": "재이식당",
    "address": "경기도 고양시 일산동구 일산로380번길 53 (정발산동)",
    "phone": "",
    "latitude": "37.6707914111",
    "longitude": "126.7836719653",
    "image": "http://tong.visitkorea.or.kr/cms/resource/19/2903919_image2_1.jpg",
    "category": "이색음식점"
  },
  {
    "id": "2923260",
    "title": "저문강에삽을씻고",
    "address": "강원특별자치도 횡성군 화성로 104 저문강에삽을씻고",
    "phone": "",
    "latitude": "37.4995278047",
    "longitude": "127.9920143008",
    "image": "http://tong.visitkorea.or.kr/cms/resource/57/2923257_image2_1.jpg",
    "category": "이색음식점"
  },
  {
    "id": "2862593",
    "title": "존앤맷 타코 미사본점",
    "address": "경기도 하남시 미사강변한강로 270 (망월동, 미사역 호반 써밋)",
    "phone": "",
    "latitude": "37.5657082540",
    "longitude": "127.1954985065",
    "image": "http://tong.visitkorea.or.kr/cms/resource/89/2862589_image2_1.jpg",
    "category": "이색음식점"
  },
  {
    "id": "2824887",
    "title": "준수방키친",
    "address": "서울특별시 종로구 자하문로11길 8 (통인동)",
    "phone": "",
    "latitude": "37.5797442395",
    "longitude": "126.9707991267",
    "image": "http://tong.visitkorea.or.kr/cms/resource/85/3579285_image2_1.jpg",
    "category": "이색음식점"
  },
  {
    "id": "2773304",
    "title": "지박사의 낭만식당",
    "address": "강원특별자치도 평창군 대관령면 대관령로 89",
    "phone": "",
    "latitude": "37.6730990853",
    "longitude": "128.7066445983",
    "image": "http://tong.visitkorea.or.kr/cms/resource/68/2785768_image2_1.jpg",
    "category": "이색음식점"
  },
  {
    "id": "3358870",
    "title": "지평돈가스솥밥",
    "address": "경기도 양평군 지평면 지평의병로 37-4",
    "phone": "",
    "latitude": "37.4776680904",
    "longitude": "127.6313836850",
    "image": "http://tong.visitkorea.or.kr/cms/resource/36/3427836_image2_1.jpg",
    "category": "이색음식점"
  },
  {
    "id": "2826785",
    "title": "진저앤트리클",
    "address": "경기도 고양시 일산동구 일산로441번길 41-17 (정발산동)",
    "phone": "",
    "latitude": "37.6711273669",
    "longitude": "126.7771558851",
    "image": "",
    "category": "이색음식점"
  },
  {
    "id": "135451",
    "title": "징기즈칸 옛고향",
    "address": "경기도 남양주시 수동면 비룡로 1626",
    "phone": "031-592-8801",
    "latitude": "37.7569097147",
    "longitude": "127.2760578908",
    "image": "http://tong.visitkorea.or.kr/cms/resource/70/3106170_image2_1.JPG",
    "category": "이색음식점"
  },
  {
    "id": "2891369",
    "title": "차오프라야 전주점",
    "address": "전북특별자치도 전주시 덕진구 장동길 16 (장동)",
    "phone": "",
    "latitude": "35.8550776929",
    "longitude": "127.0670929229",
    "image": "http://tong.visitkorea.or.kr/cms/resource/69/2877669_image2_1.jpg",
    "category": "이색음식점"
  },
  {
    "id": "3410603",
    "title": "채빛퀴진",
    "address": "서울특별시 서초구 올림픽대로 2085-14 (반포동)",
    "phone": "",
    "latitude": "37.5123025381",
    "longitude": "126.9965764639",
    "image": "http://tong.visitkorea.or.kr/cms/resource/67/3409767_image2_1.jpg",
    "category": "이색음식점"
  },
  {
    "id": "135747",
    "title": "채식요리전문점 오세계향",
    "address": "서울특별시 종로구 인사동12길 14-5",
    "phone": "02-735-7171",
    "latitude": "37.5746700892",
    "longitude": "126.9852590637",
    "image": "",
    "category": "이색음식점"
  },
  {
    "id": "135317",
    "title": "챠크라",
    "address": "서울특별시 용산구 독서당로 83 (한남동)",
    "phone": "02-796-1149",
    "latitude": "37.5345418570",
    "longitude": "127.0097024179",
    "image": "http://tong.visitkorea.or.kr/cms/resource/21/1872121_image2_1.jpg",
    "category": "이색음식점"
  },
  {
    "id": "2023559",
    "title": "초록뜰",
    "address": "서울특별시 동대문구 망우로18길 36 (휘경동)",
    "phone": "",
    "latitude": "37.5885893109",
    "longitude": "127.0628404881",
    "image": "http://tong.visitkorea.or.kr/cms/resource/94/3474694_image2_1.jpg",
    "category": "이색음식점"
  },
  {
    "id": "2589242",
    "title": "추남식당",
    "address": "서울특별시 강동구 양재대로 1622-4",
    "phone": "02-6401-4268",
    "latitude": "37.5502896754",
    "longitude": "127.1443397124",
    "image": "http://tong.visitkorea.or.kr/cms/resource/47/2589247_image2_1.jpg",
    "category": "이색음식점"
  },
  {
    "id": "2865825",
    "title": "치앙마이방콕",
    "address": "대전광역시 동구 철갑3길 8 (소제동)",
    "phone": "",
    "latitude": "36.3342295261",
    "longitude": "127.4377470863",
    "image": "http://tong.visitkorea.or.kr/cms/resource/18/2865818_image2_1.jpg",
    "category": "이색음식점"
  },
  {
    "id": "2864821",
    "title": "친츠",
    "address": "광주광역시 서구 상무누리로 15",
    "phone": "",
    "latitude": "35.1443682937",
    "longitude": "126.8401006633",
    "image": "http://tong.visitkorea.or.kr/cms/resource/15/2864815_image2_1.jpg",
    "category": "이색음식점"
  },
  {
    "id": "2828660",
    "title": "카메식당",
    "address": "충청남도 보령시 원동1길 56-3",
    "phone": "",
    "latitude": "36.3507629606",
    "longitude": "126.5980580442",
    "image": "",
    "category": "이색음식점"
  },
  {
    "id": "2378251",
    "title": "카사블랑카",
    "address": "서울특별시 용산구 신흥로 35 (용산동2가)",
    "phone": "02-797-8367",
    "latitude": "37.5416961764",
    "longitude": "126.9871292715",
    "image": "http://tong.visitkorea.or.kr/cms/resource/60/2377960_image2_1.jpg",
    "category": "이색음식점"
  },
  {
    "id": "2839541",
    "title": "카오짜이",
    "address": "경기도 고양시 일산동구 백석로71번길 44 (백석동)",
    "phone": "",
    "latitude": "37.6484384701",
    "longitude": "126.7843586442",
    "image": "http://tong.visitkorea.or.kr/cms/resource/39/2839539_image2_1.jpg",
    "category": "이색음식점"
  },
  {
    "id": "250562",
    "title": "카파도키아",
    "address": "부산광역시 금정구 금단로 123-9",
    "phone": "051-515-5981",
    "latitude": "35.2601173263",
    "longitude": "129.0922249352",
    "image": "http://tong.visitkorea.or.kr/cms/resource/20/1190220_image2_1.jpg",
    "category": "이색음식점"
  },
  {
    "id": "1887839",
    "title": "케르반 레스토랑",
    "address": "서울특별시 용산구 이태원로 192",
    "phone": "02-792-4767",
    "latitude": "37.5344166147",
    "longitude": "126.9954037239",
    "image": "",
    "category": "이색음식점"
  },
  {
    "id": "3076134",
    "title": "코트야드 메리어트 서울 보타닉 파크 가든키친",
    "address": "서울특별시 강서구 마곡중앙12로 10 (마곡동)",
    "phone": "",
    "latitude": "37.5670265237",
    "longitude": "126.8294429320",
    "image": "",
    "category": "이색음식점"
  },
  {
    "id": "2903369",
    "title": "콴안다오",
    "address": "서울특별시 강남구 강남대로156길 28-2 (신사동)",
    "phone": "",
    "latitude": "37.5185411496",
    "longitude": "127.0215129060",
    "image": "http://tong.visitkorea.or.kr/cms/resource/63/2903363_image2_1.jpg",
    "category": "이색음식점"
  },
  {
    "id": "2710907",
    "title": "크래프트루트",
    "address": "강원특별자치도 속초시 관광로 418",
    "phone": "070-8872-1001",
    "latitude": "38.1972849934",
    "longitude": "128.5377159268",
    "image": "http://tong.visitkorea.or.kr/cms/resource/23/2732823_image2_1.jpg",
    "category": "이색음식점"
  },
  {
    "id": "2710905",
    "title": "크래프트유니온협동조합(몽트비어)",
    "address": "강원특별자치도 속초시 학사평길 7-1",
    "phone": "033-636-9010",
    "latitude": "38.2044117557",
    "longitude": "128.5281193548",
    "image": "http://tong.visitkorea.or.kr/cms/resource/13/2732813_image2_1.jpg",
    "category": "이색음식점"
  },
  {
    "id": "2815662",
    "title": "키친숲",
    "address": "서울특별시 마포구 동교로 256-10",
    "phone": "",
    "latitude": "37.5625093148",
    "longitude": "126.9251982156",
    "image": "",
    "category": "이색음식점"
  },
  {
    "id": "2623628",
    "title": "타마린드",
    "address": "서울특별시 서초구 신반포로 176",
    "phone": "02-3479-1901",
    "latitude": "37.5049701757",
    "longitude": "127.0032288434",
    "image": "",
    "category": "이색음식점"
  },
  {
    "id": "2853291",
    "title": "타무라",
    "address": "제주특별자치도 제주시 조천읍 중산간동로 670",
    "phone": "",
    "latitude": "33.4989714565",
    "longitude": "126.6568893511",
    "image": "http://tong.visitkorea.or.kr/cms/resource/90/2853290_image2_1.jpg",
    "category": "이색음식점"
  },
  {
    "id": "2654144",
    "title": "타이가든",
    "address": "서울특별시 중구 명동길 55 (명동1가)",
    "phone": "02-754-3005",
    "latitude": "37.5641824217",
    "longitude": "126.9854010143",
    "image": "http://tong.visitkorea.or.kr/cms/resource/68/2655168_image2_1.jpg",
    "category": "이색음식점"
  },
  {
    "id": "2869532",
    "title": "타이빈",
    "address": "부산광역시 동래구 금강로73번길 12 (온천동)",
    "phone": "",
    "latitude": "35.2162997405",
    "longitude": "129.0773274366",
    "image": "http://tong.visitkorea.or.kr/cms/resource/18/2869518_image2_1.JPG",
    "category": "이색음식점"
  },
  {
    "id": "2855554",
    "title": "타이씨암레스토랑",
    "address": "경기도 용인시 처인구 성산로 633",
    "phone": "",
    "latitude": "37.2864658761",
    "longitude": "127.2091468603",
    "image": "http://tong.visitkorea.or.kr/cms/resource/38/2855538_image2_1.jpg",
    "category": "이색음식점"
  },
  {
    "id": "820610",
    "title": "타지펠리스",
    "address": "서울특별시 용산구 우사단로 39",
    "phone": "02-790-5786",
    "latitude": "37.5336861454",
    "longitude": "126.9954370746",
    "image": "http://tong.visitkorea.or.kr/cms/resource/92/818992_image2_1.jpg",
    "category": "이색음식점"
  },
  {
    "id": "134608",
    "title": "탈리",
    "address": "경기도 성남시 분당구 서현로 192",
    "phone": "031-707-3192",
    "latitude": "37.3877942802",
    "longitude": "127.1243850249",
    "image": "http://tong.visitkorea.or.kr/cms/resource/05/1788305_image2_1.jpg",
    "category": "이색음식점"
  },
  {
    "id": "2838789",
    "title": "토도스",
    "address": "경상남도 창원시 성산구 용호로 116 부일빌딩",
    "phone": "",
    "latitude": "35.2380595189",
    "longitude": "128.6838417127",
    "image": "http://tong.visitkorea.or.kr/cms/resource/78/2838778_image2_1.JPG",
    "category": "이색음식점"
  },
  {
    "id": "2851487",
    "title": "톰톰카레",
    "address": "제주특별자치도 제주시 구좌읍 해맞이해안로 1112",
    "phone": "",
    "latitude": "33.5375034354",
    "longitude": "126.8375450072",
    "image": "http://tong.visitkorea.or.kr/cms/resource/74/2851474_image2_1.jpg",
    "category": "이색음식점"
  },
  {
    "id": "1906858",
    "title": "툭툭누들타이",
    "address": "서울특별시 마포구 성미산로 161-8",
    "phone": "0507-1400-5130",
    "latitude": "37.5651700960",
    "longitude": "126.9240204706",
    "image": "http://tong.visitkorea.or.kr/cms/resource/96/1906596_image2_1.jpg",
    "category": "이색음식점"
  },
  {
    "id": "2906451",
    "title": "툭툭타이",
    "address": "경상남도 창원시 마산회원구 합성옛길 94",
    "phone": "",
    "latitude": "35.2361884384",
    "longitude": "128.5823228562",
    "image": "http://tong.visitkorea.or.kr/cms/resource/48/2906448_image2_1.jpg",
    "category": "이색음식점"
  },
  {
    "id": "2755300",
    "title": "파인에이플러스",
    "address": "경상남도 거제시 둔덕면 청마로 206",
    "phone": "",
    "latitude": "34.8567047066",
    "longitude": "128.5126001716",
    "image": "http://tong.visitkorea.or.kr/cms/resource/09/2755309_image2_1.jpg",
    "category": "이색음식점"
  },
  {
    "id": "2898953",
    "title": "팜티진쌀국수",
    "address": "서울특별시 성동구 왕십리로 58 (성수동1가)",
    "phone": "",
    "latitude": "37.5427498754",
    "longitude": "127.0452211721",
    "image": "http://tong.visitkorea.or.kr/cms/resource/52/2898952_image2_1.jpg",
    "category": "이색음식점"
  },
  {
    "id": "2668049",
    "title": "퍼스트네팔",
    "address": "광주광역시 동구 서석로7번길 6-44",
    "phone": "062-225-8771",
    "latitude": "35.1462304720",
    "longitude": "126.9157967018",
    "image": "http://tong.visitkorea.or.kr/cms/resource/53/2668053_image2_1.jpg",
    "category": "이색음식점"
  },
  {
    "id": "2642948",
    "title": "퍼퓰러",
    "address": "서울특별시 중구 을지로44길 2",
    "phone": "02-792-9119",
    "latitude": "37.5660325873",
    "longitude": "127.0066018078",
    "image": "http://tong.visitkorea.or.kr/cms/resource/21/2669021_image2_1.jpg",
    "category": "이색음식점"
  },
  {
    "id": "402988",
    "title": "페르시안궁전",
    "address": "서울특별시 종로구 성균관로6길 9 (명륜2가)",
    "phone": "02-763-6050",
    "latitude": "37.5849635583",
    "longitude": "126.9975798705",
    "image": "",
    "category": "이색음식점"
  },
  {
    "id": "2899584",
    "title": "페트라",
    "address": "서울특별시 용산구 녹사평대로40길 33",
    "phone": "",
    "latitude": "37.5347053328",
    "longitude": "126.9877377467",
    "image": "",
    "category": "이색음식점"
  },
  {
    "id": "2823092",
    "title": "페페그라노",
    "address": "서울특별시 노원구 공릉로32길 5",
    "phone": "",
    "latitude": "37.6221079395",
    "longitude": "127.0796213371",
    "image": "",
    "category": "이색음식점"
  },
  {
    "id": "2845238",
    "title": "포브라더스 도곡점",
    "address": "서울특별시 강남구 논현로28길 40 (도곡동)",
    "phone": "",
    "latitude": "37.4840733578",
    "longitude": "127.0453367123",
    "image": "http://tong.visitkorea.or.kr/cms/resource/24/2845224_image2_1.jpg",
    "category": "이색음식점"
  },
  {
    "id": "2826933",
    "title": "포사이",
    "address": "경기도 광주시 퇴촌면 정영로 574",
    "phone": "",
    "latitude": "37.4772324419",
    "longitude": "127.3503036338",
    "image": "",
    "category": "이색음식점"
  },
  {
    "id": "2844748",
    "title": "포에버얌 부산기장점",
    "address": "부산광역시 기장군 일광읍 문오성길 43",
    "phone": "",
    "latitude": "35.2827845407",
    "longitude": "129.2583070724",
    "image": "http://tong.visitkorea.or.kr/cms/resource/40/2844740_image2_1.jpg",
    "category": "이색음식점"
  },
  {
    "id": "2871863",
    "title": "포하노이",
    "address": "제주특별자치도 제주시 광령중길 133-2 예그리나",
    "phone": "",
    "latitude": "33.4486068479",
    "longitude": "126.4363513218",
    "image": "http://tong.visitkorea.or.kr/cms/resource/43/2871843_image2_1.jpg",
    "category": "이색음식점"
  },
  {
    "id": "2846335",
    "title": "푸나왈라",
    "address": "대구광역시 수성구 수성못2길 3 (두산동)",
    "phone": "",
    "latitude": "35.8259282468",
    "longitude": "128.6223615297",
    "image": "http://tong.visitkorea.or.kr/cms/resource/27/2846327_image2_1.jpg",
    "category": "이색음식점"
  },
  {
    "id": "1597952",
    "title": "풀꽃세상",
    "address": "전북특별자치도 전주시 완산구 우림로 1036-13",
    "phone": "063-221-3355",
    "latitude": "35.7792203380",
    "longitude": "127.1064302884",
    "image": "",
    "category": "이색음식점"
  },
  {
    "id": "2024964",
    "title": "플랜트",
    "address": "서울특별시 용산구 보광로 117",
    "phone": "",
    "latitude": "37.5332139565",
    "longitude": "126.9942483066",
    "image": "",
    "category": "이색음식점"
  },
  {
    "id": "2899077",
    "title": "플레이버타운",
    "address": "서울특별시 성동구 서울숲4길 18-7 (성수동1가)",
    "phone": "",
    "latitude": "37.5470326702",
    "longitude": "127.0429407030",
    "image": "http://tong.visitkorea.or.kr/cms/resource/64/2899064_image2_1.jpg",
    "category": "이색음식점"
  },
  {
    "id": "2934958",
    "title": "하노이뿐짜와쌀국수",
    "address": "경상남도 사천시 샘골길 10 신세계마트",
    "phone": "",
    "latitude": "35.0809443765",
    "longitude": "128.0962417360",
    "image": "",
    "category": "이색음식점"
  },
  {
    "id": "2866152",
    "title": "하롱베이",
    "address": "대구광역시 수성구 무학로 97 (두산동)",
    "phone": "",
    "latitude": "35.8302971384",
    "longitude": "128.6191922428",
    "image": "http://tong.visitkorea.or.kr/cms/resource/39/2866139_image2_1.jpg",
    "category": "이색음식점"
  },
  {
    "id": "3526562",
    "title": "하와이안레시피",
    "address": "전북특별자치도 전주시 완산구 향교길 44 (교동)",
    "phone": "",
    "latitude": "35.8116757691",
    "longitude": "127.1519587239",
    "image": "http://tong.visitkorea.or.kr/cms/resource/64/3526364_image2_1.jpg",
    "category": "이색음식점"
  },
  {
    "id": "2751155",
    "title": "허니듀",
    "address": "경기도 군포시 호수로 124-9",
    "phone": "",
    "latitude": "37.3233170600",
    "longitude": "126.8928745355",
    "image": "http://tong.visitkorea.or.kr/cms/resource/17/2751317_image2_1.jpeg",
    "category": "이색음식점"
  },
  {
    "id": "2836200",
    "title": "허머스키친",
    "address": "서울특별시 강남구 테헤란로 521 파르나스타워",
    "phone": "",
    "latitude": "37.5092457134",
    "longitude": "127.0608234799",
    "image": "",
    "category": "이색음식점"
  },
  {
    "id": "2781474",
    "title": "호계주택",
    "address": "울산광역시 북구 괴정2길 8-2",
    "phone": "",
    "latitude": "35.6401101596",
    "longitude": "129.3574689627",
    "image": "",
    "category": "이색음식점"
  },
  {
    "id": "2852062",
    "title": "호주식월남쌈정원",
    "address": "경기도 안양시 동안구 삼현로 12 (관양동)",
    "phone": "",
    "latitude": "37.4063366536",
    "longitude": "126.9738565175",
    "image": "http://tong.visitkorea.or.kr/cms/resource/47/2852047_image2_1.jpg",
    "category": "이색음식점"
  },
  {
    "id": "2777718",
    "title": "호치민 쌀국수",
    "address": "강원특별자치도 평창군 봉평면 기풍로 194",
    "phone": "",
    "latitude": "37.6196045009",
    "longitude": "128.3766565375",
    "image": "http://tong.visitkorea.or.kr/cms/resource/99/2777699_image2_1.jpg",
    "category": "이색음식점"
  },
  {
    "id": "2858815",
    "title": "화담원 아산점",
    "address": "충청남도 아산시 모종남로12번길 17",
    "phone": "",
    "latitude": "36.7787072516",
    "longitude": "127.0210807255",
    "image": "http://tong.visitkorea.or.kr/cms/resource/06/2858806_image2_1.jpg",
    "category": "이색음식점"
  },
  {
    "id": "2781421",
    "title": "화성 로스팩토리",
    "address": "경기도 화성시 송산면 당성로 385",
    "phone": "",
    "latitude": "37.2014223309",
    "longitude": "126.7062837564",
    "image": "",
    "category": "이색음식점"
  },
  {
    "id": "2807589",
    "title": "효뜨",
    "address": "서울특별시 용산구 한강대로40가길 6",
    "phone": "",
    "latitude": "37.5304055382",
    "longitude": "126.9713226968",
    "image": "http://tong.visitkorea.or.kr/cms/resource/73/3572373_image2_1.jpg",
    "category": "이색음식점"
  },
  {
    "id": "2827032",
    "title": "효뜨꽌",
    "address": "경기도 성남시 분당구 정자동",
    "phone": "",
    "latitude": "37.3633523527",
    "longitude": "127.1068150884",
    "image": "",
    "category": "이색음식점"
  },
  {
    "id": "2808041",
    "title": "후암편백",
    "address": "서울특별시 용산구 후암로 57-1",
    "phone": "",
    "latitude": "37.5510643493",
    "longitude": "126.9769049376",
    "image": "http://tong.visitkorea.or.kr/cms/resource/96/3578196_image2_1.jpg",
    "category": "이색음식점"
  },
  {
    "id": "2469037",
    "title": "히말라야정원",
    "address": "경기도 수원시 팔달구 권광로180번길 19 (인계동)",
    "phone": "",
    "latitude": "37.2635931591",
    "longitude": "127.0338939523",
    "image": "http://tong.visitkorea.or.kr/cms/resource/38/3563938_image2_1.jpg",
    "category": "이색음식점"
  },
  {
    "id": "3479357",
    "title": "105405 마곡",
    "address": "서울특별시 강서구 마곡중앙로 161-8 (마곡동)",
    "phone": "",
    "latitude": "37.5689818108",
    "longitude": "126.8271264216",
    "image": "http://tong.visitkorea.or.kr/cms/resource/53/3479353_image2_1.jpg",
    "category": "이색음식점"
  },
  {
    "id": "2807802",
    "title": "40호베트남쌀국수",
    "address": "경기도 평택시 통복시장2로9번길 7",
    "phone": "",
    "latitude": "36.9968998828",
    "longitude": "127.0840301607",
    "image": "",
    "category": "이색음식점"
  },
  {
    "id": "2913121",
    "title": "자동차 카페 카레이지 히피스",
    "address": "대전광역시 유성구 대학로76번길 55 (궁동)",
    "phone": "",
    "latitude": "36.3601693955",
    "longitude": "127.3472294776",
    "image": "http://tong.visitkorea.or.kr/cms/resource/16/2913116_image2_1.jpg",
    "category": "이색음식점",
    "original_category": "카페디저트"
  }
]