[
  {
    "id": "2751123",
    "title": "강릉짬뽕순두부",
    "address": "경기도 시흥시 오이도로 245-1 (정왕동)",
    "phone": "",
    "latitude": "37.3408725238",
    "longitude": "126.6888842725",
    "image": "http://tong.visitkorea.or.kr/cms/resource/81/2751381_image2_1.jpg",
    "category": "중식",
    "original_category": "한식"
  },
  {
    "id": "2905170",
    "title": "강릉짬뽕순두부 강릉본점",
    "address": "강원특별자치도 강릉시 초당순두부길 116",
    "phone": "",
    "latitude": "37.7926615717",
    "longitude": "128.9174830310",
    "image": "http://tong.visitkorea.or.kr/cms/resource/53/2905153_image2_1.jpg",
    "category": "중식",
    "original_category": "한식"
  },
  {
    "id": "623223",
    "title": "강릉짬뽕순두부 동화가든 본점",
    "address": "강원특별자치도 강릉시 초당순두부길77번길 15",
    "phone": "033-652-9885",
    "latitude": "37.7912255723",
    "longitude": "128.9146972153",
    "image": "http://tong.visitkorea.or.kr/cms/resource/20/3029720_image2_1.jpg",
    "category": "중식",
    "original_category": "한식"
  },
  {
    "id": "398373",
    "title": "개성만두 궁",
    "address": "서울특별시 종로구 인사동10길 11-3 (관훈동)",
    "phone": "02-733-9240",
    "latitude": "37.5743229103",
    "longitude": "126.9854257249",
    "image": "",
    "category": "중식",
    "original_category": "한식"
  },
  {
    "id": "2768140",
    "title": "개성손만두",
    "address": "인천광역시 미추홀구 매소홀로 435 (학익동)",
    "phone": "",
    "latitude": "37.4400717908",
    "longitude": "126.6703804319",
    "image": "http://tong.visitkorea.or.kr/cms/resource/58/2788158_image2_1.jpg",
    "category": "중식",
    "original_category": "한식"
  },
  {
    "id": "2768090",
    "title": "거해짬뽕순두부",
    "address": "인천광역시 중구 대무의로 281",
    "phone": "",
    "latitude": "37.3918286834",
    "longitude": "126.4271567287",
    "image": "",
    "category": "중식",
    "original_category": "한식"
  },
  {
    "id": "2681527",
    "title": "고바우 한중식",
    "address": "경상북도 울진군 후포면 후포로 179",
    "phone": "054-788-1116",
    "latitude": "36.6830940090",
    "longitude": "129.4601156480",
    "image": "",
    "category": "중식",
    "original_category": "한식"
  },
  {
    "id": "2873148",
    "title": "고자리냉면칼만두 본점",
    "address": "경기도 고양시 덕양구 호국로 915-45 (성사동)",
    "phone": "",
    "latitude": "37.6646015281",
    "longitude": "126.8431805923",
    "image": "http://tong.visitkorea.or.kr/cms/resource/34/2873134_image2_1.png",
    "category": "중식",
    "original_category": "한식"
  },
  {
    "id": "2605244",
    "title": "고추만두국집",
    "address": "충청북도 청주시 상당구 사직대로350번길 61",
    "phone": "043-253-4260",
    "latitude": "36.6338821829",
    "longitude": "127.4865039561",
    "image": "",
    "category": "중식",
    "original_category": "한식"
  },
  {
    "id": "2860532",
    "title": "광명만두",
    "address": "충청남도 천안시 서북구 두정중4길 1 코리아숯불바베큐",
    "phone": "",
    "latitude": "36.8341474599",
    "longitude": "127.1423099429",
    "image": "http://tong.visitkorea.or.kr/cms/resource/21/2860521_image2_1.jpg",
    "category": "중식",
    "original_category": "한식"
  },
  {
    "id": "2855658",
    "title": "구리야끼만두",
    "address": "경기도 구리시 건원대로99번길 80-9 (인창동)",
    "phone": "",
    "latitude": "37.6069163149",
    "longitude": "127.1379803427",
    "image": "http://tong.visitkorea.or.kr/cms/resource/50/2855650_image2_1.jpg",
    "category": "중식",
    "original_category": "한식"
  },
  {
    "id": "2939571",
    "title": "국시랑만두",
    "address": "서울특별시 종로구 자하문로 276 부원빌딩",
    "phone": "",
    "latitude": "37.5982613810",
    "longitude": "126.9623993674",
    "image": "",
    "category": "중식",
    "original_category": "한식"
  },
  {
    "id": "2852685",
    "title": "금강만두",
    "address": "부산광역시 동래구 사직북로5번길 11",
    "phone": "",
    "latitude": "35.1961627928",
    "longitude": "129.0602739189",
    "image": "http://tong.visitkorea.or.kr/cms/resource/76/2852676_image2_1.jpeg",
    "category": "중식",
    "original_category": "한식"
  },
  {
    "id": "2871214",
    "title": "김우정초당짬뽕순두부",
    "address": "강원특별자치도 강릉시 초당순두부길 102 (초당동)",
    "phone": "",
    "latitude": "37.7916422269",
    "longitude": "128.9165442582",
    "image": "http://tong.visitkorea.or.kr/cms/resource/98/2871198_image2_1.jpg",
    "category": "중식",
    "original_category": "한식"
  },
  {
    "id": "2869363",
    "title": "남촌왕만두",
    "address": "충청남도 아산시 음봉로 791",
    "phone": "",
    "latitude": "36.8297748980",
    "longitude": "127.0948254559",
    "image": "http://tong.visitkorea.or.kr/cms/resource/50/2869350_image2_1.jpg",
    "category": "중식",
    "original_category": "한식"
  },
  {
    "id": "2685349",
    "title": "네덜란드 꿩만두",
    "address": "강원특별자치도 횡성군 우천면 한우로우항7길 12",
    "phone": "033-342-7888",
    "latitude": "37.4514654603",
    "longitude": "128.0743499462",
    "image": "",
    "category": "중식",
    "original_category": "한식"
  },
  {
    "id": "2912675",
    "title": "대사리만두",
    "address": "충청북도 괴산군 읍내로 135",
    "phone": "",
    "latitude": "36.7983520229",
    "longitude": "127.7842726567",
    "image": "http://tong.visitkorea.or.kr/cms/resource/67/2912667_image2_1.jpg",
    "category": "중식",
    "original_category": "한식"
  },
  {
    "id": "135825",
    "title": "대중식당",
    "address": "경상남도 남해군 상주면 남해대로 694",
    "phone": "055-863-2738",
    "latitude": "34.7234408585",
    "longitude": "127.9872133217",
    "image": "http://tong.visitkorea.or.kr/cms/resource/26/218426_image2_1.jpg",
    "category": "중식",
    "original_category": "한식"
  },
  {
    "id": "134944",
    "title": "동이손만두",
    "address": "경기도 포천시 소흘읍 광릉수목원로 700-5",
    "phone": "031-541-6870",
    "latitude": "37.7737250592",
    "longitude": "127.1583598085",
    "image": "",
    "category": "중식",
    "original_category": "한식"
  },
  {
    "id": "2805413",
    "title": "두메칼국수만두",
    "address": "인천광역시 옹진군 백령면 백령로 (293, 인어궁)",
    "phone": "",
    "latitude": "37.9716014356",
    "longitude": "124.7160739120",
    "image": "http://tong.visitkorea.or.kr/cms/resource/93/3562393_image2_1.jpg",
    "category": "중식",
    "original_category": "한식"
  },
  {
    "id": "2752627",
    "title": "디안만두전골",
    "address": "경기도 성남시 수정구 청계산로 617 (상적동)",
    "phone": "",
    "latitude": "37.4316968786",
    "longitude": "127.0885814829",
    "image": "http://tong.visitkorea.or.kr/cms/resource/74/2932374_image2_1.jpg",
    "category": "중식",
    "original_category": "한식"
  },
  {
    "id": "2854609",
    "title": "락원이북만두",
    "address": "경기도 김포시 김포한강1로97번길 32-22",
    "phone": "",
    "latitude": "37.6475032257",
    "longitude": "126.6707634972",
    "image": "http://tong.visitkorea.or.kr/cms/resource/97/2854597_image2_1.jpg",
    "category": "중식",
    "original_category": "한식"
  },
  {
    "id": "2754728",
    "title": "만두집",
    "address": "경기도 하남시 하남대로 5 (상산곡동)",
    "phone": "",
    "latitude": "37.4772054389",
    "longitude": "127.2397720063",
    "image": "http://tong.visitkorea.or.kr/cms/resource/39/2932339_image2_1.jpg",
    "category": "중식",
    "original_category": "한식"
  },
  {
    "id": "2837622",
    "title": "만두집",
    "address": "경기도 하남시 미사대로 672 (신장동)",
    "phone": "",
    "latitude": "37.5493133147",
    "longitude": "127.2164137385",
    "image": "http://tong.visitkorea.or.kr/cms/resource/16/2837616_image2_1.JPG",
    "category": "중식",
    "original_category": "한식"
  },
  {
    "id": "2835205",
    "title": "만두향",
    "address": "서울특별시 중랑구 면목로74길 6 (면목동)",
    "phone": "",
    "latitude": "37.5890952598",
    "longitude": "127.0879270771",
    "image": "http://tong.visitkorea.or.kr/cms/resource/76/2835176_image2_1.jpg",
    "category": "중식",
    "original_category": "한식"
  },
  {
    "id": "2792522",
    "title": "면뽑는선생 만두빚는아내",
    "address": "제주특별자치도 제주시 한림읍 일주서로 5608",
    "phone": "",
    "latitude": "33.4276094433",
    "longitude": "126.2776350395",
    "image": "",
    "category": "중식",
    "original_category": "한식"
  },
  {
    "id": "2875240",
    "title": "명가만두",
    "address": "경기도 의왕시 솔고개길 23 (왕곡동)",
    "phone": "",
    "latitude": "37.3434691437",
    "longitude": "126.9850350419",
    "image": "http://tong.visitkorea.or.kr/cms/resource/35/2875235_image2_1.jpg",
    "category": "중식",
    "original_category": "한식"
  },
  {
    "id": "2866468",
    "title": "명가만두전골",
    "address": "경기도 화성시 여울로 116 (능동)",
    "phone": "",
    "latitude": "37.2094636656",
    "longitude": "127.0536297855",
    "image": "http://tong.visitkorea.or.kr/cms/resource/60/2866460_image2_1.jpg",
    "category": "중식",
    "original_category": "한식"
  },
  {
    "id": "2779339",
    "title": "미도방만두",
    "address": "인천광역시 서구 서곶로 355",
    "phone": "",
    "latitude": "37.5493397565",
    "longitude": "126.6767490307",
    "image": "",
    "category": "중식",
    "original_category": "한식"
  },
  {
    "id": "638203",
    "title": "미성당납작만두",
    "address": "대구광역시 중구 명덕로 93",
    "phone": "053-255-0742",
    "latitude": "35.8575100191",
    "longitude": "128.5808504180",
    "image": "http://tong.visitkorea.or.kr/cms/resource/71/1681571_image2_1.jpg",
    "category": "중식",
    "original_category": "한식"
  },
  {
    "id": "2877238",
    "title": "밀목손만두얼큰칼국수",
    "address": "경기도 광주시 회안대로 949 (송정동)",
    "phone": "",
    "latitude": "37.4313666606",
    "longitude": "127.2591271104",
    "image": "http://tong.visitkorea.or.kr/cms/resource/37/2877237_image2_1.jpg",
    "category": "중식",
    "original_category": "한식"
  },
  {
    "id": "2635516",
    "title": "본가 만두전골전문점",
    "address": "경기도 시흥시 동서로811번길 33 (물왕동)",
    "phone": "031-483-0201",
    "latitude": "37.3878030594",
    "longitude": "126.8385360136",
    "image": "http://tong.visitkorea.or.kr/cms/resource/75/2635975_image2_1.jpg",
    "category": "중식",
    "original_category": "한식"
  },
  {
    "id": "2842694",
    "title": "사담손만두 용인점",
    "address": "경기도 용인시 처인구 지삼로586번길 3 (삼가동)",
    "phone": "",
    "latitude": "37.2403926400",
    "longitude": "127.1651993626",
    "image": "http://tong.visitkorea.or.kr/cms/resource/85/2842685_image2_1.jpg",
    "category": "중식",
    "original_category": "한식"
  },
  {
    "id": "2851230",
    "title": "산중식당",
    "address": "대구광역시 동구 팔공산로185길 55 (용수동)",
    "phone": "",
    "latitude": "35.9901998692",
    "longitude": "128.6944728065",
    "image": "http://tong.visitkorea.or.kr/cms/resource/93/2851193_image2_1.jpg",
    "category": "중식",
    "original_category": "한식"
  },
  {
    "id": "2901553",
    "title": "삼송꾼만두 영천본점",
    "address": "경상북도 영천시 중앙동1길 12",
    "phone": "",
    "latitude": "35.9726591133",
    "longitude": "128.9346465940",
    "image": "http://tong.visitkorea.or.kr/cms/resource/45/2901545_image2_1.jpg",
    "category": "중식",
    "original_category": "한식"
  },
  {
    "id": "2854655",
    "title": "상화만두",
    "address": "경기도 김포시 김포한강1로51번길 20 산타마리아",
    "phone": "",
    "latitude": "37.6440257932",
    "longitude": "126.6673750154",
    "image": "http://tong.visitkorea.or.kr/cms/resource/51/2854651_image2_1.jpg",
    "category": "중식",
    "original_category": "한식"
  },
  {
    "id": "2832595",
    "title": "솔밭만두",
    "address": "경상남도 밀양시 밀양대로 2362",
    "phone": "",
    "latitude": "35.5137385024",
    "longitude": "128.7739540804",
    "image": "http://tong.visitkorea.or.kr/cms/resource/88/2832588_image2_1.png",
    "category": "중식",
    "original_category": "한식"
  },
  {
    "id": "2573922",
    "title": "솜씨만두",
    "address": "경상남도 통영시 북신시장1길 12",
    "phone": "055-642-7970",
    "latitude": "34.8567087376",
    "longitude": "128.4274603641",
    "image": "",
    "category": "중식",
    "original_category": "한식"
  },
  {
    "id": "2905626",
    "title": "솜씨만두 정읍점",
    "address": "전북특별자치도 정읍시 중앙로 162 고향집 식당",
    "phone": "",
    "latitude": "35.5650153755",
    "longitude": "126.8559025353",
    "image": "http://tong.visitkorea.or.kr/cms/resource/12/2905612_image2_1.jpg",
    "category": "중식",
    "original_category": "한식"
  },
  {
    "id": "2894496",
    "title": "순두부엔짬뽕",
    "address": "제주특별자치도 제주시 통물길 30",
    "phone": "",
    "latitude": "33.4894328604",
    "longitude": "126.4348421978",
    "image": "http://tong.visitkorea.or.kr/cms/resource/89/2894489_image2_1.jpg",
    "category": "중식",
    "original_category": "한식"
  },
  {
    "id": "2581540",
    "title": "신선만두애",
    "address": "대전광역시 동구 가양로 42 (가양동)",
    "phone": "",
    "latitude": "36.3400705934",
    "longitude": "127.4416243586",
    "image": "http://tong.visitkorea.or.kr/cms/resource/70/3071470_image2_1.JPG",
    "category": "중식",
    "original_category": "한식"
  },
  {
    "id": "2604860",
    "title": "아리랑 개성손만두",
    "address": "경기도 부천시 원미구 부흥로315번길 41 (중동)",
    "phone": "032-322-1650",
    "latitude": "37.4963226987",
    "longitude": "126.7770330286",
    "image": "http://tong.visitkorea.or.kr/cms/resource/61/2604861_image2_1.jpg",
    "category": "중식",
    "original_category": "한식"
  },
  {
    "id": "2805563",
    "title": "어랑만두",
    "address": "대구광역시 중구 동덕로 111 (삼덕동2가)",
    "phone": "",
    "latitude": "35.8647651595",
    "longitude": "128.6028649442",
    "image": "",
    "category": "중식",
    "original_category": "한식"
  },
  {
    "id": "134048",
    "title": "어랑손만두국",
    "address": "강원특별자치도 철원군 동송읍 태봉로 1831",
    "phone": "033-455-0171",
    "latitude": "38.1879985360",
    "longitude": "127.2877497602",
    "image": "http://tong.visitkorea.or.kr/cms/resource/79/1842779_image2_1.jpg",
    "category": "중식",
    "original_category": "한식"
  },
  {
    "id": "2768131",
    "title": "얼레꼴레만두",
    "address": "인천광역시 미추홀구 한나루로 420 (학익동)",
    "phone": "",
    "latitude": "37.4447156184",
    "longitude": "126.6659973695",
    "image": "http://tong.visitkorea.or.kr/cms/resource/10/2788110_image2_1.jpg",
    "category": "중식",
    "original_category": "한식"
  },
  {
    "id": "2834086",
    "title": "오늘손만두",
    "address": "경상북도 의성군 용기9길 11",
    "phone": "",
    "latitude": "36.3834336800",
    "longitude": "128.4343958226",
    "image": "http://tong.visitkorea.or.kr/cms/resource/73/2834073_image2_1.jpg",
    "category": "중식",
    "original_category": "한식"
  },
  {
    "id": "2903843",
    "title": "옥수찐빵만두",
    "address": "충청북도 청주시 청원구 충청대로 1527",
    "phone": "",
    "latitude": "36.7722288125",
    "longitude": "127.5644986700",
    "image": "http://tong.visitkorea.or.kr/cms/resource/30/2903830_image2_1.jpg",
    "category": "중식",
    "original_category": "한식"
  },
  {
    "id": "2835786",
    "title": "온정손만두 본점",
    "address": "경기도 이천시 애련정로 49-1 (안흥동)",
    "phone": "",
    "latitude": "37.2774574711",
    "longitude": "127.4545832222",
    "image": "http://tong.visitkorea.or.kr/cms/resource/83/2835783_image2_1.jpg",
    "category": "중식",
    "original_category": "한식"
  },
  {
    "id": "2860135",
    "title": "용만두전골",
    "address": "충청북도 청주시 흥덕구 청주역로 637",
    "phone": "",
    "latitude": "36.6644377918",
    "longitude": "127.3751214428",
    "image": "http://tong.visitkorea.or.kr/cms/resource/30/2860130_image2_1.jpg",
    "category": "중식",
    "original_category": "한식"
  },
  {
    "id": "3535756",
    "title": "원조강릉교동짬뽕 본점",
    "address": "강원특별자치도 강릉시 하슬라로232번길 26-12 (교동)",
    "phone": "0507-1401-3939",
    "latitude": "37.7696606957",
    "longitude": "128.8785539179",
    "image": "",
    "category": "중식",
    "original_category": "한식"
  },
  {
    "id": "2912918",
    "title": "유재용손만두",
    "address": "경상북도 포항시 북구 대신로36번길 10",
    "phone": "",
    "latitude": "36.0471950035",
    "longitude": "129.3689174102",
    "image": "http://tong.visitkorea.or.kr/cms/resource/07/2912907_image2_1.jpg",
    "category": "중식",
    "original_category": "한식"
  },
  {
    "id": "2761429",
    "title": "이고집만두",
    "address": "충청남도 천안시 동남구 태조산길 258",
    "phone": "",
    "latitude": "36.8205831712",
    "longitude": "127.1882284002",
    "image": "",
    "category": "중식",
    "original_category": "한식"
  },
  {
    "id": "2687738",
    "title": "이만구교동짬뽕",
    "address": "강원특별자치도 강릉시 강릉대로 199-8",
    "phone": "033-642-0956",
    "latitude": "37.7587483439",
    "longitude": "128.8926502076",
    "image": "http://tong.visitkorea.or.kr/cms/resource/08/2685008_image2_1.jpg",
    "category": "중식",
    "original_category": "한식"
  },
  {
    "id": "750982",
    "title": "이북만두",
    "address": "서울특별시 중구 무교로 17-13 (무교동)",
    "phone": "02-776-7361",
    "latitude": "37.5673041577",
    "longitude": "126.9785598824",
    "image": "",
    "category": "중식",
    "original_category": "한식"
  },
  {
    "id": "2875239",
    "title": "이화만두",
    "address": "서울특별시 광진구 능동로 278-1 (능동)",
    "phone": "",
    "latitude": "37.5547629672",
    "longitude": "127.0784733590",
    "image": "http://tong.visitkorea.or.kr/cms/resource/30/2875230_image2_1.jpg",
    "category": "중식",
    "original_category": "한식"
  },
  {
    "id": "2875114",
    "title": "일미만두",
    "address": "경기도 의정부시 평화로 311 (호원동)",
    "phone": "",
    "latitude": "37.7198154309",
    "longitude": "127.0470937354",
    "image": "http://tong.visitkorea.or.kr/cms/resource/03/2875103_image2_1.jpg",
    "category": "중식",
    "original_category": "한식"
  },
  {
    "id": "2859963",
    "title": "입이즐거운그만두 본점",
    "address": "충청북도 청주시 청원구 사뜸로 105",
    "phone": "",
    "latitude": "36.6705000393",
    "longitude": "127.4774287575",
    "image": "http://tong.visitkorea.or.kr/cms/resource/53/2859953_image2_1.jpg",
    "category": "중식",
    "original_category": "한식"
  },
  {
    "id": "834669",
    "title": "자하손만두",
    "address": "서울특별시 종로구 백석동길 12",
    "phone": "02-379-2648",
    "latitude": "37.5931175992",
    "longitude": "126.9660047404",
    "image": "http://tong.visitkorea.or.kr/cms/resource/52/3446752_image2_1.jpeg",
    "category": "중식",
    "original_category": "한식"
  },
  {
    "id": "2874011",
    "title": "짬뽕 순두부 초당애",
    "address": "강원특별자치도 강릉시 해안로 388",
    "phone": "",
    "latitude": "37.7969276462",
    "longitude": "128.9124527965",
    "image": "http://tong.visitkorea.or.kr/cms/resource/04/2874004_image2_1.jpg",
    "category": "중식",
    "original_category": "한식"
  },
  {
    "id": "3536274",
    "title": "초당본가짬뽕순두부",
    "address": "강원특별자치도 강릉시 초당순두부길 97 (초당동)",
    "phone": "",
    "latitude": "37.7918921824",
    "longitude": "128.9157526551",
    "image": "",
    "category": "중식",
    "original_category": "한식"
  },
  {
    "id": "2842540",
    "title": "춘보만두",
    "address": "서울특별시 노원구 섬밭로 56 (공릉동)",
    "phone": "",
    "latitude": "37.6219689266",
    "longitude": "127.0718498272",
    "image": "http://tong.visitkorea.or.kr/cms/resource/33/2842533_image2_1.jpg",
    "category": "중식",
    "original_category": "한식"
  },
  {
    "id": "2871191",
    "title": "터진만두",
    "address": "전라남도 여수시 소호로 253-1",
    "phone": "",
    "latitude": "34.7283287501",
    "longitude": "127.6415128474",
    "image": "http://tong.visitkorea.or.kr/cms/resource/67/2871167_image2_1.jpg",
    "category": "중식",
    "original_category": "한식"
  },
  {
    "id": "2782808",
    "title": "통만두집",
    "address": "전라남도 여수시 통제영4길 12 (중앙동)",
    "phone": "",
    "latitude": "34.7411428252",
    "longitude": "127.7352932089",
    "image": "",
    "category": "중식",
    "original_category": "한식"
  },
  {
    "id": "834706",
    "title": "평안도만두집",
    "address": "서울특별시 종로구 새문안로3길 30 (내수동)",
    "phone": "02-723-6592",
    "latitude": "37.5727895374",
    "longitude": "126.9732963182",
    "image": "",
    "category": "중식",
    "original_category": "한식"
  },
  {
    "id": "2830918",
    "title": "평양손만두",
    "address": "경기도 고양시 일산서구 구산로54번길 241 (가좌동)",
    "phone": "",
    "latitude": "37.6905100810",
    "longitude": "126.7131611890",
    "image": "http://tong.visitkorea.or.kr/cms/resource/12/2830912_image2_1.JPG",
    "category": "중식",
    "original_category": "한식"
  },
  {
    "id": "2678884",
    "title": "향만중식당",
    "address": "경기도 평택시 서재2길 14",
    "phone": "031-651-6077",
    "latitude": "37.0113928639",
    "longitude": "127.0958203612",
    "image": "http://tong.visitkorea.or.kr/cms/resource/53/2684253_image2_1.jpg",
    "category": "중식",
    "original_category": "한식"
  },
  {
    "id": "2805408",
    "title": "가가와",
    "address": "부산광역시 부산진구  중앙번영로 (6)",
    "phone": "",
    "latitude": "35.1448074253",
    "longitude": "129.0598281416",
    "image": "",
    "category": "중식"
  },
  {
    "id": "2910497",
    "title": "가음당 본점",
    "address": "경상남도 양산시 월리길 7",
    "phone": "",
    "latitude": "35.3189095973",
    "longitude": "129.0310008728",
    "image": "http://tong.visitkorea.or.kr/cms/resource/85/2910485_image2_1.jpeg",
    "category": "중식"
  },
  {
    "id": "2901229",
    "title": "가조쿠",
    "address": "서울특별시 성동구 연무장길 31-2 (성수동2가)",
    "phone": "",
    "latitude": "37.5432832891",
    "longitude": "127.0531343258",
    "image": "http://tong.visitkorea.or.kr/cms/resource/12/2901212_image2_1.jpg",
    "category": "중식"
  },
  {
    "id": "2912774",
    "title": "간사이",
    "address": "대전광역시 유성구 온천서로 8-13 (봉명동)",
    "phone": "",
    "latitude": "36.3550393035",
    "longitude": "127.3402552404",
    "image": "http://tong.visitkorea.or.kr/cms/resource/70/2912770_image2_1.jpg",
    "category": "중식"
  },
  {
    "id": "2869782",
    "title": "갓포아키 도산공원점",
    "address": "서울특별시 강남구 도산대로45길 8-3 쿠키빌딩",
    "phone": "",
    "latitude": "37.5230742215",
    "longitude": "127.0362419924",
    "image": "http://tong.visitkorea.or.kr/cms/resource/72/2869772_image2_1.jpg",
    "category": "중식"
  },
  {
    "id": "2869794",
    "title": "갓포준 x 에스테반",
    "address": "서울특별시 강남구 논현로163길 10 (신사동)",
    "phone": "",
    "latitude": "37.5242544800",
    "longitude": "127.0273372138",
    "image": "http://tong.visitkorea.or.kr/cms/resource/90/2869790_image2_1.jpg",
    "category": "중식"
  },
  {
    "id": "2753311",
    "title": "강성횟집",
    "address": "경상남도 거제시 일운면 지세포해안로 204",
    "phone": "",
    "latitude": "34.8315833765",
    "longitude": "128.7148776880",
    "image": "http://tong.visitkorea.or.kr/cms/resource/70/2753270_image2_1.jpg",
    "category": "중식"
  },
  {
    "id": "2900328",
    "title": "강수사",
    "address": "서울특별시 서대문구 연희로 157 (연희동)",
    "phone": "",
    "latitude": "37.5714167743",
    "longitude": "126.9342193638",
    "image": "http://tong.visitkorea.or.kr/cms/resource/18/2900318_image2_1.jpg",
    "category": "중식"
  },
  {
    "id": "2787227",
    "title": "강원수산횟집",
    "address": "강원특별자치도 평창군 미탄면 송어길 30-4",
    "phone": "",
    "latitude": "37.3430221851",
    "longitude": "128.5031423215",
    "image": "http://tong.visitkorea.or.kr/cms/resource/79/2787179_image2_1.jpg",
    "category": "중식"
  },
  {
    "id": "1604663",
    "title": "갯마을",
    "address": "전북특별자치도 남원시 향단로 9 (쌍교동)",
    "phone": "063-631-1030",
    "latitude": "35.4041426530",
    "longitude": "127.3823655614",
    "image": "",
    "category": "중식"
  },
  {
    "id": "2756595",
    "title": "거제보재기집",
    "address": "경상남도 거제시 일운면 지세포해안로 175",
    "phone": "",
    "latitude": "34.8307667500",
    "longitude": "128.7120335123",
    "image": "",
    "category": "중식"
  },
  {
    "id": "2841866",
    "title": "경방식당",
    "address": "인천광역시 서구 옥빛로7번안길 3 (청라동)",
    "phone": "",
    "latitude": "37.5255278355",
    "longitude": "126.6313649497",
    "image": "http://tong.visitkorea.or.kr/cms/resource/52/2841852_image2_1.jpg",
    "category": "중식"
  },
  {
    "id": "2757541",
    "title": "계정횟집",
    "address": "경기도 양평군 양동면 양서북로 666-13",
    "phone": "",
    "latitude": "37.4691272751",
    "longitude": "127.7743959839",
    "image": "http://tong.visitkorea.or.kr/cms/resource/10/2757710_image2_1.jpg",
    "category": "중식"
  },
  {
    "id": "3355978",
    "title": "고맙다바다야",
    "address": "전라남도 목포시 청호로219번길 48-16 (산정동)",
    "phone": "",
    "latitude": "34.8075122936",
    "longitude": "126.3651897921",
    "image": "http://tong.visitkorea.or.kr/cms/resource/62/3423362_image2_1.jpg",
    "category": "중식"
  },
  {
    "id": "2850586",
    "title": "고미텐",
    "address": "대구광역시 수성구 동원로 6 (만촌동)",
    "phone": "",
    "latitude": "35.8594914514",
    "longitude": "128.6405506611",
    "image": "http://tong.visitkorea.or.kr/cms/resource/85/2850585_image2_1.png",
    "category": "중식"
  },
  {
    "id": "2893574",
    "title": "고센 주엽본점",
    "address": "경기도 고양시 일산서구 중앙로 1493 (주엽동, 문촌마을12단지아파트)",
    "phone": "",
    "latitude": "37.6727240076",
    "longitude": "126.7549523133",
    "image": "http://tong.visitkorea.or.kr/cms/resource/70/2893570_image2_1.jpg",
    "category": "중식"
  },
  {
    "id": "2873219",
    "title": "고스이",
    "address": "경기도 고양시 일산동구 호수로 640 (장항동)",
    "phone": "",
    "latitude": "37.6592924590",
    "longitude": "126.7673571139",
    "image": "http://tong.visitkorea.or.kr/cms/resource/05/2873205_image2_1.jpg",
    "category": "중식"
  },
  {
    "id": "2844402",
    "title": "고우시 동탄점",
    "address": "경기도 화성시 동탄대로 537 (오산동)",
    "phone": "",
    "latitude": "37.2022736233",
    "longitude": "127.0979398590",
    "image": "http://tong.visitkorea.or.kr/cms/resource/01/2844401_image2_1.jpg",
    "category": "중식"
  },
  {
    "id": "2912798",
    "title": "고치소사마",
    "address": "대전광역시 유성구 온천동로65번길 26 (봉명동)",
    "phone": "",
    "latitude": "36.3573531269",
    "longitude": "127.3514958385",
    "image": "http://tong.visitkorea.or.kr/cms/resource/84/2912784_image2_1.jpg",
    "category": "중식"
  },
  {
    "id": "2785272",
    "title": "고향연화",
    "address": "부산광역시 기장군 기장읍 연화길 33-8",
    "phone": "",
    "latitude": "35.2172384782",
    "longitude": "129.2245979306",
    "image": "http://tong.visitkorea.or.kr/cms/resource/82/2785282_image2_1.jpg",
    "category": "중식"
  },
  {
    "id": "2833453",
    "title": "골드문참치",
    "address": "충청남도 천안시 서북구 성정동",
    "phone": "",
    "latitude": "36.8251484142",
    "longitude": "127.1377161603",
    "image": "",
    "category": "중식"
  },
  {
    "id": "2844415",
    "title": "교다이",
    "address": "경기도 김포시 김포한강1로84번길 14 (장기동)",
    "phone": "",
    "latitude": "37.6452618266",
    "longitude": "126.6711301931",
    "image": "http://tong.visitkorea.or.kr/cms/resource/11/2844411_image2_1.jpg",
    "category": "중식"
  },
  {
    "id": "2853890",
    "title": "교다이야",
    "address": "서울특별시 마포구 성지길 39 (합정동)",
    "phone": "",
    "latitude": "37.5469081365",
    "longitude": "126.9132191921",
    "image": "http://tong.visitkorea.or.kr/cms/resource/83/2853883_image2_1.jpg",
    "category": "중식"
  },
  {
    "id": "2873498",
    "title": "구로마쯔",
    "address": "부산광역시 해운대구 송정광어골로 41 (송정동)",
    "phone": "",
    "latitude": "35.1774729774",
    "longitude": "129.1971986315",
    "image": "http://tong.visitkorea.or.kr/cms/resource/87/2873487_image2_1.jpg",
    "category": "중식"
  },
  {
    "id": "2856976",
    "title": "권가제면소",
    "address": "충청북도 청주시 서원구 두꺼비로94번길 4-21",
    "phone": "",
    "latitude": "36.6118926502",
    "longitude": "127.4648453943",
    "image": "http://tong.visitkorea.or.kr/cms/resource/60/2856960_image2_1.jpg",
    "category": "중식"
  },
  {
    "id": "2856546",
    "title": "금성제면소",
    "address": "충청북도 제천시 청풍호로 991",
    "phone": "",
    "latitude": "37.0666865945",
    "longitude": "128.1683499631",
    "image": "http://tong.visitkorea.or.kr/cms/resource/43/2856543_image2_1.jpg",
    "category": "중식"
  },
  {
    "id": "2844739",
    "title": "금정참치 본점",
    "address": "경기도 수원시 권선구 서수원로523번길 20-8 (금곡동)",
    "phone": "",
    "latitude": "37.2724074569",
    "longitude": "126.9583088998",
    "image": "http://tong.visitkorea.or.kr/cms/resource/35/2844735_image2_1.jpg",
    "category": "중식"
  },
  {
    "id": "2766957",
    "title": "기리",
    "address": "대구광역시 수성구 달구벌대로492길 27",
    "phone": "",
    "latitude": "35.8572332382",
    "longitude": "128.6332152585",
    "image": "",
    "category": "중식"
  },
  {
    "id": "1927269",
    "title": "기시맹",
    "address": "대전광역시 유성구 어은로52번길 1",
    "phone": "",
    "latitude": "36.3633636537",
    "longitude": "127.3573368199",
    "image": "http://tong.visitkorea.or.kr/cms/resource/19/3062519_image2_1.JPG",
    "category": "중식"
  },
  {
    "id": "2901568",
    "title": "기후",
    "address": "서울특별시 성동구 성수이로 66 서울숲 드림타워",
    "phone": "",
    "latitude": "37.5406725356",
    "longitude": "127.0561480144",
    "image": "http://tong.visitkorea.or.kr/cms/resource/59/2901559_image2_1.jpg",
    "category": "중식"
  },
  {
    "id": "134461",
    "title": "길조",
    "address": "경기도 양평군 강상면 독배길 32-25",
    "phone": "",
    "latitude": "37.4937133364",
    "longitude": "127.4736280793",
    "image": "",
    "category": "중식"
  },
  {
    "id": "2871497",
    "title": "김수사",
    "address": "서울특별시 강남구 도산대로12길 7 (논현동)",
    "phone": "",
    "latitude": "37.5172691162",
    "longitude": "127.0237710695",
    "image": "http://tong.visitkorea.or.kr/cms/resource/82/2871482_image2_1.jpg",
    "category": "중식"
  },
  {
    "id": "2765224",
    "title": "김초생초",
    "address": "경기도 성남시 분당구 대왕판교로 255",
    "phone": "",
    "latitude": "37.3665157733",
    "longitude": "127.1011071842",
    "image": "http://tong.visitkorea.or.kr/cms/resource/99/2765299_image2_1.jpg",
    "category": "중식"
  },
  {
    "id": "2624898",
    "title": "까사빠보(구 호무랑)",
    "address": "서울특별시 중구 소공로 63",
    "phone": "02-310-5169",
    "latitude": "37.5609438324",
    "longitude": "126.9811237176",
    "image": "",
    "category": "중식"
  },
  {
    "id": "2786098",
    "title": "꽃님",
    "address": "경상남도 하동군 화개면 원탑1길 35",
    "phone": "",
    "latitude": "35.1897960757",
    "longitude": "127.6254718915",
    "image": "http://tong.visitkorea.or.kr/cms/resource/57/2792457_image2_1.JPG",
    "category": "중식"
  },
  {
    "id": "2574193",
    "title": "꽃마름샤브샤브",
    "address": "울산광역시 중구 강북로 123",
    "phone": "052-212-3318",
    "latitude": "35.5531665126",
    "longitude": "129.3230410923",
    "image": "",
    "category": "중식"
  },
  {
    "id": "2860544",
    "title": "꽃비본점",
    "address": "충청남도 천안시 서북구 노태산로 86",
    "phone": "",
    "latitude": "36.8324640602",
    "longitude": "127.1276807531",
    "image": "http://tong.visitkorea.or.kr/cms/resource/34/2860534_image2_1.jpg",
    "category": "중식"
  },
  {
    "id": "2859101",
    "title": "나가하마만게츠",
    "address": "부산광역시 해운대구 우동1로 57 (우동)",
    "phone": "",
    "latitude": "35.1667289995",
    "longitude": "129.1574801581",
    "image": "http://tong.visitkorea.or.kr/cms/resource/85/2859085_image2_1.jpg",
    "category": "중식"
  },
  {
    "id": "135480",
    "title": "나고야",
    "address": "경기도 이천시 마장면 덕평로 713",
    "phone": "",
    "latitude": "37.2227733692",
    "longitude": "127.3699674303",
    "image": "",
    "category": "중식"
  },
  {
    "id": "2866716",
    "title": "나마미 돈카츠",
    "address": "대전광역시 유성구 관평1로 52 (관평동)",
    "phone": "",
    "latitude": "36.4240850691",
    "longitude": "127.3904294300",
    "image": "http://tong.visitkorea.or.kr/cms/resource/05/2866705_image2_1.jpg",
    "category": "중식"
  },
  {
    "id": "2787294",
    "title": "남우수산횟집",
    "address": "강원특별자치도 평창군 용평면 운두령로 714-52",
    "phone": "",
    "latitude": "37.6876678507",
    "longitude": "128.4700516063",
    "image": "http://tong.visitkorea.or.kr/cms/resource/70/2787270_image2_1.jpg",
    "category": "중식"
  },
  {
    "id": "2853837",
    "title": "남해바다",
    "address": "서울특별시 마포구 토정로37길 46 (도화동, 정우맨션)",
    "phone": "",
    "latitude": "37.5423120561",
    "longitude": "126.9471967812",
    "image": "http://tong.visitkorea.or.kr/cms/resource/27/2853827_image2_1.jpg",
    "category": "중식"
  },
  {
    "id": "839617",
    "title": "내안에",
    "address": "대구광역시 수성구 무학로 85",
    "phone": "053-766-0760",
    "latitude": "35.8301665753",
    "longitude": "128.6179395792",
    "image": "http://tong.visitkorea.or.kr/cms/resource/62/1896962_image2_1.jpg",
    "category": "중식"
  },
  {
    "id": "2870254",
    "title": "네기다이닝라운지",
    "address": "서울특별시 강남구 도산대로15길 18 (신사동)",
    "phone": "",
    "latitude": "37.5195355246",
    "longitude": "127.0240543130",
    "image": "http://tong.visitkorea.or.kr/cms/resource/46/2870246_image2_1.jpg",
    "category": "중식"
  },
  {
    "id": "135423",
    "title": "니와",
    "address": "서울특별시 용산구 이촌로75길 22",
    "phone": "02-790-0917",
    "latitude": "37.5207650483",
    "longitude": "126.9744949024",
    "image": "",
    "category": "중식"
  },
  {
    "id": "2929644",
    "title": "니지텐",
    "address": "경상남도 통영시 봉수로 60 호진상사",
    "phone": "",
    "latitude": "34.8261536089",
    "longitude": "128.4155816458",
    "image": "http://tong.visitkorea.or.kr/cms/resource/01/2929601_image2_1.jpg",
    "category": "중식"
  },
  {
    "id": "2402940",
    "title": "다온",
    "address": "부산광역시 남구 수영로334번길 6 (대연동)",
    "phone": "051-611-7742",
    "latitude": "35.1381006273",
    "longitude": "129.1023024087",
    "image": "",
    "category": "중식"
  },
  {
    "id": "2904982",
    "title": "다이도",
    "address": "전북특별자치도 군산시 번영로 121",
    "phone": "",
    "latitude": "35.9678563188",
    "longitude": "126.7334947636",
    "image": "http://tong.visitkorea.or.kr/cms/resource/74/2904974_image2_1.jpg",
    "category": "중식"
  },
  {
    "id": "2925197",
    "title": "다이호시",
    "address": "경기도 성남시 분당구 판교역로10번길 6 (백현동)",
    "phone": "",
    "latitude": "37.3841389208",
    "longitude": "127.1117446100",
    "image": "http://tong.visitkorea.or.kr/cms/resource/90/2925190_image2_1.jpg",
    "category": "중식"
  },
  {
    "id": "2849353",
    "title": "단디",
    "address": "서울특별시 송파구 백제고분로45길 7",
    "phone": "",
    "latitude": "37.5092743794",
    "longitude": "127.1103439731",
    "image": "",
    "category": "중식"
  },
  {
    "id": "2839215",
    "title": "담박집",
    "address": "경상북도 포항시 남구 효자동길10번길 33",
    "phone": "",
    "latitude": "36.0092902775",
    "longitude": "129.3333049637",
    "image": "http://tong.visitkorea.or.kr/cms/resource/06/2839206_image2_1.png",
    "category": "중식"
  },
  {
    "id": "2861372",
    "title": "당포로나인 돈카츠",
    "address": "제주특별자치도 서귀포시 표선면 표선당포로 9",
    "phone": "",
    "latitude": "33.3257880323",
    "longitude": "126.8435882289",
    "image": "http://tong.visitkorea.or.kr/cms/resource/65/2861365_image2_1.JPG",
    "category": "중식"
  },
  {
    "id": "2775513",
    "title": "대영유통",
    "address": "강원특별자치도 강릉시 주문진읍 해안로 1767",
    "phone": "",
    "latitude": "37.8929037895",
    "longitude": "128.8288268060",
    "image": "",
    "category": "중식"
  },
  {
    "id": "2845772",
    "title": "대쿠이 본점",
    "address": "대구광역시 남구 중앙대로51길 38-2 (대명동)",
    "phone": "",
    "latitude": "35.8563908424",
    "longitude": "128.5885164406",
    "image": "http://tong.visitkorea.or.kr/cms/resource/59/2845759_image2_1.jpg",
    "category": "중식"
  },
  {
    "id": "2906109",
    "title": "대판1985",
    "address": "인천광역시 연수구 인천타워대로180번길 11 (송도동, 더샵송도센트럴파크Ⅲ)",
    "phone": "",
    "latitude": "37.3887883091",
    "longitude": "126.6392208049",
    "image": "http://tong.visitkorea.or.kr/cms/resource/91/2906091_image2_1.jpg",
    "category": "중식"
  },
  {
    "id": "2841871",
    "title": "도톰카츠 청라점",
    "address": "인천광역시 서구 청라커낼로223번길 5 (청라동)",
    "phone": "",
    "latitude": "37.5283527319",
    "longitude": "126.6440970414",
    "image": "http://tong.visitkorea.or.kr/cms/resource/69/2841869_image2_1.jpg",
    "category": "중식"
  },
  {
    "id": "2847571",
    "title": "돈카츠인정",
    "address": "서울특별시 강서구 마곡중앙4로 22 파인스퀘어",
    "phone": "",
    "latitude": "37.5583330873",
    "longitude": "126.8293043003",
    "image": "",
    "category": "중식"
  },
  {
    "id": "2736719",
    "title": "돌고래횟집",
    "address": "경상북도 경주시 감포읍 동해안로 1888-10",
    "phone": "",
    "latitude": "35.7762085552",
    "longitude": "129.4950197321",
    "image": "http://tong.visitkorea.or.kr/cms/resource/90/2736990_image2_1.jpg",
    "category": "중식"
  },
  {
    "id": "2932740",
    "title": "동경",
    "address": "서울특별시 마포구 마포대로 49 성우빌딩",
    "phone": "",
    "latitude": "37.5409233235",
    "longitude": "126.9469107357",
    "image": "",
    "category": "중식"
  },
  {
    "id": "2831897",
    "title": "동광알탕",
    "address": "경상북도 구미시 1공단로7길 86-9",
    "phone": "",
    "latitude": "36.1100109887",
    "longitude": "128.3784556988",
    "image": "http://tong.visitkorea.or.kr/cms/resource/89/2831889_image2_1.jpg",
    "category": "중식"
  },
  {
    "id": "2377647",
    "title": "동신참치",
    "address": "부산광역시 동래구 온천장로 69 (온천동)",
    "phone": "051-553-3511",
    "latitude": "35.2175802357",
    "longitude": "129.0818103449",
    "image": "http://tong.visitkorea.or.kr/cms/resource/44/2377644_image2_1.jpg",
    "category": "중식"
  },
  {
    "id": "2788820",
    "title": "동해도 광화문",
    "address": "서울특별시 중구 무교로 28 (무교동)",
    "phone": "",
    "latitude": "37.5685207019",
    "longitude": "126.9795986426",
    "image": "http://tong.visitkorea.or.kr/cms/resource/32/2789532_image2_1.jpg",
    "category": "중식"
  },
  {
    "id": "2850152",
    "title": "동해도 본점",
    "address": "서울특별시 영등포구 은행로 25 (여의도동)",
    "phone": "",
    "latitude": "37.5287492815",
    "longitude": "126.9213967368",
    "image": "http://tong.visitkorea.or.kr/cms/resource/33/2850133_image2_1.jpg",
    "category": "중식"
  },
  {
    "id": "2562475",
    "title": "동해미락",
    "address": "제주특별자치도 서귀포시 칠십리로 133",
    "phone": "064-733-5921",
    "latitude": "33.2436426968",
    "longitude": "126.5682722641",
    "image": "http://tong.visitkorea.or.kr/cms/resource/74/2562474_image2_1.jpg",
    "category": "중식"
  },
  {
    "id": "1592598",
    "title": "동해안",
    "address": "전북특별자치도 익산시 배산로 71-4",
    "phone": "063-858-1366",
    "latitude": "35.9444375045",
    "longitude": "126.9380409870",
    "image": "",
    "category": "중식"
  },
  {
    "id": "2736706",
    "title": "동해안횟집펜션",
    "address": "경상북도 영덕군 남정면 동해대로 4198-5",
    "phone": "",
    "latitude": "36.3330405878",
    "longitude": "129.3790887389",
    "image": "http://tong.visitkorea.or.kr/cms/resource/13/2737013_image2_1.jpg",
    "category": "중식"
  },
  {
    "id": "2840856",
    "title": "두모리이수사",
    "address": "제주특별자치도 제주시 한경면 두신로 112",
    "phone": "",
    "latitude": "33.3526162874",
    "longitude": "126.1848670034",
    "image": "http://tong.visitkorea.or.kr/cms/resource/45/2840845_image2_1.jpg",
    "category": "중식"
  },
  {
    "id": "2572979",
    "title": "들물횟집",
    "address": "경상남도 통영시 산양읍 산양일주로 292",
    "phone": "055-645-4798",
    "latitude": "34.8016038497",
    "longitude": "128.4309698393",
    "image": "",
    "category": "중식"
  },
  {
    "id": "2939587",
    "title": "라임",
    "address": "서울특별시 서대문구 연세로4길 41",
    "phone": "",
    "latitude": "37.5580711846",
    "longitude": "126.9387554383",
    "image": "",
    "category": "중식"
  },
  {
    "id": "2853195",
    "title": "라키 다산점",
    "address": "경기도 남양주시 다산중앙로82번안길 103 (다산동)",
    "phone": "",
    "latitude": "37.6133577231",
    "longitude": "127.1650415828",
    "image": "http://tong.visitkorea.or.kr/cms/resource/91/2853191_image2_1.jpg",
    "category": "중식"
  },
  {
    "id": "2862253",
    "title": "랍다횟집",
    "address": "경기도 파주시 청암로48번길 16-22 (목동동)",
    "phone": "",
    "latitude": "37.7323417366",
    "longitude": "126.7366800799",
    "image": "",
    "category": "중식"
  },
  {
    "id": "2910930",
    "title": "래용",
    "address": "제주특별자치도 제주시 우정로 17 제웅1차솔내음빌리지",
    "phone": "",
    "latitude": "33.4912409352",
    "longitude": "126.4311758095",
    "image": "http://tong.visitkorea.or.kr/cms/resource/13/2910913_image2_1.jpg",
    "category": "중식"
  },
  {
    "id": "839644",
    "title": "련",
    "address": "대구광역시 북구 동천로 128-15",
    "phone": "053-313-8889",
    "latitude": "35.9428500147",
    "longitude": "128.5624746617",
    "image": "http://tong.visitkorea.or.kr/cms/resource/45/1893745_image2_1.jpg",
    "category": "중식"
  },
  {
    "id": "2862210",
    "title": "로이식당",
    "address": "경기도 하남시 미사강변북로30번길 75 (망월동)",
    "phone": "",
    "latitude": "37.5686215865",
    "longitude": "127.1834272990",
    "image": "http://tong.visitkorea.or.kr/cms/resource/06/2862206_image2_1.jpg",
    "category": "중식"
  },
  {
    "id": "2895179",
    "title": "록멘",
    "address": "서울특별시 성동구 성수일로3길 2 (성수동1가)",
    "phone": "",
    "latitude": "37.5421611148",
    "longitude": "127.0485653291",
    "image": "http://tong.visitkorea.or.kr/cms/resource/47/2895147_image2_1.jpg",
    "category": "중식"
  },
  {
    "id": "2839014",
    "title": "료미",
    "address": "경상북도 경주시 포석로 1058-1",
    "phone": "",
    "latitude": "35.8355575634",
    "longitude": "129.2097707751",
    "image": "http://tong.visitkorea.or.kr/cms/resource/02/2839002_image2_1.jpg",
    "category": "중식"
  },
  {
    "id": "2839062",
    "title": "료코",
    "address": "경상북도 경주시 첨성로99번길 24",
    "phone": "",
    "latitude": "35.8353298680",
    "longitude": "129.2127677414",
    "image": "http://tong.visitkorea.or.kr/cms/resource/52/2839052_image2_1.jpg",
    "category": "중식"
  },
  {
    "id": "2891814",
    "title": "류센소 본점",
    "address": "부산광역시 해운대구 구남로8번길 62",
    "phone": "",
    "latitude": "35.1616267696",
    "longitude": "129.1562304075",
    "image": "http://tong.visitkorea.or.kr/cms/resource/03/2891803_image2_1.jpg",
    "category": "중식"
  },
  {
    "id": "2869105",
    "title": "리애",
    "address": "서울특별시 강남구 선릉로16길 6",
    "phone": "",
    "latitude": "37.4838569819",
    "longitude": "127.0601075967",
    "image": "http://tong.visitkorea.or.kr/cms/resource/06/2869106_image2_1.JPG",
    "category": "중식"
  },
  {
    "id": "2856413",
    "title": "마구로센 한남점",
    "address": "서울특별시 용산구 대사관로31길 24 (한남동)",
    "phone": "",
    "latitude": "37.5343918088",
    "longitude": "127.0060610870",
    "image": "http://tong.visitkorea.or.kr/cms/resource/37/3572037_image2_1.jpg",
    "category": "중식"
  },
  {
    "id": "2878142",
    "title": "마니온",
    "address": "인천광역시 강화군 길상면 보리고개로89번길 10",
    "phone": "",
    "latitude": "37.6232082243",
    "longitude": "126.4789456107",
    "image": "http://tong.visitkorea.or.kr/cms/resource/38/2878138_image2_1.jpg",
    "category": "중식"
  },
  {
    "id": "2851992",
    "title": "마니주",
    "address": "제주특별자치도 제주시 광령2길 102",
    "phone": "",
    "latitude": "33.4512036648",
    "longitude": "126.4288713573",
    "image": "",
    "category": "중식"
  },
  {
    "id": "3356265",
    "title": "마루샤브 광교신도시점",
    "address": "경기도 용인시 수지구 광교마을로 35 (상현동)",
    "phone": "",
    "latitude": "37.2991952164",
    "longitude": "127.0688231190",
    "image": "http://tong.visitkorea.or.kr/cms/resource/12/3426312_image2_1.jpg",
    "category": "중식"
  },
  {
    "id": "2733964",
    "title": "마루심",
    "address": "서울특별시 서초구 고무래로10길 10",
    "phone": "",
    "latitude": "37.5019456569",
    "longitude": "127.0104977111",
    "image": "http://tong.visitkorea.or.kr/cms/resource/94/2779894_image2_1.jpg",
    "category": "중식"
  },
  {
    "id": "2624690",
    "title": "마쯔야",
    "address": "서울특별시 중구 소공로 63",
    "phone": "02-310-5038",
    "latitude": "37.5609438324",
    "longitude": "126.9811237176",
    "image": "",
    "category": "중식"
  },
  {
    "id": "2745738",
    "title": "마초",
    "address": "경기도 수원시 팔달구 권광로196번길 51 (인계동)",
    "phone": "",
    "latitude": "37.2645347568",
    "longitude": "127.0361464992",
    "image": "http://tong.visitkorea.or.kr/cms/resource/06/2746006_image2_1.jpg",
    "category": "중식"
  },
  {
    "id": "2831041",
    "title": "만돈",
    "address": "경기도 고양시 일산동구 정발산로 24 (장항동)",
    "phone": "",
    "latitude": "37.6565206379",
    "longitude": "126.7717512351",
    "image": "http://tong.visitkorea.or.kr/cms/resource/35/2831035_image2_1.jpg",
    "category": "중식"
  },
  {
    "id": "1883622",
    "title": "만부정",
    "address": "제주특별자치도 제주시 사장길 38",
    "phone": "064-743-1119",
    "latitude": "33.4826040098",
    "longitude": "126.4945566049",
    "image": "http://tong.visitkorea.or.kr/cms/resource/99/3396599_image2_1.jpg",
    "category": "중식"
  },
  {
    "id": "2781427",
    "title": "만지식당",
    "address": "제주특별자치도 제주시 애월읍 고내로 13-1",
    "phone": "",
    "latitude": "33.4633147917",
    "longitude": "126.3390761161",
    "image": "http://tong.visitkorea.or.kr/cms/resource/77/2795477_image2_1.jpg",
    "category": "중식"
  },
  {
    "id": "2775525",
    "title": "메시56",
    "address": "강원특별자치도 강릉시 초당순두부길 56",
    "phone": "",
    "latitude": "37.7883397936",
    "longitude": "128.9146223115",
    "image": "",
    "category": "중식"
  },
  {
    "id": "2846649",
    "title": "멘야고코로",
    "address": "경기도 수원시 영통구 월드컵로179번길 16 (원천동)",
    "phone": "",
    "latitude": "37.2780055845",
    "longitude": "127.0453980605",
    "image": "http://tong.visitkorea.or.kr/cms/resource/38/2846638_image2_1.jpg",
    "category": "중식"
  },
  {
    "id": "2844971",
    "title": "멘야하나비",
    "address": "서울특별시 송파구 백제고분로45길 38 (송파동)",
    "phone": "",
    "latitude": "37.5109713579",
    "longitude": "127.1077413832",
    "image": "http://tong.visitkorea.or.kr/cms/resource/61/2844961_image2_1.jpg",
    "category": "중식"
  },
  {
    "id": "398339",
    "title": "명동돈가스",
    "address": "서울특별시 중구 명동3길 8",
    "phone": "02-776-5300, 02-775-5300",
    "latitude": "37.5640101870",
    "longitude": "126.9835761856",
    "image": "http://tong.visitkorea.or.kr/cms/resource/34/1717734_image2_1.jpg",
    "category": "중식"
  },
  {
    "id": "2906224",
    "title": "명월카츠",
    "address": "인천광역시 연수구 해돋이로 160-6 (송도동)",
    "phone": "",
    "latitude": "37.3949210566",
    "longitude": "126.6464088688",
    "image": "http://tong.visitkorea.or.kr/cms/resource/13/2906213_image2_1.jpg",
    "category": "중식"
  },
  {
    "id": "2818722",
    "title": "모루쿠다",
    "address": "제주특별자치도 서귀포시 태평로431번길 32",
    "phone": "",
    "latitude": "33.2483282576",
    "longitude": "126.5661834509",
    "image": "",
    "category": "중식"
  },
  {
    "id": "2875630",
    "title": "모리",
    "address": "인천광역시 중구 운중로48번길 66-5 (운남동)",
    "phone": "",
    "latitude": "37.4873278382",
    "longitude": "126.5370079594",
    "image": "http://tong.visitkorea.or.kr/cms/resource/20/2875620_image2_1.jpg",
    "category": "중식"
  },
  {
    "id": "821101",
    "title": "모미지",
    "address": "충청남도 천안시 서북구 서부대로 427",
    "phone": "041-592-0020",
    "latitude": "36.8057643552",
    "longitude": "127.1275898273",
    "image": "",
    "category": "중식"
  },
  {
    "id": "2685485",
    "title": "몰타참치",
    "address": "서울특별시 강남구 삼성로85길 26",
    "phone": "02-508-7861",
    "latitude": "37.5050238783",
    "longitude": "127.0550713449",
    "image": "http://tong.visitkorea.or.kr/cms/resource/05/2684705_image2_1.jpg",
    "category": "중식"
  },
  {
    "id": "2893667",
    "title": "무라",
    "address": "경상남도 양산시 양산역9길 5 송림타워",
    "phone": "",
    "latitude": "35.3375546819",
    "longitude": "129.0285700152",
    "image": "http://tong.visitkorea.or.kr/cms/resource/95/2893395_image2_1.jpg",
    "category": "중식"
  },
  {
    "id": "2914327",
    "title": "무라텐",
    "address": "대전광역시 유성구 반석동로40번길 90 (반석동)",
    "phone": "",
    "latitude": "36.3898182196",
    "longitude": "127.3155981714",
    "image": "http://tong.visitkorea.or.kr/cms/resource/16/2914316_image2_1.jpg",
    "category": "중식"
  },
  {
    "id": "2858612",
    "title": "문쏘 제주협재점",
    "address": "제주특별자치도 제주시 한림상로 15-5",
    "phone": "",
    "latitude": "33.4057282066",
    "longitude": "126.2569178869",
    "image": "http://tong.visitkorea.or.kr/cms/resource/85/2858585_image2_1.jpg",
    "category": "중식"
  },
  {
    "id": "2925121",
    "title": "물고기자리",
    "address": "전북특별자치도 군산시 비응남로 5",
    "phone": "",
    "latitude": "35.9358453225",
    "longitude": "126.5255253043",
    "image": "http://tong.visitkorea.or.kr/cms/resource/14/2925114_image2_1.jpg",
    "category": "중식"
  },
  {
    "id": "2902070",
    "title": "물노리",
    "address": "전라남도 화순군 원화길 68-23",
    "phone": "",
    "latitude": "35.0335152997",
    "longitude": "126.9091417719",
    "image": "http://tong.visitkorea.or.kr/cms/resource/66/2902066_image2_1.jpg",
    "category": "중식"
  },
  {
    "id": "2906252",
    "title": "미나모토",
    "address": "인천광역시 연수구 컨벤시아대로 70 (송도동, 인천송도힐스테이트)",
    "phone": "",
    "latitude": "37.3963209606",
    "longitude": "126.6502029286",
    "image": "http://tong.visitkorea.or.kr/cms/resource/35/2906235_image2_1.jpg",
    "category": "중식"
  },
  {
    "id": "2864321",
    "title": "미나미",
    "address": "서울특별시 서초구 서초대로58길 31-2 (서초동)",
    "phone": "",
    "latitude": "37.4933912319",
    "longitude": "127.0181361469",
    "image": "http://tong.visitkorea.or.kr/cms/resource/13/2864313_image2_1.jpg",
    "category": "중식"
  },
  {
    "id": "2853965",
    "title": "미나미야마 본점",
    "address": "서울특별시 중구 소파로 105",
    "phone": "",
    "latitude": "37.5573026750",
    "longitude": "126.9859344939",
    "image": "http://tong.visitkorea.or.kr/cms/resource/51/2853951_image2_1.jpg",
    "category": "중식"
  },
  {
    "id": "2867393",
    "title": "미나미참치",
    "address": "경기도 수원시 팔달구 효원로307번길 61 장성빌딩",
    "phone": "",
    "latitude": "37.2637709577",
    "longitude": "127.0362215139",
    "image": "http://tong.visitkorea.or.kr/cms/resource/83/2867383_image2_1.jpg",
    "category": "중식"
  },
  {
    "id": "2573244",
    "title": "미담",
    "address": "경상남도 통영시 장좌로 104",
    "phone": "055-646-4563",
    "latitude": "34.8401940085",
    "longitude": "128.4325381336",
    "image": "",
    "category": "중식"
  },
  {
    "id": "2865914",
    "title": "미세노센세",
    "address": "대전광역시 서구 계룡로553번안길 65 (탄방동)",
    "phone": "",
    "latitude": "36.3461550716",
    "longitude": "127.3888955744",
    "image": "http://tong.visitkorea.or.kr/cms/resource/05/2865905_image2_1.jpg",
    "category": "중식"
  },
  {
    "id": "2763742",
    "title": "미우야",
    "address": "서울특별시 서초구 강남대로23길 90",
    "phone": "",
    "latitude": "37.4740882270",
    "longitude": "127.0353962329",
    "image": "",
    "category": "중식"
  },
  {
    "id": "2840469",
    "title": "미친부엌",
    "address": "제주특별자치도 제주시 탑동로 15 (삼도이동)",
    "phone": "",
    "latitude": "33.5170284317",
    "longitude": "126.5231672257",
    "image": "http://tong.visitkorea.or.kr/cms/resource/54/2840454_image2_1.jpg",
    "category": "중식"
  },
  {
    "id": "2850112",
    "title": "민수사",
    "address": "대구광역시 수성구 들안로 19 (상동)",
    "phone": "",
    "latitude": "35.8315469425",
    "longitude": "128.6162369127",
    "image": "http://tong.visitkorea.or.kr/cms/resource/96/2850096_image2_1.jpg",
    "category": "중식"
  },
  {
    "id": "403598",
    "title": "민쿡다시마",
    "address": "경기도 고양시 덕양구 화신로260번길 37 (화정동)",
    "phone": "031-978-3236",
    "latitude": "37.6325384026",
    "longitude": "126.8325463582",
    "image": "http://tong.visitkorea.or.kr/cms/resource/76/2948776_image2_1.jpg",
    "category": "중식"
  },
  {
    "id": "2573376",
    "title": "바다소리횟집",
    "address": "경상남도 통영시 통영해안로 203",
    "phone": "055-645-3783",
    "latitude": "34.8405131628",
    "longitude": "128.4182838113",
    "image": "",
    "category": "중식"
  },
  {
    "id": "2738016",
    "title": "바다원해",
    "address": "경상북도 포항시 북구 해안로 397 (환호동)",
    "phone": "",
    "latitude": "36.0701096990",
    "longitude": "129.4014416694",
    "image": "http://tong.visitkorea.or.kr/cms/resource/96/2738096_image2_1.jpg",
    "category": "중식"
  },
  {
    "id": "2573399",
    "title": "바다향기횟집",
    "address": "경상남도 통영시 광도면 죽림해안로 36",
    "phone": "055-646-2100",
    "latitude": "34.8872107574",
    "longitude": "128.4205490522",
    "image": "",
    "category": "중식"
  },
  {
    "id": "2906273",
    "title": "바자라",
    "address": "경상남도 김해시 대동면 신동안길 26",
    "phone": "",
    "latitude": "35.2514331943",
    "longitude": "128.9963474152",
    "image": "http://tong.visitkorea.or.kr/cms/resource/64/2906264_image2_1.JPG",
    "category": "중식"
  },
  {
    "id": "838949",
    "title": "배정철 어도",
    "address": "서울특별시 강남구 언주로148길 14",
    "phone": "02-548-7766",
    "latitude": "37.5206189497",
    "longitude": "127.0361670686",
    "image": "",
    "category": "중식"
  },
  {
    "id": "644428",
    "title": "백천선어마을",
    "address": "전라남도 여수시 공화남2길 2",
    "phone": "061-663-8252",
    "latitude": "34.7491114842",
    "longitude": "127.7414535793",
    "image": "",
    "category": "중식"
  },
  {
    "id": "2687856",
    "title": "뱃노리횟집",
    "address": "강원특별자치도 원주시 양지뜰4길 31",
    "phone": "033-731-6860",
    "latitude": "37.3264920929",
    "longitude": "127.9834840325",
    "image": "http://tong.visitkorea.or.kr/cms/resource/09/2701309_image2_1.jpg",
    "category": "중식"
  },
  {
    "id": "2768089",
    "title": "보광호횟집",
    "address": "인천광역시 강화군 길상면 해안남로619번길 21",
    "phone": "",
    "latitude": "37.5983614268",
    "longitude": "126.4964780307",
    "image": "",
    "category": "중식"
  },
  {
    "id": "2854555",
    "title": "보름달",
    "address": "경상남도 김해시 율하카페길 71-13",
    "phone": "",
    "latitude": "35.1769853798",
    "longitude": "128.8120905085",
    "image": "http://tong.visitkorea.or.kr/cms/resource/43/2854543_image2_1.JPG",
    "category": "중식"
  },
  {
    "id": "2836437",
    "title": "본참치",
    "address": "부산광역시 중구 해관로 73",
    "phone": "",
    "latitude": "35.1055141495",
    "longitude": "129.0352730173",
    "image": "http://tong.visitkorea.or.kr/cms/resource/33/2836433_image2_1.jpg",
    "category": "중식"
  },
  {
    "id": "2563373",
    "title": "부산복집",
    "address": "서울특별시 중구 수표로2길 25",
    "phone": "02-2266-6334",
    "latitude": "37.5623022014",
    "longitude": "126.9919143631",
    "image": "",
    "category": "중식"
  },
  {
    "id": "2861958",
    "title": "부센동",
    "address": "부산광역시 수영구 수영로588번길 7 (광안동, 광안 협성엠파이어Ⅱ)",
    "phone": "",
    "latitude": "35.1583902331",
    "longitude": "129.1136786414",
    "image": "",
    "category": "중식"
  },
  {
    "id": "2899586",
    "title": "부온",
    "address": "제주특별자치도 제주시 구남동2길 26",
    "phone": "",
    "latitude": "33.4894650097",
    "longitude": "126.5352862427",
    "image": "http://tong.visitkorea.or.kr/cms/resource/79/2899579_image2_1.jpg",
    "category": "중식"
  },
  {
    "id": "2573635",
    "title": "부일복국",
    "address": "경상남도 통영시 무전3길 11-16",
    "phone": "055-641-0064",
    "latitude": "34.8610109729",
    "longitude": "128.4240383269",
    "image": "",
    "category": "중식"
  },
  {
    "id": "2870297",
    "title": "부타이 1막",
    "address": "서울특별시 강남구 테헤란로88길 22 (대치동)",
    "phone": "",
    "latitude": "37.5062238284",
    "longitude": "127.0600541909",
    "image": "http://tong.visitkorea.or.kr/cms/resource/94/2870294_image2_1.jpg",
    "category": "중식"
  },
  {
    "id": "2871086",
    "title": "블루",
    "address": "경기도 광주시 곤지암읍 경충대로 778",
    "phone": "",
    "latitude": "37.3568486989",
    "longitude": "127.3244233061",
    "image": "",
    "category": "중식"
  },
  {
    "id": "2847681",
    "title": "비오동",
    "address": "경상남도 김해시 관동로 58",
    "phone": "",
    "latitude": "35.1772575277",
    "longitude": "128.8097018210",
    "image": "http://tong.visitkorea.or.kr/cms/resource/71/2847671_image2_1.JPG",
    "category": "중식"
  },
  {
    "id": "1897570",
    "title": "사각하늘",
    "address": "경기도 양평군 서종면 길곡2길 53",
    "phone": "",
    "latitude": "37.6193577464",
    "longitude": "127.3574516771",
    "image": "http://tong.visitkorea.or.kr/cms/resource/36/3562836_image2_1.jpg",
    "category": "중식"
  },
  {
    "id": "2847791",
    "title": "사계의시간",
    "address": "제주특별자치도 서귀포시 사계남로 214",
    "phone": "",
    "latitude": "33.2322454224",
    "longitude": "126.3089977789",
    "image": "http://tong.visitkorea.or.kr/cms/resource/76/2847776_image2_1.jpg",
    "category": "중식"
  },
  {
    "id": "2844022",
    "title": "사루각20",
    "address": "부산광역시 부산진구 서전로68번길 78",
    "phone": "070-4244-4520",
    "latitude": "35.1543148292",
    "longitude": "129.0671411342",
    "image": "",
    "category": "중식"
  },
  {
    "id": "2844231",
    "title": "사야카츠",
    "address": "경상남도 창원시 성산구 귀산로 19",
    "phone": "",
    "latitude": "35.1634721540",
    "longitude": "128.6127971519",
    "image": "http://tong.visitkorea.or.kr/cms/resource/20/2844220_image2_1.JPG",
    "category": "중식"
  },
  {
    "id": "134686",
    "title": "사조참치",
    "address": "서울특별시 서대문구 통일로 107-39",
    "phone": "02-364-9838",
    "latitude": "37.5641931854",
    "longitude": "126.9660944402",
    "image": "",
    "category": "중식"
  },
  {
    "id": "2758133",
    "title": "삼복호",
    "address": "인천광역시 강화군 길상면 해안남로619번길 24",
    "phone": "",
    "latitude": "37.5977614819",
    "longitude": "126.4956336799",
    "image": "",
    "category": "중식"
  },
  {
    "id": "2741060",
    "title": "삼학도수산",
    "address": "충청북도 청주시 흥덕구 비하로 30",
    "phone": "",
    "latitude": "36.6297676693",
    "longitude": "127.4253206701",
    "image": "http://tong.visitkorea.or.kr/cms/resource/66/2741366_image2_1.jpg",
    "category": "중식"
  },
  {
    "id": "2568786",
    "title": "새만금횟집",
    "address": "전북특별자치도 군산시 비응안7길 13",
    "phone": "063-464-1001",
    "latitude": "35.9393283762",
    "longitude": "126.5325107012",
    "image": "",
    "category": "중식"
  },
  {
    "id": "2893217",
    "title": "생선가게",
    "address": "경기도 성남시 분당구 대왕판교로 255 (궁내동)",
    "phone": "",
    "latitude": "37.3665157761",
    "longitude": "127.1012599481",
    "image": "http://tong.visitkorea.or.kr/cms/resource/05/2893205_image2_1.jpg",
    "category": "중식"
  },
  {
    "id": "2844365",
    "title": "샤브홀리 일산본점",
    "address": "경기도 고양시 일산동구 숲속마을로 85-26 (풍동)",
    "phone": "",
    "latitude": "37.6672252785",
    "longitude": "126.7903520111",
    "image": "http://tong.visitkorea.or.kr/cms/resource/60/2844360_image2_1.JPG",
    "category": "중식"
  },
  {
    "id": "1373934",
    "title": "석천",
    "address": "전라남도 광양시 폭포사랑길 99",
    "phone": "061-799-1701",
    "latitude": "34.9402982197",
    "longitude": "127.7322744971",
    "image": "",
    "category": "중식"
  },
  {
    "id": "2769488",
    "title": "선녀풍본점",
    "address": "인천광역시 중구 용유서로 272",
    "phone": "",
    "latitude": "37.4444411671",
    "longitude": "126.3787291539",
    "image": "",
    "category": "중식"
  },
  {
    "id": "2577690",
    "title": "선유도횟집",
    "address": "경상남도 거제시 계룡로 182",
    "phone": "055-637-5357",
    "latitude": "34.8854950751",
    "longitude": "128.6194428883",
    "image": "",
    "category": "중식"
  },
  {
    "id": "2917243",
    "title": "선재쉼터",
    "address": "경상남도 거제시 어온4길 52",
    "phone": "",
    "latitude": "34.9799099616",
    "longitude": "128.6442576598",
    "image": "http://tong.visitkorea.or.kr/cms/resource/38/2917238_image2_1.jpg",
    "category": "중식"
  },
  {
    "id": "2839470",
    "title": "설참치 일산백석본점",
    "address": "경기도 고양시 일산동구 강송로73번길 53-4 (백석동)",
    "phone": "",
    "latitude": "37.6447111925",
    "longitude": "126.7880806314",
    "image": "http://tong.visitkorea.or.kr/cms/resource/63/2839463_image2_1.jpg",
    "category": "중식"
  },
  {
    "id": "2825050",
    "title": "세이토",
    "address": "전북특별자치도 전주시 완산구 마전중앙로 13 동화빌딩",
    "phone": "",
    "latitude": "35.8235096906",
    "longitude": "127.1033155216",
    "image": "http://tong.visitkorea.or.kr/cms/resource/45/2825045_image2_1.jpg",
    "category": "중식"
  },
  {
    "id": "2926508",
    "title": "소복소복",
    "address": "강원특별자치도 동해시 평원5길 8-5",
    "phone": "",
    "latitude": "37.5294347866",
    "longitude": "129.1183592287",
    "image": "http://tong.visitkorea.or.kr/cms/resource/00/2926500_image2_1.jpg",
    "category": "중식"
  },
  {
    "id": "2759869",
    "title": "소코아",
    "address": "경기도 고양시 일산동구 산두로 53",
    "phone": "",
    "latitude": "37.6631146199",
    "longitude": "126.7888772620",
    "image": "http://tong.visitkorea.or.kr/cms/resource/57/2760157_image2_1.jpg",
    "category": "중식"
  },
  {
    "id": "2807700",
    "title": "소피텔 앰배서더 서울 미오",
    "address": "서울특별시 송파구 잠실로 209 KT송파타워",
    "phone": "",
    "latitude": "37.5139237687",
    "longitude": "127.1063803122",
    "image": "",
    "category": "중식"
  },
  {
    "id": "2807934",
    "title": "손수메밀",
    "address": "서울특별시 은평구 연서로 5-2",
    "phone": "",
    "latitude": "37.5998436893",
    "longitude": "126.9155230427",
    "image": "",
    "category": "중식"
  },
  {
    "id": "2848962",
    "title": "솔밭솥밥",
    "address": "광주광역시 광산구 수완로50번길 44-3",
    "phone": "",
    "latitude": "35.1886714682",
    "longitude": "126.8309781410",
    "image": "http://tong.visitkorea.or.kr/cms/resource/51/2848651_image2_1.jpg",
    "category": "중식"
  },
  {
    "id": "2852186",
    "title": "솟구쳐차기 큐브점",
    "address": "인천광역시 연수구 송도과학로16번길 13-18 송도건원테크노큐브",
    "phone": "",
    "latitude": "37.3810729189",
    "longitude": "126.6608273825",
    "image": "http://tong.visitkorea.or.kr/cms/resource/82/2852182_image2_1.jpg",
    "category": "중식"
  },
  {
    "id": "2652849",
    "title": "송가",
    "address": "강원특별자치도 원주시 건강로 17",
    "phone": "010-6806-1033",
    "latitude": "37.3260116687",
    "longitude": "127.9875503465",
    "image": "http://tong.visitkorea.or.kr/cms/resource/67/2666667_image2_1.jpg",
    "category": "중식"
  },
  {
    "id": "2747042",
    "title": "쇼쿠지",
    "address": "경기도 평택시 비전9길 38",
    "phone": "",
    "latitude": "37.0031690878",
    "longitude": "127.1112414174",
    "image": "http://tong.visitkorea.or.kr/cms/resource/00/2750600_image2_1.png",
    "category": "중식"
  },
  {
    "id": "1567395",
    "title": "슈치쿠",
    "address": "서울특별시 영등포구 63로 50",
    "phone": "02-789-5751~2",
    "latitude": "37.5196423374",
    "longitude": "126.9399203060",
    "image": "",
    "category": "중식"
  },
  {
    "id": "2900426",
    "title": "스담",
    "address": "서울특별시 중구 다산로28길 2-1",
    "phone": "",
    "latitude": "37.5598167735",
    "longitude": "127.0138874317",
    "image": "",
    "category": "중식"
  },
  {
    "id": "2856474",
    "title": "스즈란테이",
    "address": "서울특별시 용산구 이촌로 245 (이촌동, 로얄상가)",
    "phone": "",
    "latitude": "37.5200012472",
    "longitude": "126.9744421514",
    "image": "http://tong.visitkorea.or.kr/cms/resource/48/2856448_image2_1.jpg",
    "category": "중식"
  },
  {
    "id": "2905628",
    "title": "스키나베 거제본점",
    "address": "경상남도 거제시 계룡로 66",
    "phone": "",
    "latitude": "34.8765295240",
    "longitude": "128.6257398005",
    "image": "http://tong.visitkorea.or.kr/cms/resource/16/2905616_image2_1.jpg",
    "category": "중식"
  },
  {
    "id": "2906424",
    "title": "시즈쿠",
    "address": "인천광역시 연수구 컨벤시아대로 50 (송도동, 푸르지오월드마크)",
    "phone": "",
    "latitude": "37.3977485997",
    "longitude": "126.6516916425",
    "image": "http://tong.visitkorea.or.kr/cms/resource/19/2906419_image2_1.jpg",
    "category": "중식"
  },
  {
    "id": "2816100",
    "title": "시키카츠",
    "address": "서울특별시 동대문구 회기로 110",
    "phone": "",
    "latitude": "37.5914526122",
    "longitude": "127.0486861404",
    "image": "",
    "category": "중식"
  },
  {
    "id": "2670838",
    "title": "신라이사부독도참치",
    "address": "강원특별자치도 강릉시 솔올로 67",
    "phone": "033-641-5857",
    "latitude": "37.7681358742",
    "longitude": "128.8786733988",
    "image": "http://tong.visitkorea.or.kr/cms/resource/07/2670907_image2_1.jpg",
    "category": "중식"
  },
  {
    "id": "851832",
    "title": "신센",
    "address": "부산광역시 수영구 남천동로108번길 49",
    "phone": "051-627-9191",
    "latitude": "35.1468804084",
    "longitude": "129.1135956300",
    "image": "http://tong.visitkorea.or.kr/cms/resource/65/1867165_image2_1.jpg",
    "category": "중식"
  },
  {
    "id": "2856337",
    "title": "아라한참치",
    "address": "대구광역시 수성구 들안로 41 (상동)",
    "phone": "",
    "latitude": "35.8334606145",
    "longitude": "128.6162229719",
    "image": "http://tong.visitkorea.or.kr/cms/resource/21/2856321_image2_1.jpg",
    "category": "중식"
  },
  {
    "id": "2576551",
    "title": "아라횟집",
    "address": "경상남도 창원시 마산합포구 어시장9길 84",
    "phone": "055-223-0088",
    "latitude": "35.2023449282",
    "longitude": "128.5774269733",
    "image": "",
    "category": "중식"
  },
  {
    "id": "2851375",
    "title": "아리",
    "address": "제주특별자치도 서귀포시 홍중로 99 (서홍동)",
    "phone": "",
    "latitude": "33.2614377519",
    "longitude": "126.5554202004",
    "image": "http://tong.visitkorea.or.kr/cms/resource/55/2851355_image2_1.jpg",
    "category": "중식"
  },
  {
    "id": "793059",
    "title": "아소산",
    "address": "경기도 고양시 일산동구 정발산로 128",
    "phone": "031-903-5333",
    "latitude": "37.6591955215",
    "longitude": "126.7826751612",
    "image": "",
    "category": "중식"
  },
  {
    "id": "2811507",
    "title": "아키노주방",
    "address": "인천광역시 연수구 하모니로 158 송도타임스페이스",
    "phone": "",
    "latitude": "37.3831445820",
    "longitude": "126.6427567492",
    "image": "",
    "category": "중식"
  },
  {
    "id": "2574062",
    "title": "아키라",
    "address": "울산광역시 남구 왕생로62번길 15-1",
    "phone": "052-267-0840",
    "latitude": "35.5394960268",
    "longitude": "129.3336405527",
    "image": "",
    "category": "중식"
  },
  {
    "id": "2860723",
    "title": "아키아키",
    "address": "충청북도 청주시 흥덕구 1순환로 528",
    "phone": "",
    "latitude": "36.6457554117",
    "longitude": "127.4637278937",
    "image": "http://tong.visitkorea.or.kr/cms/resource/08/2860708_image2_1.jpg",
    "category": "중식"
  },
  {
    "id": "2912720",
    "title": "아토(Ato)",
    "address": "대전광역시 유성구 농대로17번길 19 (궁동)",
    "phone": "",
    "latitude": "36.3620276006",
    "longitude": "127.3519512265",
    "image": "http://tong.visitkorea.or.kr/cms/resource/14/2912714_image2_1.jpg",
    "category": "중식"
  },
  {
    "id": "2807912",
    "title": "안432",
    "address": "강원특별자치도 원주시 버들만이길 12",
    "phone": "",
    "latitude": "37.3203454076",
    "longitude": "127.9741961601",
    "image": "http://tong.visitkorea.or.kr/cms/resource/93/3544593_image2_1.jpg",
    "category": "중식"
  },
  {
    "id": "2815128",
    "title": "알마튜나 도곡점",
    "address": "서울특별시 강남구 논현로30길 50",
    "phone": "",
    "latitude": "37.4850232545",
    "longitude": "127.0457533142",
    "image": "",
    "category": "중식"
  },
  {
    "id": "2753933",
    "title": "야마다야",
    "address": "경기도 성남시 분당구 구미로 124",
    "phone": "",
    "latitude": "37.3400275572",
    "longitude": "127.1223587787",
    "image": "http://tong.visitkorea.or.kr/cms/resource/20/2754120_image2_1.jpg",
    "category": "중식"
  },
  {
    "id": "2773623",
    "title": "야스마루",
    "address": "부산광역시 부산진구 중앙대로756번길 24 (부전동)",
    "phone": "",
    "latitude": "35.1593225066",
    "longitude": "129.0619942225",
    "image": "http://tong.visitkorea.or.kr/cms/resource/14/2773614_image2_1.jpg",
    "category": "중식"
  },
  {
    "id": "2913377",
    "title": "어가원",
    "address": "대전광역시 유성구 대학로 12 (봉명동)",
    "phone": "",
    "latitude": "36.3547643739",
    "longitude": "127.3424494953",
    "image": "http://tong.visitkorea.or.kr/cms/resource/63/2913263_image2_1.jpg",
    "category": "중식"
  },
  {
    "id": "2674280",
    "title": "어반스트릿",
    "address": "강원특별자치도 춘천시 동면 춘천로449번길 15",
    "phone": "",
    "latitude": "37.8935276300",
    "longitude": "127.7532798514",
    "image": "",
    "category": "중식"
  },
  {
    "id": "2747190",
    "title": "어부 화성점",
    "address": "경기도 화성시 향남읍 행정서로3길 3",
    "phone": "",
    "latitude": "37.1313202525",
    "longitude": "126.9156805723",
    "image": "http://tong.visitkorea.or.kr/cms/resource/34/2747234_image2_1.jpg",
    "category": "중식"
  },
  {
    "id": "2913435",
    "title": "어선재",
    "address": "강원특별자치도 속초시 온천로 60 (노학동)",
    "phone": "",
    "latitude": "38.1893750273",
    "longitude": "128.5492429039",
    "image": "http://tong.visitkorea.or.kr/cms/resource/26/2913426_image2_1.jpg",
    "category": "중식"
  },
  {
    "id": "2866892",
    "title": "어시장",
    "address": "경기도 광주시 송정로 62 (탄벌동)",
    "phone": "",
    "latitude": "37.4175570319",
    "longitude": "127.2526058727",
    "image": "http://tong.visitkorea.or.kr/cms/resource/73/2866873_image2_1.jpg",
    "category": "중식"
  },
  {
    "id": "2894990",
    "title": "어왕",
    "address": "경기도 김포시 김포한강2로104번길 53 (장기동)",
    "phone": "",
    "latitude": "37.6400680517",
    "longitude": "126.6747605618",
    "image": "http://tong.visitkorea.or.kr/cms/resource/78/2894978_image2_1.jpg",
    "category": "중식"
  },
  {
    "id": "2660867",
    "title": "얼라이브홈",
    "address": "강원특별자치도 강릉시 강릉대로203번길 4-1",
    "phone": "",
    "latitude": "37.7587039147",
    "longitude": "128.8931640511",
    "image": "",
    "category": "중식"
  },
  {
    "id": "133328",
    "title": "에도긴",
    "address": "서울특별시 강남구 테헤란로8길 30",
    "phone": "02-568-5147",
    "latitude": "37.4968855167",
    "longitude": "127.0318125811",
    "image": "",
    "category": "중식"
  },
  {
    "id": "2829949",
    "title": "연돈",
    "address": "제주특별자치도 서귀포시 색달로 10 (색달동)",
    "phone": "",
    "latitude": "33.2588912291",
    "longitude": "126.4061248696",
    "image": "http://tong.visitkorea.or.kr/cms/resource/46/2829946_image2_1.jpg",
    "category": "중식"
  },
  {
    "id": "2876958",
    "title": "영광맛집 호타루",
    "address": "전라남도 영광군 영광읍 대하길 35",
    "phone": "",
    "latitude": "35.2741923125",
    "longitude": "126.4972194882",
    "image": "http://tong.visitkorea.or.kr/cms/resource/50/2876950_image2_1.jpg",
    "category": "중식"
  },
  {
    "id": "2872007",
    "title": "영육일삼",
    "address": "제주특별자치도 서귀포시 이어도로 679 (강정동)",
    "phone": "",
    "latitude": "33.2344702214",
    "longitude": "126.4883516177",
    "image": "http://tong.visitkorea.or.kr/cms/resource/00/2872000_image2_1.jpg",
    "category": "중식"
  },
  {
    "id": "2577779",
    "title": "오가횟집",
    "address": "경상남도 거제시 장목면 신촌길 11",
    "phone": "055-635-8090",
    "latitude": "34.9992086954",
    "longitude": "128.6936445098",
    "image": "",
    "category": "중식"
  },
  {
    "id": "2866921",
    "title": "오구이",
    "address": "전북특별자치도 군산시 새만금산단1로 3",
    "phone": "",
    "latitude": "35.9461088982",
    "longitude": "126.5761427335",
    "image": "",
    "category": "중식"
  },
  {
    "id": "2913514",
    "title": "오늘참치 테크노관평점",
    "address": "대전광역시 유성구 관들2길 4 (관평동)",
    "phone": "",
    "latitude": "36.4243933670",
    "longitude": "127.3904127571",
    "image": "http://tong.visitkorea.or.kr/cms/resource/03/2913503_image2_1.jpg",
    "category": "중식"
  },
  {
    "id": "2894841",
    "title": "오레노카츠 성수본점",
    "address": "서울특별시 성동구 성수일로 47 (성수동1가)",
    "phone": "",
    "latitude": "37.5448052718",
    "longitude": "127.0496540439",
    "image": "http://tong.visitkorea.or.kr/cms/resource/29/2894829_image2_1.JPG",
    "category": "중식"
  },
  {
    "id": "2892237",
    "title": "오렌치",
    "address": "강원특별자치도 원주시 소방서길 10-1 (명륜동)",
    "phone": "",
    "latitude": "37.3303714858",
    "longitude": "127.9450734950",
    "image": "http://tong.visitkorea.or.kr/cms/resource/34/2892234_image2_1.jpg",
    "category": "중식"
  },
  {
    "id": "3449734",
    "title": "오롯이",
    "address": "서울특별시 성북구 보문로34길 87 (동선동3가)",
    "phone": "",
    "latitude": "37.5915187584",
    "longitude": "127.0201915130",
    "image": "http://tong.visitkorea.or.kr/cms/resource/75/3449675_image2_1.jpg",
    "category": "중식"
  },
  {
    "id": "2685615",
    "title": "오무라안",
    "address": "강원특별자치도 강릉시 성덕포남로188번길 27",
    "phone": "033-651-9969",
    "latitude": "37.7698446403",
    "longitude": "128.9109898785",
    "image": "http://tong.visitkorea.or.kr/cms/resource/71/2684871_image2_1.jpg",
    "category": "중식"
  },
  {
    "id": "850847",
    "title": "오사카",
    "address": "부산광역시 사하구 낙동대로324번길 2",
    "phone": "051-205-8408",
    "latitude": "35.1004109631",
    "longitude": "128.9820222326",
    "image": "",
    "category": "중식"
  },
  {
    "id": "2854026",
    "title": "오아시스",
    "address": "경기도 파주시 미래로310번길 13-21 (동패동)",
    "phone": "",
    "latitude": "37.7065143707",
    "longitude": "126.7467854408",
    "image": "http://tong.visitkorea.or.kr/cms/resource/11/2854011_image2_1.JPG",
    "category": "중식"
  },
  {
    "id": "2859838",
    "title": "오야스미 파주점",
    "address": "경기도 파주시 가나무로 143 (금릉동)",
    "phone": "",
    "latitude": "37.7546510449",
    "longitude": "126.7813475840",
    "image": "http://tong.visitkorea.or.kr/cms/resource/20/2859820_image2_1.jpg",
    "category": "중식"
  },
  {
    "id": "2866942",
    "title": "오죽",
    "address": "전북특별자치도 군산시 한밭로 17 (나운동)",
    "phone": "",
    "latitude": "35.9594343631",
    "longitude": "126.6928069531",
    "image": "http://tong.visitkorea.or.kr/cms/resource/32/2866932_image2_1.jpg",
    "category": "중식"
  },
  {
    "id": "2849356",
    "title": "옥소반 마곡본점",
    "address": "서울특별시 강서구 마곡중앙6로 45 리더스퀘어마곡",
    "phone": "",
    "latitude": "37.5606856530",
    "longitude": "126.8327344769",
    "image": "http://tong.visitkorea.or.kr/cms/resource/51/2849351_image2_1.jpg",
    "category": "중식"
  },
  {
    "id": "2856360",
    "title": "온기정",
    "address": "대구광역시 수성구 수성못6길 9 (두산동)",
    "phone": "",
    "latitude": "35.8276558471",
    "longitude": "128.6233141757",
    "image": "http://tong.visitkorea.or.kr/cms/resource/50/2856350_image2_1.jpg",
    "category": "중식"
  },
  {
    "id": "2769461",
    "title": "온센 신포점",
    "address": "인천광역시 중구 신포로35번길 22",
    "phone": "",
    "latitude": "37.4727394126",
    "longitude": "126.6247809065",
    "image": "",
    "category": "중식"
  },
  {
    "id": "2857388",
    "title": "온차",
    "address": "제주특별자치도 제주시 서부두남길 12",
    "phone": "",
    "latitude": "33.5151842636",
    "longitude": "126.5276835417",
    "image": "http://tong.visitkorea.or.kr/cms/resource/62/2857362_image2_1.jpg",
    "category": "중식"
  },
  {
    "id": "2765214",
    "title": "올레안뜰",
    "address": "제주특별자치도 서귀포시 법환로 24",
    "phone": "",
    "latitude": "33.2372591895",
    "longitude": "126.5128244343",
    "image": "",
    "category": "중식"
  },
  {
    "id": "2667003",
    "title": "와타요업",
    "address": "대전광역시 서구 갈마역로25번길 9-8",
    "phone": "",
    "latitude": "36.3526235022",
    "longitude": "127.3734523362",
    "image": "",
    "category": "중식"
  },
  {
    "id": "2742243",
    "title": "외길수산",
    "address": "경기도 부천시 원미구 길주로77번길 19-45 (상동)",
    "phone": "",
    "latitude": "37.5077347711",
    "longitude": "126.7494157839",
    "image": "http://tong.visitkorea.or.kr/cms/resource/80/2742380_image2_1.jpg",
    "category": "중식"
  },
  {
    "id": "2578170",
    "title": "외포9번횟집",
    "address": "경상남도 거제시 장목면 외포5길 64",
    "phone": "055-636-6294",
    "latitude": "34.9389769861",
    "longitude": "128.7179773354",
    "image": "",
    "category": "중식"
  },
  {
    "id": "2868940",
    "title": "요이쿠마 본점",
    "address": "부산광역시 수영구 광안해변로307번길 20",
    "phone": "",
    "latitude": "35.1580099594",
    "longitude": "129.1266219702",
    "image": "http://tong.visitkorea.or.kr/cms/resource/37/2868937_image2_1.jpg",
    "category": "중식"
  },
  {
    "id": "2758136",
    "title": "용궁횟집",
    "address": "인천광역시 강화군 화도면 해안남로 2805",
    "phone": "",
    "latitude": "37.6395630443",
    "longitude": "126.3873174363",
    "image": "http://tong.visitkorea.or.kr/cms/resource/17/2787517_image2_1.jpg",
    "category": "중식"
  },
  {
    "id": "2855308",
    "title": "우나기노켄",
    "address": "인천광역시 연수구 청량로70번길 8 (동춘동)",
    "phone": "",
    "latitude": "37.4153466725",
    "longitude": "126.6583544371",
    "image": "http://tong.visitkorea.or.kr/cms/resource/02/2855302_image2_1.jpg",
    "category": "중식"
  },
  {
    "id": "2853793",
    "title": "우리바다수산",
    "address": "서울특별시 마포구 월드컵로 102 (성산동)",
    "phone": "",
    "latitude": "37.5578290117",
    "longitude": "126.9089081657",
    "image": "http://tong.visitkorea.or.kr/cms/resource/85/2853785_image2_1.jpg",
    "category": "중식"
  },
  {
    "id": "2864582",
    "title": "우마이식당",
    "address": "경기도 안양시 동안구 평촌대로223번길 52 (호계동)",
    "phone": "",
    "latitude": "37.3907603059",
    "longitude": "126.9527755380",
    "image": "http://tong.visitkorea.or.kr/cms/resource/73/2864573_image2_1.jpg",
    "category": "중식"
  },
  {
    "id": "2574218",
    "title": "원복집",
    "address": "경상남도 통영시 정동2길 9",
    "phone": "055-644-4887",
    "latitude": "34.8452962145",
    "longitude": "128.4324713386",
    "image": "",
    "category": "중식"
  },
  {
    "id": "2850268",
    "title": "유촌 참치마을",
    "address": "경기도 성남시 분당구 서현로210번길 2 (서현동)",
    "phone": "",
    "latitude": "37.3868916271",
    "longitude": "127.1254988387",
    "image": "http://tong.visitkorea.or.kr/cms/resource/52/2850252_image2_1.jpg",
    "category": "중식"
  },
  {
    "id": "2765438",
    "title": "윤돈",
    "address": "경기도 수원시 영통구 신원로 107",
    "phone": "",
    "latitude": "37.2482341747",
    "longitude": "127.0533870576",
    "image": "http://tong.visitkorea.or.kr/cms/resource/83/2766183_image2_1.jpg",
    "category": "중식"
  },
  {
    "id": "2836129",
    "title": "윤주네",
    "address": "충청남도 서천군 군사길 17",
    "phone": "",
    "latitude": "36.0768487955",
    "longitude": "126.6966674548",
    "image": "",
    "category": "중식"
  },
  {
    "id": "2753157",
    "title": "으뜸횟집",
    "address": "서울특별시 강동구 양재대로122가길 39",
    "phone": "",
    "latitude": "37.5439237215",
    "longitude": "127.1429039138",
    "image": "http://tong.visitkorea.or.kr/cms/resource/61/2790761_image2_1.jpg",
    "category": "중식"
  },
  {
    "id": "2842121",
    "title": "은옥",
    "address": "인천광역시 서구 청라커낼로329번길 19-3 (청라동)",
    "phone": "",
    "latitude": "37.5377682925",
    "longitude": "126.6434912798",
    "image": "http://tong.visitkorea.or.kr/cms/resource/06/2842106_image2_1.jpg",
    "category": "중식"
  },
  {
    "id": "1610244",
    "title": "이끼롤까스 가로수길본점",
    "address": "서울특별시 강남구 강남대로152길 64 (신사동)",
    "phone": "02-514-3347",
    "latitude": "37.5188050613",
    "longitude": "127.0244737406",
    "image": "",
    "category": "중식"
  },
  {
    "id": "2866243",
    "title": "이나카야",
    "address": "경기도 화성시 동탄반송2길 41-7 (반송동)",
    "phone": "",
    "latitude": "37.2106776266",
    "longitude": "127.0655231178",
    "image": "http://tong.visitkorea.or.kr/cms/resource/33/2866233_image2_1.jpg",
    "category": "중식"
  },
  {
    "id": "2861702",
    "title": "이돈갓",
    "address": "제주특별자치도 제주시 칠성로길 27 (일도일동)",
    "phone": "",
    "latitude": "33.5145343053",
    "longitude": "126.5257892768",
    "image": "http://tong.visitkorea.or.kr/cms/resource/96/2861696_image2_1.jpg",
    "category": "중식"
  },
  {
    "id": "2838491",
    "title": "이이요",
    "address": "서울특별시 광진구 능동로32길 6 (능동)",
    "phone": "",
    "latitude": "37.5552462527",
    "longitude": "127.0789316373",
    "image": "http://tong.visitkorea.or.kr/cms/resource/85/2838485_image2_1.jpg",
    "category": "중식"
  },
  {
    "id": "2869719",
    "title": "이치에",
    "address": "서울특별시 강남구 선릉로155길 23-3 (신사동)",
    "phone": "",
    "latitude": "37.5254295296",
    "longitude": "127.0377001262",
    "image": "http://tong.visitkorea.or.kr/cms/resource/04/2869704_image2_1.jpg",
    "category": "중식"
  },
  {
    "id": "2855417",
    "title": "익산돈가스",
    "address": "전북특별자치도 익산시 미륵사지로 220",
    "phone": "",
    "latitude": "36.0044852355",
    "longitude": "127.0421578985",
    "image": "http://tong.visitkorea.or.kr/cms/resource/05/2855405_image2_1.jpg",
    "category": "중식"
  },
  {
    "id": "2737276",
    "title": "일만호",
    "address": "경기도 용인시 기흥구 기흥단지로 94 (고매동)",
    "phone": "",
    "latitude": "37.2257905061",
    "longitude": "127.1068606154",
    "image": "http://tong.visitkorea.or.kr/cms/resource/19/2737519_image2_1.jpg",
    "category": "중식"
  },
  {
    "id": "2689478",
    "title": "일일주(日日酒)",
    "address": "서울특별시 종로구 사직로8길 4",
    "phone": "02-738-1717",
    "latitude": "37.5744559264",
    "longitude": "126.9686161422",
    "image": "http://tong.visitkorea.or.kr/cms/resource/93/2702593_image2_1.JPG",
    "category": "중식"
  },
  {
    "id": "2544584",
    "title": "일품당프리미엄",
    "address": "서울특별시 종로구 새문안로5가길 7",
    "phone": "02-1899-4949",
    "latitude": "37.5727701079",
    "longitude": "126.9740156982",
    "image": "http://tong.visitkorea.or.kr/cms/resource/57/2544557_image2_1.bmp",
    "category": "중식"
  },
  {
    "id": "2654165",
    "title": "일품당프리미엄",
    "address": "서울특별시 종로구 새문안로5가길 7, 3층",
    "phone": "02-1899-4949",
    "latitude": "37.5728312129",
    "longitude": "126.9740629139",
    "image": "http://tong.visitkorea.or.kr/cms/resource/02/2655202_image2_1.jpg",
    "category": "중식"
  },
  {
    "id": "3080912",
    "title": "잇쇼우",
    "address": "서울특별시 강남구 선릉로 524 (삼성동)",
    "phone": "",
    "latitude": "37.5066846760",
    "longitude": "127.0483691302",
    "image": "http://tong.visitkorea.or.kr/cms/resource/08/3080908_image2_1.JPG",
    "category": "중식"
  },
  {
    "id": "2853644",
    "title": "잇칸시타",
    "address": "제주특별자치도 제주시 애월읍 신엄안2길 54-1",
    "phone": "",
    "latitude": "33.4771137570",
    "longitude": "126.3702508713",
    "image": "http://tong.visitkorea.or.kr/cms/resource/30/2853630_image2_1.jpg",
    "category": "중식"
  },
  {
    "id": "2516990",
    "title": "잇텐고",
    "address": "서울특별시 마포구 포은로 11",
    "phone": "02-337-7715",
    "latitude": "37.5492300169",
    "longitude": "126.9092444896",
    "image": "http://tong.visitkorea.or.kr/cms/resource/61/2516961_image2_1.jpg",
    "category": "중식"
  },
  {
    "id": "2772325",
    "title": "자가제면 백운동",
    "address": "경기도 의왕시 백운로 505 (학의동)",
    "phone": "",
    "latitude": "37.3810956133",
    "longitude": "127.0004881378",
    "image": "http://tong.visitkorea.or.kr/cms/resource/55/2772455_image2_1.jpeg",
    "category": "중식"
  },
  {
    "id": "804498",
    "title": "자산어보",
    "address": "경기도 성남시 분당구 대왕판교로606번길 10",
    "phone": "031-706-9880",
    "latitude": "37.3956097555",
    "longitude": "127.1084834708",
    "image": "",
    "category": "중식"
  },
  {
    "id": "2858524",
    "title": "자산어보",
    "address": "전라남도 순천시 대석1길 27 해정",
    "phone": "",
    "latitude": "34.9476576586",
    "longitude": "127.5232565346",
    "image": "http://tong.visitkorea.or.kr/cms/resource/20/2858520_image2_1.jpg",
    "category": "중식"
  },
  {
    "id": "2574533",
    "title": "장어생각",
    "address": "경상남도 통영시 무전2길 34-14",
    "phone": "055-649-8973",
    "latitude": "34.8589889532",
    "longitude": "128.4226940527",
    "image": "",
    "category": "중식"
  },
  {
    "id": "2847996",
    "title": "정돈 대학로본점",
    "address": "서울특별시 종로구 대학로9길 12 (명륜4가)",
    "phone": "",
    "latitude": "37.5818667590",
    "longitude": "127.0011129703",
    "image": "http://tong.visitkorea.or.kr/cms/resource/87/2847987_image2_1.jpg",
    "category": "중식"
  },
  {
    "id": "2906713",
    "title": "정온한",
    "address": "인천광역시 연수구 아트센터대로 131 (송도동)",
    "phone": "",
    "latitude": "37.3994370280",
    "longitude": "126.6367096278",
    "image": "http://tong.visitkorea.or.kr/cms/resource/37/2906537_image2_1.jpg",
    "category": "중식"
  },
  {
    "id": "2843982",
    "title": "제주고로",
    "address": "제주특별자치도 서귀포시 대정읍 서삼중로 94",
    "phone": "",
    "latitude": "33.2711838996",
    "longitude": "126.2024645004",
    "image": "http://tong.visitkorea.or.kr/cms/resource/72/2843972_image2_1.jpg",
    "category": "중식"
  },
  {
    "id": "2847005",
    "title": "좋은소식",
    "address": "경기도 수원시 영통구 매영로269번길 43 (영통동)",
    "phone": "",
    "latitude": "37.2591748198",
    "longitude": "127.0671021742",
    "image": "http://tong.visitkorea.or.kr/cms/resource/88/2846988_image2_1.jpg",
    "category": "중식"
  },
  {
    "id": "2839642",
    "title": "주문진",
    "address": "서울특별시 강동구 성안로3길 27 주문진빌딩",
    "phone": "",
    "latitude": "37.5260060909",
    "longitude": "127.1281363226",
    "image": "http://tong.visitkorea.or.kr/cms/resource/41/2839641_image2_1.jpg",
    "category": "중식"
  },
  {
    "id": "3446437",
    "title": "지츠겐",
    "address": "인천광역시 연수구 하모니로 144 (송도동, 송도 지웰 푸르지오시티)",
    "phone": "",
    "latitude": "37.3840944889",
    "longitude": "126.6437010817",
    "image": "http://tong.visitkorea.or.kr/cms/resource/09/3446409_image2_1.jpg",
    "category": "중식"
  },
  {
    "id": "2940410",
    "title": "진돈부리",
    "address": "서울특별시 서대문구 대현동",
    "phone": "",
    "latitude": "37.5570519223",
    "longitude": "126.9423134759",
    "image": "",
    "category": "중식"
  },
  {
    "id": "2758144",
    "title": "진복호 신관",
    "address": "인천광역시 강화군 길상면 해안남로 488",
    "phone": "",
    "latitude": "37.5977283990",
    "longitude": "126.5096407329",
    "image": "",
    "category": "중식"
  },
  {
    "id": "2860491",
    "title": "진수사",
    "address": "경기도 성남시 분당구 매화로37번길 7-10",
    "phone": "",
    "latitude": "37.4109695117",
    "longitude": "127.1322086596",
    "image": "http://tong.visitkorea.or.kr/cms/resource/80/2860480_image2_1.JPG",
    "category": "중식"
  },
  {
    "id": "2869970",
    "title": "진수사",
    "address": "서울특별시 강남구 테헤란로37길 13-7 (역삼동)",
    "phone": "",
    "latitude": "37.5028405297",
    "longitude": "127.0401255449",
    "image": "http://tong.visitkorea.or.kr/cms/resource/62/2869962_image2_1.jpg",
    "category": "중식"
  },
  {
    "id": "2845592",
    "title": "진작다이닝",
    "address": "서울특별시 성동구 왕십리로14나길 10 (성수동1가)",
    "phone": "",
    "latitude": "37.5494518824",
    "longitude": "127.0456681637",
    "image": "http://tong.visitkorea.or.kr/cms/resource/88/2845588_image2_1.jpg",
    "category": "중식"
  },
  {
    "id": "2577846",
    "title": "청기와횟집",
    "address": "경상남도 거제시 거제중앙로27길 15",
    "phone": "055-637-7276",
    "latitude": "34.8882697999",
    "longitude": "128.6213982003",
    "image": "",
    "category": "중식"
  },
  {
    "id": "2867271",
    "title": "청담 마코토",
    "address": "서울특별시 강남구 압구정로80길 37 (청담동)",
    "phone": "",
    "latitude": "37.5244297515",
    "longitude": "127.0435940627",
    "image": "http://tong.visitkorea.or.kr/cms/resource/58/2867258_image2_1.jpg",
    "category": "중식"
  },
  {
    "id": "2893627",
    "title": "청춘밥상",
    "address": "경상남도 거제시 거제중앙로 1904-7",
    "phone": "",
    "latitude": "34.8882920662",
    "longitude": "128.6239840856",
    "image": "http://tong.visitkorea.or.kr/cms/resource/56/2893356_image2_1.jpg",
    "category": "중식"
  },
  {
    "id": "2664935",
    "title": "청하",
    "address": "광주광역시 동구 충장로 45-12",
    "phone": "062-223-7037",
    "latitude": "35.1505188421",
    "longitude": "126.9137717737",
    "image": "http://tong.visitkorea.or.kr/cms/resource/38/2664938_image2_1.png",
    "category": "중식"
  },
  {
    "id": "2667567",
    "title": "청하",
    "address": "서울특별시 영등포구 국제금융로 78",
    "phone": "02-785-7721",
    "latitude": "37.5209281453",
    "longitude": "126.9313238308",
    "image": "http://tong.visitkorea.or.kr/cms/resource/70/2667570_image2_1.jpg",
    "category": "중식"
  },
  {
    "id": "2807695",
    "title": "초승달",
    "address": "서울특별시 용산구 회나무로26길 12 삼원휘트니스",
    "phone": "",
    "latitude": "37.5395992730",
    "longitude": "126.9913095053",
    "image": "",
    "category": "중식"
  },
  {
    "id": "2465041",
    "title": "최수사 대게마을",
    "address": "서울특별시 강남구 논현로 429",
    "phone": "",
    "latitude": "37.4991298007",
    "longitude": "127.0374231182",
    "image": "http://tong.visitkorea.or.kr/cms/resource/33/2465033_image2_1.jpg",
    "category": "중식"
  },
  {
    "id": "2856806",
    "title": "카규",
    "address": "충청남도 천안시 서북구 불당28길 26",
    "phone": "",
    "latitude": "36.8114521310",
    "longitude": "127.1017503344",
    "image": "http://tong.visitkorea.or.kr/cms/resource/03/2856803_image2_1.png",
    "category": "중식"
  },
  {
    "id": "2900221",
    "title": "카덴",
    "address": "서울특별시 서대문구 연희로 173 (연희동, 거화빌딩)",
    "phone": "",
    "latitude": "37.5725527685",
    "longitude": "126.9350748092",
    "image": "http://tong.visitkorea.or.kr/cms/resource/09/2900209_image2_1.jpg",
    "category": "중식"
  },
  {
    "id": "2517012",
    "title": "카토멘",
    "address": "서울특별시 강남구 삼성로85길 39",
    "phone": "02-568-6625",
    "latitude": "37.5042184020",
    "longitude": "127.0542881058",
    "image": "http://tong.visitkorea.or.kr/cms/resource/70/2516970_image2_1.jpg",
    "category": "중식"
  },
  {
    "id": "3536156",
    "title": "코바코 강릉사천점",
    "address": "강원특별자치도 강릉시 사천면 방동길 43",
    "phone": "",
    "latitude": "37.8174186154",
    "longitude": "128.8558517081",
    "image": "",
    "category": "중식"
  },
  {
    "id": "2871997",
    "title": "코우",
    "address": "제주특별자치도 서귀포시 신중로13번길 3-5 (강정동)",
    "phone": "",
    "latitude": "33.2561625560",
    "longitude": "126.5062940212",
    "image": "http://tong.visitkorea.or.kr/cms/resource/91/2871991_image2_1.jpg",
    "category": "중식"
  },
  {
    "id": "2809410",
    "title": "콤폰",
    "address": "충청남도 천안시 서북구 불당21로 40 천안불당 호반써밋플레이스",
    "phone": "",
    "latitude": "36.8133075213",
    "longitude": "127.1045028129",
    "image": "",
    "category": "중식"
  },
  {
    "id": "2856291",
    "title": "쿄우다이",
    "address": "대구광역시 달서구 월배로46길 72 (상인동)",
    "phone": "",
    "latitude": "35.8158084062",
    "longitude": "128.5386441821",
    "image": "http://tong.visitkorea.or.kr/cms/resource/79/2856279_image2_1.jpg",
    "category": "중식"
  },
  {
    "id": "2853824",
    "title": "크레이지카츠",
    "address": "서울특별시 마포구 포은로2나길 44 (합정동)",
    "phone": "",
    "latitude": "37.5505048774",
    "longitude": "126.9097249652",
    "image": "http://tong.visitkorea.or.kr/cms/resource/15/2853815_image2_1.jpg",
    "category": "중식"
  },
  {
    "id": "2865639",
    "title": "키와마루아지",
    "address": "경기도 화성시 동탄중심상가2길 11 (반송동)",
    "phone": "",
    "latitude": "37.2057949977",
    "longitude": "127.0733253248",
    "image": "http://tong.visitkorea.or.kr/cms/resource/24/2865624_image2_1.jpg",
    "category": "중식"
  },
  {
    "id": "2781493",
    "title": "키친아루요",
    "address": "제주특별자치도 제주시 애월읍 유수암평화5길 15-8",
    "phone": "",
    "latitude": "33.4237924354",
    "longitude": "126.4052962464",
    "image": "http://tong.visitkorea.or.kr/cms/resource/30/2795030_image2_1.jpg",
    "category": "중식"
  },
  {
    "id": "2856818",
    "title": "킨이로텐",
    "address": "충청남도 천안시 서북구 불당21로 40 천안불당 호반써밋플레이스",
    "phone": "",
    "latitude": "36.8133075213",
    "longitude": "127.1045028129",
    "image": "http://tong.visitkorea.or.kr/cms/resource/13/2856813_image2_1.jpg",
    "category": "중식"
  },
  {
    "id": "2665553",
    "title": "킨토토",
    "address": "대전광역시 서구 계룡로 403",
    "phone": "",
    "latitude": "36.3509903434",
    "longitude": "127.3727746632",
    "image": "",
    "category": "중식"
  },
  {
    "id": "2845700",
    "title": "킹의전설 김포장기점",
    "address": "경기도 김포시 김포한강1로97번길 10-15 (장기동)",
    "phone": "",
    "latitude": "37.6479226345",
    "longitude": "126.6714773090",
    "image": "http://tong.visitkorea.or.kr/cms/resource/96/2845696_image2_1.jpg",
    "category": "중식"
  },
  {
    "id": "2858974",
    "title": "타이가텐푸라",
    "address": "부산광역시 해운대구 우동1로38번가길 15 (우동)",
    "phone": "",
    "latitude": "35.1648042324",
    "longitude": "129.1584217967",
    "image": "http://tong.visitkorea.or.kr/cms/resource/63/2858963_image2_1.jpg",
    "category": "중식"
  },
  {
    "id": "2894728",
    "title": "탐광",
    "address": "서울특별시 성동구 연무장5가길 26 (성수동2가)",
    "phone": "",
    "latitude": "37.5432277812",
    "longitude": "127.0554341176",
    "image": "http://tong.visitkorea.or.kr/cms/resource/20/2894720_image2_1.jpg",
    "category": "중식"
  },
  {
    "id": "2895286",
    "title": "텐바",
    "address": "서울특별시 성동구 연무장길 41-22 (성수동2가)",
    "phone": "",
    "latitude": "37.5433860747",
    "longitude": "127.0542481104",
    "image": "http://tong.visitkorea.or.kr/cms/resource/82/2895282_image2_1.jpg",
    "category": "중식"
  },
  {
    "id": "2869851",
    "title": "토라카츠",
    "address": "서울특별시 성북구 장월로1길 90",
    "phone": "",
    "latitude": "37.6050870499",
    "longitude": "127.0437778666",
    "image": "http://tong.visitkorea.or.kr/cms/resource/35/3578235_image2_1.jpg",
    "category": "중식"
  },
  {
    "id": "2866029",
    "title": "토미야",
    "address": "대전광역시 서구 청사서로 14 (월평동)",
    "phone": "",
    "latitude": "36.3591894788",
    "longitude": "127.3769046272",
    "image": "http://tong.visitkorea.or.kr/cms/resource/24/2866024_image2_1.jpg",
    "category": "중식"
  },
  {
    "id": "2841442",
    "title": "톤쇼우",
    "address": "부산광역시 금정구 금강로 247-10 (장전동)",
    "phone": "",
    "latitude": "35.2304871678",
    "longitude": "129.0842986624",
    "image": "http://tong.visitkorea.or.kr/cms/resource/30/2841430_image2_1.jpg",
    "category": "중식"
  },
  {
    "id": "2575206",
    "title": "통영횟집",
    "address": "경상남도 통영시 도남로 257-79",
    "phone": "055-641-7100",
    "latitude": "34.8288341676",
    "longitude": "128.4325495422",
    "image": "",
    "category": "중식"
  },
  {
    "id": "2854075",
    "title": "투씨엠플러스",
    "address": "경기도 파주시 월롱면 엘씨디로8번길 20",
    "phone": "",
    "latitude": "37.8117637507",
    "longitude": "126.7768797052",
    "image": "http://tong.visitkorea.or.kr/cms/resource/60/2854060_image2_1.jpg",
    "category": "중식"
  },
  {
    "id": "3356066",
    "title": "편편집 다산역점",
    "address": "경기도 남양주시 다산중앙로145번길 36 (다산동)",
    "phone": "",
    "latitude": "37.6255643492",
    "longitude": "127.1491176841",
    "image": "http://tong.visitkorea.or.kr/cms/resource/68/3422268_image2_1.jpg",
    "category": "중식"
  },
  {
    "id": "2829630",
    "title": "포구어가",
    "address": "경상북도 영천시 호국로 135",
    "phone": "",
    "latitude": "35.9760979399",
    "longitude": "128.9521032941",
    "image": "",
    "category": "중식"
  },
  {
    "id": "2765420",
    "title": "포동이네",
    "address": "경기도 수원시 영통구 영통로 100 (망포동)",
    "phone": "",
    "latitude": "37.2378910231",
    "longitude": "127.0587535272",
    "image": "http://tong.visitkorea.or.kr/cms/resource/63/2766163_image2_1.jpg",
    "category": "중식"
  },
  {
    "id": "2703618",
    "title": "포테이블",
    "address": "전라남도 화순군 화순읍 한고을길 8-1",
    "phone": "",
    "latitude": "35.0559472067",
    "longitude": "126.9745159969",
    "image": "",
    "category": "중식"
  },
  {
    "id": "1375088",
    "title": "풀하우스참치",
    "address": "전라남도 광양시 중동 1866-14",
    "phone": "061-795-5537",
    "latitude": "34.9317208379",
    "longitude": "127.6996942398",
    "image": "",
    "category": "중식"
  },
  {
    "id": "2868973",
    "title": "품 안",
    "address": "충청남도 천안시 서북구 성성2길 152",
    "phone": "",
    "latitude": "36.8510118960",
    "longitude": "127.1261276054",
    "image": "http://tong.visitkorea.or.kr/cms/resource/56/2868956_image2_1.jpg",
    "category": "중식"
  },
  {
    "id": "2768111",
    "title": "풍천민물장어 이억집",
    "address": "인천광역시 계양구 장제로 1070",
    "phone": "",
    "latitude": "37.5608118473",
    "longitude": "126.7445758513",
    "image": "",
    "category": "중식"
  },
  {
    "id": "2527792",
    "title": "하나비",
    "address": "경상남도 김해시 번화1로67번길 12",
    "phone": "055-339-2235",
    "latitude": "35.1932805309",
    "longitude": "128.7987634509",
    "image": "",
    "category": "중식"
  },
  {
    "id": "2865686",
    "title": "하루인",
    "address": "경기도 성남시 분당구 성남대로331번길 9-9 (정자동)",
    "phone": "",
    "latitude": "37.3648382975",
    "longitude": "127.1071094646",
    "image": "http://tong.visitkorea.or.kr/cms/resource/81/2865681_image2_1.JPG",
    "category": "중식"
  },
  {
    "id": "2809897",
    "title": "하마식당",
    "address": "강원특별자치도 속초시 영랑해안3길 64 (영랑동)",
    "phone": "",
    "latitude": "38.2166032950",
    "longitude": "128.5945823796",
    "image": "",
    "category": "중식"
  },
  {
    "id": "2873020",
    "title": "하지메",
    "address": "광주광역시 서구 상무민주로 16",
    "phone": "",
    "latitude": "35.1520149660",
    "longitude": "126.8587349354",
    "image": "",
    "category": "중식"
  },
  {
    "id": "2907164",
    "title": "한냄비",
    "address": "서울특별시 성동구 왕십리로 66-26 (성수동1가)",
    "phone": "",
    "latitude": "37.5430970541",
    "longitude": "127.0450406238",
    "image": "http://tong.visitkorea.or.kr/cms/resource/00/2906900_image2_1.jpg",
    "category": "중식"
  },
  {
    "id": "2574080",
    "title": "한양횟집",
    "address": "울산광역시 북구 정자1길 87-1",
    "phone": "052-295-1212",
    "latitude": "35.6202529984",
    "longitude": "129.4481505001",
    "image": "",
    "category": "중식"
  },
  {
    "id": "2902216",
    "title": "할배국수",
    "address": "전북특별자치도 군산시 구영6길 96 바다샌드(파란파도간판)",
    "phone": "",
    "latitude": "35.9880314058",
    "longitude": "126.7108073818",
    "image": "",
    "category": "중식"
  },
  {
    "id": "2687687",
    "title": "해녀직영횟집",
    "address": "강원특별자치도 강릉시 강동면 헌화로 997",
    "phone": "033-644-5278",
    "latitude": "37.6859735055",
    "longitude": "129.0390670627",
    "image": "http://tong.visitkorea.or.kr/cms/resource/69/2684969_image2_1.jpg",
    "category": "중식"
  },
  {
    "id": "2758780",
    "title": "해동활어",
    "address": "광주광역시 서구 상무대로 653-1",
    "phone": "",
    "latitude": "35.1419185046",
    "longitude": "126.8362205122",
    "image": "http://tong.visitkorea.or.kr/cms/resource/08/2791408_image2_1.JPG",
    "category": "중식"
  },
  {
    "id": "2786766",
    "title": "해목",
    "address": "부산광역시 해운대구 구남로24번길 8 (우동)",
    "phone": "",
    "latitude": "35.1618601408",
    "longitude": "129.1596828783",
    "image": "http://tong.visitkorea.or.kr/cms/resource/45/2797545_image2_1.JPG",
    "category": "중식"
  },
  {
    "id": "2563236",
    "title": "향원복집",
    "address": "제주특별자치도 서귀포시 부두로 43",
    "phone": "064-762-2341",
    "latitude": "33.2411790255",
    "longitude": "126.5648726139",
    "image": "",
    "category": "중식"
  },
  {
    "id": "2834211",
    "title": "헤키",
    "address": "서울특별시 마포구 월드컵로17길 38",
    "phone": "",
    "latitude": "37.5557792327",
    "longitude": "126.9079333129",
    "image": "http://tong.visitkorea.or.kr/cms/resource/31/3571831_image2_1.jpg",
    "category": "중식"
  },
  {
    "id": "2863356",
    "title": "호랑이굴",
    "address": "경기도 안양시 동안구 시민대로 214 (호계동)",
    "phone": "",
    "latitude": "37.3919713131",
    "longitude": "126.9548142075",
    "image": "http://tong.visitkorea.or.kr/cms/resource/46/2863346_image2_1.jpg",
    "category": "중식"
  },
  {
    "id": "2902470",
    "title": "호랑이카츠",
    "address": "경상북도 경주시 사정로57번길 14",
    "phone": "",
    "latitude": "35.8377739733",
    "longitude": "129.2094262973",
    "image": "http://tong.visitkorea.or.kr/cms/resource/64/2902464_image2_1.jpg",
    "category": "중식"
  },
  {
    "id": "2853936",
    "title": "호무랑",
    "address": "서울특별시 강남구 도산대로 442 (청담동)",
    "phone": "",
    "latitude": "37.5233604406",
    "longitude": "127.0441051566",
    "image": "http://tong.visitkorea.or.kr/cms/resource/19/2853919_image2_1.jpg",
    "category": "중식"
  },
  {
    "id": "2915760",
    "title": "호시",
    "address": "대전광역시 유성구 관들5길 31 (관평동)",
    "phone": "",
    "latitude": "36.4223575230",
    "longitude": "127.3923348622",
    "image": "http://tong.visitkorea.or.kr/cms/resource/55/2915755_image2_1.jpg",
    "category": "중식"
  },
  {
    "id": "2851443",
    "title": "호자",
    "address": "제주특별자치도 제주시 세화8길 7",
    "phone": "",
    "latitude": "33.5215083065",
    "longitude": "126.8575797487",
    "image": "http://tong.visitkorea.or.kr/cms/resource/94/2851394_image2_1.jpg",
    "category": "중식"
  },
  {
    "id": "2826636",
    "title": "호호식당 대학로",
    "address": "서울특별시 종로구 대학로9길 35",
    "phone": "",
    "latitude": "37.5819583965",
    "longitude": "127.0000491756",
    "image": "",
    "category": "중식"
  },
  {
    "id": "2575588",
    "title": "홍도복어",
    "address": "경상남도 통영시 운하1길 57",
    "phone": "055-648-3678",
    "latitude": "34.8328805640",
    "longitude": "128.4116401462",
    "image": "",
    "category": "중식"
  },
  {
    "id": "2855203",
    "title": "화담",
    "address": "서울특별시 영등포구 국회대로 800 (여의도동)",
    "phone": "",
    "latitude": "37.5309823503",
    "longitude": "126.9210967012",
    "image": "http://tong.visitkorea.or.kr/cms/resource/92/2855192_image2_1.jpg",
    "category": "중식"
  },
  {
    "id": "2876580",
    "title": "화도수산",
    "address": "경기도 남양주시 화도읍 경춘로2515번길 10",
    "phone": "",
    "latitude": "37.6635249698",
    "longitude": "127.3647247390",
    "image": "http://tong.visitkorea.or.kr/cms/resource/64/2876464_image2_1.jpg",
    "category": "중식"
  },
  {
    "id": "2899410",
    "title": "후지산",
    "address": "대전광역시 서구 둔산로137번길 21 (둔산동)",
    "phone": "",
    "latitude": "36.3523293667",
    "longitude": "127.3889842878",
    "image": "http://tong.visitkorea.or.kr/cms/resource/01/2899401_image2_1.jpg",
    "category": "중식"
  },
  {
    "id": "2808930",
    "title": "훈카츠",
    "address": "서울특별시 영등포구 선유로9길 10 문래 SK V1 center",
    "phone": "",
    "latitude": "37.5179193723",
    "longitude": "126.8871668279",
    "image": "",
    "category": "중식"
  },
  {
    "id": "2852774",
    "title": "히노야마",
    "address": "서울특별시 양천구 목동서로 349 (신정동)",
    "phone": "",
    "latitude": "37.5174607031",
    "longitude": "126.8653216097",
    "image": "http://tong.visitkorea.or.kr/cms/resource/72/2852772_image2_1.jpg",
    "category": "중식"
  },
  {
    "id": "2678871",
    "title": "힛또",
    "address": "대구광역시 중구 명덕로 333",
    "phone": "053-256-6868",
    "latitude": "35.8558384563",
    "longitude": "128.6063648840",
    "image": "http://tong.visitkorea.or.kr/cms/resource/84/2674784_image2_1.jpg",
    "category": "중식"
  },
  {
    "id": "2875385",
    "title": "2리 식당",
    "address": "경기도 고양시 일산동구 일산로372번길 59 (정발산동)",
    "phone": "",
    "latitude": "37.6696249075",
    "longitude": "126.7851968588",
    "image": "http://tong.visitkorea.or.kr/cms/resource/78/2875378_image2_1.jpg",
    "category": "중식"
  },
  {
    "id": "2853243",
    "title": "303일상",
    "address": "부산광역시 동래구 차밭골로 36-4 (온천동)",
    "phone": "",
    "latitude": "35.2170080024",
    "longitude": "129.0777662684",
    "image": "http://tong.visitkorea.or.kr/cms/resource/41/2853241_image2_1.jpg",
    "category": "중식"
  },
  {
    "id": "2774463",
    "title": "38횟집 (삼팔횟집)",
    "address": "강원특별자치도 양양군 현북면 기사문길 58",
    "phone": "",
    "latitude": "38.0093855667",
    "longitude": "128.7295460488",
    "image": "",
    "category": "중식"
  },
  {
    "id": "2565285",
    "title": "[백년가게]공원당",
    "address": "충청북도 청주시 상당구 상당로55번길 40-2",
    "phone": "043-255-3894",
    "latitude": "36.6330767568",
    "longitude": "127.4885954571",
    "image": "http://tong.visitkorea.or.kr/cms/resource/95/2565295_image2_1.jpg",
    "category": "중식"
  },
  {
    "id": "2563226",
    "title": "[백년가게]스미센",
    "address": "대구광역시 동구 동부로30길 15",
    "phone": "053-752-0980",
    "latitude": "35.8756616317",
    "longitude": "128.6290706653",
    "image": "http://tong.visitkorea.or.kr/cms/resource/81/2563281_image2_1.jpg",
    "category": "중식"
  },
  {
    "id": "2821680",
    "title": "가지산돌짜장",
    "address": "울산광역시 울주군 웃궁평길 6-4",
    "phone": "",
    "latitude": "35.5964738822",
    "longitude": "129.0871271508",
    "image": "",
    "category": "중식",
    "original_category": "일식"
  },
  {
    "id": "2899643",
    "title": "갈마짬뽕",
    "address": "대전광역시 서구 월평동로 5-11 (갈마동)",
    "phone": "",
    "latitude": "36.3553592101",
    "longitude": "127.3683916032",
    "image": "http://tong.visitkorea.or.kr/cms/resource/38/2899638_image2_1.jpg",
    "category": "중식",
    "original_category": "일식"
  },
  {
    "id": "2742192",
    "title": "갑짬뽕",
    "address": "경기도 용인시 처인구 포곡읍 성산로 447",
    "phone": "",
    "latitude": "37.2755779782",
    "longitude": "127.1941874129",
    "image": "http://tong.visitkorea.or.kr/cms/resource/60/2750860_image2_1.jpg",
    "category": "중식",
    "original_category": "일식"
  },
  {
    "id": "2868904",
    "title": "강릉궁짬뽕",
    "address": "강원특별자치도 강릉시 창해로 271",
    "phone": "",
    "latitude": "37.7890065655",
    "longitude": "128.9239547835",
    "image": "http://tong.visitkorea.or.kr/cms/resource/85/2868885_image2_1.jpg",
    "category": "중식",
    "original_category": "일식"
  },
  {
    "id": "2834511",
    "title": "강짬뽕",
    "address": "충청남도 논산시 계백로 1660-8",
    "phone": "",
    "latitude": "36.2118385765",
    "longitude": "127.1578392952",
    "image": "http://tong.visitkorea.or.kr/cms/resource/99/2834499_image2_1.jpg",
    "category": "중식",
    "original_category": "일식"
  },
  {
    "id": "2925236",
    "title": "거동탕수육",
    "address": "강원특별자치도 동해시 일출로 83",
    "phone": "",
    "latitude": "37.5523904423",
    "longitude": "129.1167947716",
    "image": "http://tong.visitkorea.or.kr/cms/resource/01/2925201_image2_1.jpg",
    "category": "중식",
    "original_category": "일식"
  },
  {
    "id": "2830579",
    "title": "고구려짬뽕집",
    "address": "경기도 시흥시 수인로 3472-22 (신천동)",
    "phone": "",
    "latitude": "37.4440481769",
    "longitude": "126.7748152472",
    "image": "http://tong.visitkorea.or.kr/cms/resource/75/2830575_image2_1.jpeg",
    "category": "중식",
    "original_category": "일식"
  },
  {
    "id": "2807119",
    "title": "고서방 짬뽕",
    "address": "제주특별자치도 제주시 인다5길 11-5 (아라일동)",
    "phone": "",
    "latitude": "33.4759667087",
    "longitude": "126.5481604303",
    "image": "",
    "category": "중식",
    "original_category": "일식"
  },
  {
    "id": "2893445",
    "title": "고수짬뽕",
    "address": "경기도 성남시 중원구 성남대로997번길 51-4 (여수동)",
    "phone": "",
    "latitude": "37.4171325528",
    "longitude": "127.1248063798",
    "image": "http://tong.visitkorea.or.kr/cms/resource/43/2893443_image2_1.jpg",
    "category": "중식",
    "original_category": "일식"
  },
  {
    "id": "2869819",
    "title": "골드피쉬 딤섬퀴진",
    "address": "서울특별시 강남구 압구정로48길 35 (신사동)",
    "phone": "",
    "latitude": "37.5261238830",
    "longitude": "127.0371223814",
    "image": "http://tong.visitkorea.or.kr/cms/resource/06/2869806_image2_1.jpg",
    "category": "중식",
    "original_category": "일식"
  },
  {
    "id": "2683326",
    "title": "교동짬뽕",
    "address": "강원특별자치도 평창군 대관령면 횡계길 30",
    "phone": "033-336-2111",
    "latitude": "37.6735601866",
    "longitude": "128.7088999373",
    "image": "",
    "category": "중식",
    "original_category": "일식"
  },
  {
    "id": "3537009",
    "title": "교동짬뽕강릉본점",
    "address": "강원특별자치도 강릉시 강릉대로 155 (교동)",
    "phone": "033-651-3378",
    "latitude": "37.7574011769",
    "longitude": "128.8874923801",
    "image": "",
    "category": "중식",
    "original_category": "일식"
  },
  {
    "id": "2914035",
    "title": "권영철콩짬뽕",
    "address": "대전광역시 유성구 월드컵대로275번길 49 (구암동)",
    "phone": "",
    "latitude": "36.3507507503",
    "longitude": "127.3315089165",
    "image": "http://tong.visitkorea.or.kr/cms/resource/27/2914027_image2_1.jpg",
    "category": "중식",
    "original_category": "일식"
  },
  {
    "id": "2819792",
    "title": "그시절그짬뽕",
    "address": "제주특별자치도 제주시 한림북동길 7",
    "phone": "",
    "latitude": "33.4156133393",
    "longitude": "126.2642809145",
    "image": "",
    "category": "중식",
    "original_category": "일식"
  },
  {
    "id": "2900051",
    "title": "김가네서해짬뽕",
    "address": "충청남도 서천군 서인로 285",
    "phone": "",
    "latitude": "36.1458126086",
    "longitude": "126.5033746653",
    "image": "http://tong.visitkorea.or.kr/cms/resource/39/2900039_image2_1.jpg",
    "category": "중식",
    "original_category": "일식"
  },
  {
    "id": "1763860",
    "title": "김영남손짜장",
    "address": "경상북도 영주시 선비로 269-1",
    "phone": "054-632-5758",
    "latitude": "36.8278946065",
    "longitude": "128.6149780723",
    "image": "",
    "category": "중식",
    "original_category": "일식"
  },
  {
    "id": "2855152",
    "title": "남쪽마을돌짜장",
    "address": "광주광역시 광산구 임곡로 523-7 (진곡동)",
    "phone": "",
    "latitude": "35.2145428585",
    "longitude": "126.7902894297",
    "image": "http://tong.visitkorea.or.kr/cms/resource/37/2855137_image2_1.jpg",
    "category": "중식",
    "original_category": "일식"
  },
  {
    "id": "2850515",
    "title": "낭만짜장",
    "address": "충청북도 제천시 의림대로48길 2-41",
    "phone": "",
    "latitude": "37.1773246789",
    "longitude": "128.2122650178",
    "image": "http://tong.visitkorea.or.kr/cms/resource/04/2850504_image2_1.jpg",
    "category": "중식",
    "original_category": "일식"
  },
  {
    "id": "2862118",
    "title": "달토끼짬뽕 평택본점",
    "address": "경기도 평택시 비전9길 2-30 (비전동)",
    "phone": "",
    "latitude": "37.0021303196",
    "longitude": "127.1112969959",
    "image": "http://tong.visitkorea.or.kr/cms/resource/05/2862105_image2_1.jpg",
    "category": "중식",
    "original_category": "일식"
  },
  {
    "id": "2860036",
    "title": "도깨비탕수육",
    "address": "경기도 파주시 가람로21번길 61-10 (와동동)",
    "phone": "",
    "latitude": "37.7369164696",
    "longitude": "126.7515980300",
    "image": "http://tong.visitkorea.or.kr/cms/resource/07/2860007_image2_1.JPG",
    "category": "중식",
    "original_category": "일식"
  },
  {
    "id": "2837142",
    "title": "동광메밀짬뽕",
    "address": "제주특별자치도 서귀포시 신화역사로 581",
    "phone": "",
    "latitude": "33.3105401917",
    "longitude": "126.3497119467",
    "image": "http://tong.visitkorea.or.kr/cms/resource/27/2837127_image2_1.jpg",
    "category": "중식",
    "original_category": "일식"
  },
  {
    "id": "2875629",
    "title": "둔내뼈짬뽕",
    "address": "강원특별자치도 횡성군 경강로둔방10길 14-1",
    "phone": "",
    "latitude": "37.5133609155",
    "longitude": "128.2132605746",
    "image": "http://tong.visitkorea.or.kr/cms/resource/14/2875614_image2_1.jpg",
    "category": "중식",
    "original_category": "일식"
  },
  {
    "id": "2912917",
    "title": "들르미짬뽕 본점",
    "address": "대전광역시 유성구 관들4길 31 (관평동)",
    "phone": "",
    "latitude": "36.4241795575",
    "longitude": "127.3935041521",
    "image": "http://tong.visitkorea.or.kr/cms/resource/02/2912902_image2_1.jpg",
    "category": "중식",
    "original_category": "일식"
  },
  {
    "id": "2770810",
    "title": "또와요짬뽕",
    "address": "경기도 광명시 가학로 39",
    "phone": "",
    "latitude": "37.4177109698",
    "longitude": "126.8537643478",
    "image": "http://tong.visitkorea.or.kr/cms/resource/93/2771593_image2_1.jpeg",
    "category": "중식",
    "original_category": "일식"
  },
  {
    "id": "2812681",
    "title": "또와짬뽕",
    "address": "대전광역시 동구 동대전로 153-5",
    "phone": "",
    "latitude": "36.3356628487",
    "longitude": "127.4463629441",
    "image": "",
    "category": "중식",
    "original_category": "일식"
  },
  {
    "id": "2839611",
    "title": "뚝배기화룡짬뽕 시흥본점",
    "address": "경기도 시흥시 뱀내장터로 21 (대야동)",
    "phone": "",
    "latitude": "37.4419264186",
    "longitude": "126.7870697451",
    "image": "http://tong.visitkorea.or.kr/cms/resource/98/2839598_image2_1.jpg",
    "category": "중식",
    "original_category": "일식"
  },
  {
    "id": "2872838",
    "title": "마니산짜장",
    "address": "인천광역시 강화군 양도면 가능포로 221",
    "phone": "",
    "latitude": "37.6517928441",
    "longitude": "126.4254913785",
    "image": "http://tong.visitkorea.or.kr/cms/resource/27/2872827_image2_1.jpg",
    "category": "중식",
    "original_category": "일식"
  },
  {
    "id": "3458393",
    "title": "만리포돌짜장",
    "address": "충청남도 태안군 소원면 서해로 8",
    "phone": "",
    "latitude": "36.7850524169",
    "longitude": "126.1427266672",
    "image": "http://tong.visitkorea.or.kr/cms/resource/68/3455768_image2_1.jpg",
    "category": "중식",
    "original_category": "일식"
  },
  {
    "id": "2873360",
    "title": "만복짬뽕집",
    "address": "인천광역시 미추홀구 학익소로63번길 23 (학익동)",
    "phone": "",
    "latitude": "37.4417938382",
    "longitude": "126.6718163643",
    "image": "http://tong.visitkorea.or.kr/cms/resource/51/2873351_image2_1.jpg",
    "category": "중식",
    "original_category": "일식"
  },
  {
    "id": "3444051",
    "title": "명가짜장해물짬뽕",
    "address": "강원특별자치도 춘천시 남산면 강촌로 80",
    "phone": "",
    "latitude": "37.8121737758",
    "longitude": "127.6348097093",
    "image": "http://tong.visitkorea.or.kr/cms/resource/61/3444061_image2_1.jpg",
    "category": "중식",
    "original_category": "일식"
  },
  {
    "id": "2902036",
    "title": "무진정돌짜장",
    "address": "경상남도 함안군 괴산4길 6",
    "phone": "",
    "latitude": "35.2547584594",
    "longitude": "128.4224946717",
    "image": "http://tong.visitkorea.or.kr/cms/resource/28/2902028_image2_1.jpg",
    "category": "중식",
    "original_category": "일식"
  },
  {
    "id": "2853314",
    "title": "문산짬뽕",
    "address": "경기도 파주시 파주읍 봉서산로 3",
    "phone": "",
    "latitude": "37.8454989462",
    "longitude": "126.7904052849",
    "image": "http://tong.visitkorea.or.kr/cms/resource/11/2853311_image2_1.JPG",
    "category": "중식",
    "original_category": "일식"
  },
  {
    "id": "2375844",
    "title": "미인꼬치&마라탕",
    "address": "충청남도 부여군 사비로12번길 6",
    "phone": "041-832-5757",
    "latitude": "36.2734661103",
    "longitude": "126.9110042025",
    "image": "http://tong.visitkorea.or.kr/cms/resource/67/2375767_image2_1.jpg",
    "category": "중식",
    "original_category": "일식"
  },
  {
    "id": "2784946",
    "title": "바우짬뽕",
    "address": "강원특별자치도 평창군 진부면 진부시장뒷길 48-2",
    "phone": "",
    "latitude": "37.6379975196",
    "longitude": "128.5587312227",
    "image": "http://tong.visitkorea.or.kr/cms/resource/41/2784941_image2_1.jpg",
    "category": "중식",
    "original_category": "일식"
  },
  {
    "id": "2914887",
    "title": "박영수손짜장",
    "address": "경상남도 거제시 옥포성안로 26",
    "phone": "",
    "latitude": "34.8887182830",
    "longitude": "128.6940307581",
    "image": "http://tong.visitkorea.or.kr/cms/resource/84/2914884_image2_1.jpg",
    "category": "중식",
    "original_category": "일식"
  },
  {
    "id": "3424292",
    "title": "반곡돌위에짜장",
    "address": "강원특별자치도 원주시 양지뜰3길 20 (반곡동)",
    "phone": "",
    "latitude": "37.3259199241",
    "longitude": "127.9827952222",
    "image": "http://tong.visitkorea.or.kr/cms/resource/53/3424153_image2_1.jpeg",
    "category": "중식",
    "original_category": "일식"
  },
  {
    "id": "2845831",
    "title": "발해짬뽕 본점",
    "address": "경기도 시흥시 은계로338번길 30 (대야동)",
    "phone": "",
    "latitude": "37.4509255452",
    "longitude": "126.7967769430",
    "image": "http://tong.visitkorea.or.kr/cms/resource/24/2845824_image2_1.JPG",
    "category": "중식",
    "original_category": "일식"
  },
  {
    "id": "3520668",
    "title": "방화동 교동짬뽕",
    "address": "서울특별시 강서구 금낭화로24나길 21 (방화동, 이루미팰리스)",
    "phone": "",
    "latitude": "37.5773778541",
    "longitude": "126.8157688886",
    "image": "http://tong.visitkorea.or.kr/cms/resource/18/3520618_image2_1.jpeg",
    "category": "중식",
    "original_category": "일식"
  },
  {
    "id": "2765429",
    "title": "배가짬뽕",
    "address": "충청남도 당진시 대덕1로1길 19",
    "phone": "",
    "latitude": "36.8846715758",
    "longitude": "126.6335378664",
    "image": "",
    "category": "중식",
    "original_category": "일식"
  },
  {
    "id": "2990285",
    "title": "백년짬뽕",
    "address": "경기도 용인시 처인구 포곡읍 석성로888번길 37-14",
    "phone": "",
    "latitude": "37.2739364818",
    "longitude": "127.1930903362",
    "image": "http://tong.visitkorea.or.kr/cms/resource/81/2749481_image2_1.jpg",
    "category": "중식",
    "original_category": "일식"
  },
  {
    "id": "2860504",
    "title": "백년짬뽕 메이챤",
    "address": "경기도 안산시 단원구 중앙대로 97 (신길동)",
    "phone": "",
    "latitude": "37.3312636586",
    "longitude": "126.7529731494",
    "image": "http://tong.visitkorea.or.kr/cms/resource/01/2860501_image2_1.JPG",
    "category": "중식",
    "original_category": "일식"
  },
  {
    "id": "2838298",
    "title": "백년짬뽕미찬",
    "address": "경기도 시흥시 서해안로 1363 (신천동)",
    "phone": "",
    "latitude": "37.4311801655",
    "longitude": "126.7713853629",
    "image": "http://tong.visitkorea.or.kr/cms/resource/97/2838297_image2_1.jpg",
    "category": "중식",
    "original_category": "일식"
  },
  {
    "id": "2754026",
    "title": "백세짬뽕 수원본점",
    "address": "경기도 수원시 장안구 경수대로 1196-3 (파장동)",
    "phone": "",
    "latitude": "37.3179193967",
    "longitude": "126.9889576233",
    "image": "http://tong.visitkorea.or.kr/cms/resource/68/2754368_image2_1.jpg",
    "category": "중식",
    "original_category": "일식"
  },
  {
    "id": "2839307",
    "title": "본가꼬막짬뽕",
    "address": "경상북도 포항시 북구 새천년대로 1299-1",
    "phone": "",
    "latitude": "36.0758754791",
    "longitude": "129.3891870222",
    "image": "http://tong.visitkorea.or.kr/cms/resource/01/2839301_image2_1.jpg",
    "category": "중식",
    "original_category": "일식"
  },
  {
    "id": "2877579",
    "title": "봉동짬뽕",
    "address": "전북특별자치도 완주군 하월길 43",
    "phone": "",
    "latitude": "35.9379783326",
    "longitude": "127.1677206723",
    "image": "http://tong.visitkorea.or.kr/cms/resource/66/2877566_image2_1.jpg",
    "category": "중식",
    "original_category": "일식"
  },
  {
    "id": "2871930",
    "title": "북경짜장",
    "address": "울산광역시 북구 명촌23길 31 (진장동)",
    "phone": "",
    "latitude": "35.5566889718",
    "longitude": "129.3566297288",
    "image": "http://tong.visitkorea.or.kr/cms/resource/17/2871917_image2_1.JPG",
    "category": "중식",
    "original_category": "일식"
  },
  {
    "id": "2842043",
    "title": "북경짜장2900 검단본점",
    "address": "인천광역시 서구 원당대로 553 (왕길동)",
    "phone": "",
    "latitude": "37.5938926595",
    "longitude": "126.6627990595",
    "image": "http://tong.visitkorea.or.kr/cms/resource/37/2842037_image2_1.jpg",
    "category": "중식",
    "original_category": "일식"
  },
  {
    "id": "2876940",
    "title": "북경탕수육",
    "address": "충청남도 공주시 중동1길 5-18",
    "phone": "",
    "latitude": "36.4551490368",
    "longitude": "127.1250468167",
    "image": "http://tong.visitkorea.or.kr/cms/resource/27/2876927_image2_1.jpg",
    "category": "중식",
    "original_category": "일식"
  },
  {
    "id": "2872982",
    "title": "불타는용궁짬뽕",
    "address": "전라남도 화순군 칠충로 11 축산물판매장",
    "phone": "",
    "latitude": "35.0535502389",
    "longitude": "126.9735800286",
    "image": "http://tong.visitkorea.or.kr/cms/resource/71/2872971_image2_1.jpg",
    "category": "중식",
    "original_category": "일식"
  },
  {
    "id": "2758151",
    "title": "불티나꼬막짬뽕",
    "address": "충청남도 아산시 방축동 20-7",
    "phone": "",
    "latitude": "36.7794954306",
    "longitude": "126.9859783136",
    "image": "",
    "category": "중식",
    "original_category": "일식"
  },
  {
    "id": "2892283",
    "title": "뼈대있는짬뽕",
    "address": "강원특별자치도 원주시 삼광1길 10",
    "phone": "",
    "latitude": "37.3427537747",
    "longitude": "127.9658184845",
    "image": "http://tong.visitkorea.or.kr/cms/resource/79/2892279_image2_1.jpg",
    "category": "중식",
    "original_category": "일식"
  },
  {
    "id": "2912405",
    "title": "사나이짬뽕",
    "address": "충청북도 괴산군 송문로덕평길 26",
    "phone": "",
    "latitude": "36.7306601159",
    "longitude": "127.8019674214",
    "image": "http://tong.visitkorea.or.kr/cms/resource/97/2912397_image2_1.jpg",
    "category": "중식",
    "original_category": "일식"
  },
  {
    "id": "2849301",
    "title": "사모님짬뽕",
    "address": "서울특별시 강서구 금낭화로18길 10 (방화동)",
    "phone": "",
    "latitude": "37.5751308310",
    "longitude": "126.8122776038",
    "image": "http://tong.visitkorea.or.kr/cms/resource/95/2849295_image2_1.jpg",
    "category": "중식",
    "original_category": "일식"
  },
  {
    "id": "2899660",
    "title": "산내돌짜장면 대전본점",
    "address": "대전광역시 동구 산내로 457 (하소동)",
    "phone": "",
    "latitude": "36.2255087299",
    "longitude": "127.4441411272",
    "image": "http://tong.visitkorea.or.kr/cms/resource/53/2899653_image2_1.jpg",
    "category": "중식",
    "original_category": "일식"
  },
  {
    "id": "1816514",
    "title": "산동만두 공갈빵",
    "address": "인천광역시 중구 우현로49번길 33",
    "phone": "032-764-3449",
    "latitude": "37.4714590355",
    "longitude": "126.6264724544",
    "image": "",
    "category": "중식",
    "original_category": "일식"
  },
  {
    "id": "2851806",
    "title": "삼랑진짬뽕",
    "address": "경상남도 밀양시 삼랑진읍 삼랑진로 130",
    "phone": "",
    "latitude": "35.3894480213",
    "longitude": "128.8330856568",
    "image": "http://tong.visitkorea.or.kr/cms/resource/95/2851795_image2_1.JPG",
    "category": "중식",
    "original_category": "일식"
  },
  {
    "id": "1923965",
    "title": "상하이양꼬치",
    "address": "대전광역시 유성구 관들2길 72-9 (관평동)",
    "phone": "042-671-1192",
    "latitude": "36.4243350675",
    "longitude": "127.3919515091",
    "image": "",
    "category": "중식",
    "original_category": "일식"
  },
  {
    "id": "2765401",
    "title": "서유기짬뽕",
    "address": "충청남도 당진시 신평면 삽교천3길 60",
    "phone": "",
    "latitude": "36.8915546391",
    "longitude": "126.8224816952",
    "image": "",
    "category": "중식",
    "original_category": "일식"
  },
  {
    "id": "2929993",
    "title": "서호짬뽕",
    "address": "경상남도 통영시 새터길 74-3",
    "phone": "",
    "latitude": "34.8415019880",
    "longitude": "128.4209196665",
    "image": "http://tong.visitkorea.or.kr/cms/resource/73/2929973_image2_1.jpg",
    "category": "중식",
    "original_category": "일식"
  },
  {
    "id": "2899522",
    "title": "설짬뽕",
    "address": "대전광역시 서구 도안대로 37 (관저동)",
    "phone": "",
    "latitude": "36.3050032571",
    "longitude": "127.3344182266",
    "image": "http://tong.visitkorea.or.kr/cms/resource/13/2899513_image2_1.jpg",
    "category": "중식",
    "original_category": "일식"
  },
  {
    "id": "2901191",
    "title": "속초오징어짬뽕",
    "address": "강원특별자치도 속초시 엑스포로2길 43",
    "phone": "",
    "latitude": "38.1974441538",
    "longitude": "128.5812453006",
    "image": "http://tong.visitkorea.or.kr/cms/resource/84/2901184_image2_1.jpg",
    "category": "중식",
    "original_category": "일식"
  },
  {
    "id": "135464",
    "title": "손짜장일번지",
    "address": "경기도 포천시 내촌면 금강로 2029",
    "phone": "0507-1382-8933",
    "latitude": "37.7608554908",
    "longitude": "127.2218988269",
    "image": "",
    "category": "중식",
    "original_category": "일식"
  },
  {
    "id": "2924762",
    "title": "송가짬뽕",
    "address": "전북특별자치도 군산시 동수송안길 55 (수송동)",
    "phone": "",
    "latitude": "35.9689864577",
    "longitude": "126.7166767939",
    "image": "http://tong.visitkorea.or.kr/cms/resource/54/2924754_image2_1.jpg",
    "category": "중식",
    "original_category": "일식"
  },
  {
    "id": "2870295",
    "title": "송정용짬뽕",
    "address": "강원특별자치도 강릉시 해안로 141",
    "phone": "",
    "latitude": "37.7816658907",
    "longitude": "128.9312849062",
    "image": "http://tong.visitkorea.or.kr/cms/resource/85/2870285_image2_1.jpg",
    "category": "중식",
    "original_category": "일식"
  },
  {
    "id": "2867652",
    "title": "수원만두",
    "address": "경기도 수원시 팔달구 창룡대로8번길 6 (팔달로1가)",
    "phone": "",
    "latitude": "37.2815852250",
    "longitude": "127.0173977239",
    "image": "http://tong.visitkorea.or.kr/cms/resource/44/2867644_image2_1.jpg",
    "category": "중식",
    "original_category": "일식"
  },
  {
    "id": "2845574",
    "title": "신간짬뽕",
    "address": "경기도 김포시 돌문로61번길 14 (사우동, 칠성연립)",
    "phone": "",
    "latitude": "37.6195572794",
    "longitude": "126.7158268291",
    "image": "http://tong.visitkorea.or.kr/cms/resource/70/2845570_image2_1.jpg",
    "category": "중식",
    "original_category": "일식"
  },
  {
    "id": "2916025",
    "title": "신관짬뽕",
    "address": "충청남도 공주시 전막2길 32-7",
    "phone": "",
    "latitude": "36.4718611264",
    "longitude": "127.1316846592",
    "image": "http://tong.visitkorea.or.kr/cms/resource/21/2916021_image2_1.jpg",
    "category": "중식",
    "original_category": "일식"
  },
  {
    "id": "2852644",
    "title": "신길동매운짬뽕",
    "address": "서울특별시 영등포구 영등포로62길 10-1 (신길동)",
    "phone": "",
    "latitude": "37.5153979682",
    "longitude": "126.9165364450",
    "image": "http://tong.visitkorea.or.kr/cms/resource/29/2852629_image2_1.jpg",
    "category": "중식",
    "original_category": "일식"
  },
  {
    "id": "2876987",
    "title": "신미가 짬뽕",
    "address": "충청남도 공주시 동학사1로 139",
    "phone": "",
    "latitude": "36.3613675771",
    "longitude": "127.2521712861",
    "image": "http://tong.visitkorea.or.kr/cms/resource/76/2876976_image2_1.jpg",
    "category": "중식",
    "original_category": "일식"
  },
  {
    "id": "2756808",
    "title": "신짬뽕",
    "address": "경기도 용인시 처인구 포곡읍 포곡로118번길 51-14",
    "phone": "",
    "latitude": "37.2690097930",
    "longitude": "127.2219406378",
    "image": "http://tong.visitkorea.or.kr/cms/resource/59/2756959_image2_1.jpg",
    "category": "중식",
    "original_category": "일식"
  },
  {
    "id": "2756580",
    "title": "심가네해물짬뽕",
    "address": "경상남도 통영시 새터길 74-4",
    "phone": "",
    "latitude": "34.8415714185",
    "longitude": "128.4205696956",
    "image": "http://tong.visitkorea.or.kr/cms/resource/84/2756884_image2_1.jpg",
    "category": "중식",
    "original_category": "일식"
  },
  {
    "id": "2846861",
    "title": "아라짬뽕",
    "address": "인천광역시 중구 오작로 6-9 (중산동)",
    "phone": "",
    "latitude": "37.4956579112",
    "longitude": "126.5646329837",
    "image": "http://tong.visitkorea.or.kr/cms/resource/38/2846838_image2_1.jpg",
    "category": "중식",
    "original_category": "일식"
  },
  {
    "id": "2923780",
    "title": "아리울해물짬뽕",
    "address": "전북특별자치도 군산시 비응동로 65 아리울짜장일번지",
    "phone": "",
    "latitude": "35.9401755227",
    "longitude": "126.5337466801",
    "image": "http://tong.visitkorea.or.kr/cms/resource/69/2923769_image2_1.jpg",
    "category": "중식",
    "original_category": "일식"
  },
  {
    "id": "2904122",
    "title": "엄마는돌짜장",
    "address": "경상북도 칠곡군 한티로 594",
    "phone": "",
    "latitude": "36.0085708808",
    "longitude": "128.5916508054",
    "image": "http://tong.visitkorea.or.kr/cms/resource/08/2904108_image2_1.jpg",
    "category": "중식",
    "original_category": "일식"
  },
  {
    "id": "2915021",
    "title": "엄선장 짬뽕",
    "address": "경상남도 거제시 남부면 근포1길 57-4",
    "phone": "",
    "latitude": "34.7201129940",
    "longitude": "128.5887165947",
    "image": "http://tong.visitkorea.or.kr/cms/resource/17/2915017_image2_1.jpg",
    "category": "중식",
    "original_category": "일식"
  },
  {
    "id": "2875218",
    "title": "엠티브이교동짬뽕",
    "address": "경기도 시흥시 엠티브이26로19번길 1 (정왕동)",
    "phone": "",
    "latitude": "37.3210222863",
    "longitude": "126.7023530395",
    "image": "http://tong.visitkorea.or.kr/cms/resource/11/2875211_image2_1.JPG",
    "category": "중식",
    "original_category": "일식"
  },
  {
    "id": "2923420",
    "title": "여수대표짬뽕",
    "address": "전라남도 여수시 무선8길 17 (선원동)",
    "phone": "",
    "latitude": "34.7755569600",
    "longitude": "127.6512246899",
    "image": "http://tong.visitkorea.or.kr/cms/resource/02/2923402_image2_1.JPG",
    "category": "중식",
    "original_category": "일식"
  },
  {
    "id": "2663525",
    "title": "여의도 양꼬치",
    "address": "서울특별시 영등포구 국제금융로6길 30, 2층",
    "phone": "",
    "latitude": "37.5217779627",
    "longitude": "126.9266297904",
    "image": "http://tong.visitkorea.or.kr/cms/resource/26/2663526_image2_1.jpg",
    "category": "중식",
    "original_category": "일식"
  },
  {
    "id": "2866467",
    "title": "연하루 뼈대짬뽕",
    "address": "경상북도 김천시 영남대로 1398",
    "phone": "",
    "latitude": "36.1258094564",
    "longitude": "128.0890503506",
    "image": "http://tong.visitkorea.or.kr/cms/resource/52/2866452_image2_1.jpg",
    "category": "중식",
    "original_category": "일식"
  },
  {
    "id": "2835498",
    "title": "옛날손짜장천안문",
    "address": "충청북도 청주시 청원구 양청2길 22",
    "phone": "",
    "latitude": "36.7190907865",
    "longitude": "127.4275485589",
    "image": "http://tong.visitkorea.or.kr/cms/resource/92/2835492_image2_1.jpg",
    "category": "중식",
    "original_category": "일식"
  },
  {
    "id": "2496493",
    "title": "옛날중국집",
    "address": "서울특별시 성북구 성북로8길 8 (성북동)",
    "phone": "02-764-0094",
    "latitude": "37.5908768819",
    "longitude": "127.0043929714",
    "image": "",
    "category": "중식",
    "original_category": "일식"
  },
  {
    "id": "2776981",
    "title": "오가다짬뽕",
    "address": "부산광역시 기장군 기장읍 연화1길 157",
    "phone": "",
    "latitude": "35.2178606699",
    "longitude": "129.2266782886",
    "image": "",
    "category": "중식",
    "original_category": "일식"
  },
  {
    "id": "2840638",
    "title": "오짜장",
    "address": "제주특별자치도 제주시 조공포길 36 (외도일동)",
    "phone": "",
    "latitude": "33.4890245608",
    "longitude": "126.4341228251",
    "image": "http://tong.visitkorea.or.kr/cms/resource/27/2840627_image2_1.jpg",
    "category": "중식",
    "original_category": "일식"
  },
  {
    "id": "2859320",
    "title": "오창화짬뽕",
    "address": "충청북도 청주시 청원구 중심상업로 66-18",
    "phone": "",
    "latitude": "36.7167827817",
    "longitude": "127.4311038588",
    "image": "http://tong.visitkorea.or.kr/cms/resource/16/2859316_image2_1.jpg",
    "category": "중식",
    "original_category": "일식"
  },
  {
    "id": "3533679",
    "title": "옹심이중국집",
    "address": "강원특별자치도 강릉시 공항길 28 (병산동)",
    "phone": "",
    "latitude": "37.7622988461",
    "longitude": "128.9394486599",
    "image": "",
    "category": "중식",
    "original_category": "일식"
  },
  {
    "id": "2674198",
    "title": "용궁손짜장",
    "address": "경기도 평택시 도일유통길 13-55",
    "phone": "031-666-7575",
    "latitude": "37.0396507734",
    "longitude": "127.0992220481",
    "image": "http://tong.visitkorea.or.kr/cms/resource/09/2672909_image2_1.jpg",
    "category": "중식",
    "original_category": "일식"
  },
  {
    "id": "850891",
    "title": "용궁해물야채쟁반짜장",
    "address": "부산광역시 기장군 기장읍 기장해안로 208",
    "phone": "051-723-0944",
    "latitude": "35.1940437818",
    "longitude": "129.2207489054",
    "image": "",
    "category": "중식",
    "original_category": "일식"
  },
  {
    "id": "2837027",
    "title": "용두리짬뽕전문점",
    "address": "경기도 양평군 청운면 용두로 148",
    "phone": "",
    "latitude": "37.5549189160",
    "longitude": "127.7095882404",
    "image": "http://tong.visitkorea.or.kr/cms/resource/17/2837017_image2_1.jpg",
    "category": "중식",
    "original_category": "일식"
  },
  {
    "id": "2783442",
    "title": "용천짬뽕",
    "address": "강원특별자치도 평창군 대화면 대화시장2길 19",
    "phone": "",
    "latitude": "37.5001225696",
    "longitude": "128.4542531308",
    "image": "http://tong.visitkorea.or.kr/cms/resource/18/2783418_image2_1.jpg",
    "category": "중식",
    "original_category": "일식"
  },
  {
    "id": "1830336",
    "title": "우리옛날손짜장",
    "address": "충청남도 예산군 예산읍 충서로 1610",
    "phone": "041-334-8210",
    "latitude": "36.7376257815",
    "longitude": "126.8580271035",
    "image": "http://tong.visitkorea.or.kr/cms/resource/89/1965189_image2_1.jpg",
    "category": "중식",
    "original_category": "일식"
  },
  {
    "id": "2850943",
    "title": "윤가네 바다짬뽕",
    "address": "충청남도 태안군 근흥로 248",
    "phone": "",
    "latitude": "36.7482807542",
    "longitude": "126.2525815626",
    "image": "http://tong.visitkorea.or.kr/cms/resource/32/2850932_image2_1.jpg",
    "category": "중식",
    "original_category": "일식"
  },
  {
    "id": "2761439",
    "title": "이봉원의봉짬뽕",
    "address": "충청남도 천안시 서북구 성정두정로 70",
    "phone": "",
    "latitude": "36.8319921500",
    "longitude": "127.1421989017",
    "image": "",
    "category": "중식",
    "original_category": "일식"
  },
  {
    "id": "2874623",
    "title": "이영화교동짬뽕 본점",
    "address": "경기도 안산시 단원구 대선로 87 (대부북동)",
    "phone": "",
    "latitude": "37.2638876986",
    "longitude": "126.5699499971",
    "image": "http://tong.visitkorea.or.kr/cms/resource/33/2874533_image2_1.JPG",
    "category": "중식",
    "original_category": "일식"
  },
  {
    "id": "2872517",
    "title": "자갈치왕짬뽕",
    "address": "부산광역시 강서구 공항로447번길 6 (대저2동)",
    "phone": "",
    "latitude": "35.1480245190",
    "longitude": "128.9517374613",
    "image": "http://tong.visitkorea.or.kr/cms/resource/10/2872510_image2_1.JPG",
    "category": "중식",
    "original_category": "일식"
  },
  {
    "id": "3442721",
    "title": "장릉황제손짜장",
    "address": "강원특별자치도 영월군 영월읍 단종로 187",
    "phone": "",
    "latitude": "37.1949300043",
    "longitude": "128.4553593422",
    "image": "http://tong.visitkorea.or.kr/cms/resource/76/3442776_image2_1.jpg",
    "category": "중식",
    "original_category": "일식"
  },
  {
    "id": "2858536",
    "title": "재벌짬뽕",
    "address": "충청남도 아산시 온양역길 124",
    "phone": "",
    "latitude": "36.7795513531",
    "longitude": "127.0071375151",
    "image": "http://tong.visitkorea.or.kr/cms/resource/31/2858531_image2_1.jpg",
    "category": "중식",
    "original_category": "일식"
  },
  {
    "id": "2905695",
    "title": "조치원짬뽕",
    "address": "세종특별자치시 조치원읍 돌마루2길 7",
    "phone": "",
    "latitude": "36.6065235136",
    "longitude": "127.2919749444",
    "image": "http://tong.visitkorea.or.kr/cms/resource/83/2905683_image2_1.jpg",
    "category": "중식",
    "original_category": "일식"
  },
  {
    "id": "2795821",
    "title": "주남저수지돌짜장",
    "address": "경상남도 창원시 의창구 동읍 동읍로 309",
    "phone": "",
    "latitude": "35.2997439795",
    "longitude": "128.6686163710",
    "image": "http://tong.visitkorea.or.kr/cms/resource/79/2796679_image2_1.JPG",
    "category": "중식",
    "original_category": "일식"
  },
  {
    "id": "2912364",
    "title": "주원장밤짜장",
    "address": "충청남도 공주시 단지문화마을길 10-20",
    "phone": "",
    "latitude": "36.4743235256",
    "longitude": "127.0630379768",
    "image": "http://tong.visitkorea.or.kr/cms/resource/56/2912356_image2_1.jpg",
    "category": "중식",
    "original_category": "일식"
  },
  {
    "id": "2816891",
    "title": "중국관",
    "address": "서울특별시 성동구 뚝섬로 404 스노화이트성수1",
    "phone": "",
    "latitude": "37.5386255373",
    "longitude": "127.0553898078",
    "image": "",
    "category": "중식",
    "original_category": "일식"
  },
  {
    "id": "2832215",
    "title": "중국만두",
    "address": "경상북도 김천시 용머리5길 5",
    "phone": "",
    "latitude": "36.1192942337",
    "longitude": "128.1276665498",
    "image": "http://tong.visitkorea.or.kr/cms/resource/02/2832202_image2_1.jpg",
    "category": "중식",
    "original_category": "일식"
  },
  {
    "id": "724052",
    "title": "중국성",
    "address": "인천광역시 중구 차이나타운로 53",
    "phone": "032-762-1677",
    "latitude": "37.4748196205",
    "longitude": "126.6187952841",
    "image": "http://tong.visitkorea.or.kr/cms/resource/47/728547_image2_1.jpg",
    "category": "중식",
    "original_category": "일식"
  },
  {
    "id": "2687310",
    "title": "중국성",
    "address": "강원특별자치도 철원군 근남면 하오재로 2080",
    "phone": "033-458-5933",
    "latitude": "38.2396014621",
    "longitude": "127.4715924830",
    "image": "",
    "category": "중식",
    "original_category": "일식"
  },
  {
    "id": "2687852",
    "title": "중본이쟁반짜장",
    "address": "전북특별자치도 전주시 완산구 공북로 71",
    "phone": "063-271-2223",
    "latitude": "35.8261711273",
    "longitude": "127.1395511153",
    "image": "http://tong.visitkorea.or.kr/cms/resource/00/2701300_image2_1.jpg",
    "category": "중식",
    "original_category": "일식"
  },
  {
    "id": "2855668",
    "title": "중식당 청 한남점",
    "address": "서울특별시 용산구 한남대로20길 47-24 (한남동)",
    "phone": "",
    "latitude": "37.5354195394",
    "longitude": "127.0100690263",
    "image": "http://tong.visitkorea.or.kr/cms/resource/57/2855657_image2_1.jpg",
    "category": "중식",
    "original_category": "일식"
  },
  {
    "id": "2871569",
    "title": "중원해물모듬짬뽕 본점",
    "address": "경기도 양주시 남면 삼육사로404번길 8-3",
    "phone": "",
    "latitude": "37.9100645853",
    "longitude": "126.9974622521",
    "image": "http://tong.visitkorea.or.kr/cms/resource/58/2871558_image2_1.jpg",
    "category": "중식",
    "original_category": "일식"
  },
  {
    "id": "2891488",
    "title": "증도황궁짜장",
    "address": "전라남도 신안군 증도중앙길 40-7",
    "phone": "",
    "latitude": "35.0017255843",
    "longitude": "126.1394967724",
    "image": "http://tong.visitkorea.or.kr/cms/resource/84/2891484_image2_1.jpg",
    "category": "중식",
    "original_category": "일식"
  },
  {
    "id": "2856852",
    "title": "진골짬뽕",
    "address": "충청북도 진천군 문화로 19",
    "phone": "",
    "latitude": "36.8498094319",
    "longitude": "127.4465432198",
    "image": "",
    "category": "중식",
    "original_category": "일식"
  },
  {
    "id": "2836909",
    "title": "진아짬뽕",
    "address": "경기도 안성시 양성면 덕봉서원로 312",
    "phone": "",
    "latitude": "37.0302005189",
    "longitude": "127.1794539465",
    "image": "http://tong.visitkorea.or.kr/cms/resource/99/2836899_image2_1.jpg",
    "category": "중식",
    "original_category": "일식"
  },
  {
    "id": "2751592",
    "title": "진짬뽕 진차이나",
    "address": "경기도 시흥시 동서로 691 (광석동)",
    "phone": "",
    "latitude": "37.3853419641",
    "longitude": "126.8233263553",
    "image": "http://tong.visitkorea.or.kr/cms/resource/14/2751614_image2_1.jpeg",
    "category": "중식",
    "original_category": "일식"
  },
  {
    "id": "1959048",
    "title": "진짬뽕진짜장",
    "address": "강원특별자치도 춘천시 공지로 246 (효자동)",
    "phone": "",
    "latitude": "37.8642112891",
    "longitude": "127.7368349970",
    "image": "",
    "category": "중식",
    "original_category": "일식"
  },
  {
    "id": "3533671",
    "title": "짬뽕1번지",
    "address": "강원특별자치도 강릉시 송정길2번길 13 (송정동)",
    "phone": "",
    "latitude": "37.7762220719",
    "longitude": "128.9310517626",
    "image": "",
    "category": "중식",
    "original_category": "일식"
  },
  {
    "id": "2862993",
    "title": "짬뽕나무",
    "address": "경기도 평택시 고덕면 방축2길 77",
    "phone": "",
    "latitude": "37.0193160896",
    "longitude": "127.0474856231",
    "image": "http://tong.visitkorea.or.kr/cms/resource/86/2862986_image2_1.jpg",
    "category": "중식",
    "original_category": "일식"
  },
  {
    "id": "2766468",
    "title": "짬뽕대장",
    "address": "충청북도 진천군 이월면 신척서길 27-3",
    "phone": "",
    "latitude": "36.9292203171",
    "longitude": "127.4787797663",
    "image": "http://tong.visitkorea.or.kr/cms/resource/85/2767185_image2_1.jpg",
    "category": "중식",
    "original_category": "일식"
  },
  {
    "id": "2767786",
    "title": "짬뽕에취한날",
    "address": "제주특별자치도 제주시 귀아랑2길 4",
    "phone": "",
    "latitude": "33.4912336621",
    "longitude": "126.4978339020",
    "image": "",
    "category": "중식",
    "original_category": "일식"
  },
  {
    "id": "3536323",
    "title": "짬뽕의신 주문진점",
    "address": "강원특별자치도 강릉시 주문진읍 신리천로 47",
    "phone": "033-661-8808",
    "latitude": "37.8838575554",
    "longitude": "128.8257384760",
    "image": "",
    "category": "중식",
    "original_category": "일식"
  },
  {
    "id": "2734951",
    "title": "짬뽕지존",
    "address": "충청남도 천안시 서북구 서부대로 719",
    "phone": "",
    "latitude": "36.8314087227",
    "longitude": "127.1331025155",
    "image": "http://tong.visitkorea.or.kr/cms/resource/77/2735077_image2_1.jpg",
    "category": "중식",
    "original_category": "일식"
  },
  {
    "id": "2856788",
    "title": "천안짬뽕작전",
    "address": "충청남도 천안시 동남구 통정12로 7",
    "phone": "",
    "latitude": "36.7789646871",
    "longitude": "127.1289626615",
    "image": "http://tong.visitkorea.or.kr/cms/resource/85/2856785_image2_1.jpg",
    "category": "중식",
    "original_category": "일식"
  },
  {
    "id": "3535733",
    "title": "청도양꼬치",
    "address": "강원특별자치도 강릉시 남산초교길 15-2 (내곡동)",
    "phone": "",
    "latitude": "37.7459386774",
    "longitude": "128.8907341091",
    "image": "",
    "category": "중식",
    "original_category": "일식"
  },
  {
    "id": "2809070",
    "title": "청목 신신짬뽕",
    "address": "경상북도 울진군 울진중앙로 40 자연피부체형관리실",
    "phone": "",
    "latitude": "36.9857582368",
    "longitude": "129.3977592674",
    "image": "",
    "category": "중식",
    "original_category": "일식"
  },
  {
    "id": "2902578",
    "title": "청평돌짜장",
    "address": "경기도 가평군 북한강로 2040",
    "phone": "",
    "latitude": "37.6985519891",
    "longitude": "127.3939127347",
    "image": "http://tong.visitkorea.or.kr/cms/resource/65/2902365_image2_1.jpg",
    "category": "중식",
    "original_category": "일식"
  },
  {
    "id": "2855917",
    "title": "최고야손해물짬뽕",
    "address": "경기도 파주시 탄현면 필승로 490",
    "phone": "",
    "latitude": "37.7840543051",
    "longitude": "126.6891468584",
    "image": "http://tong.visitkorea.or.kr/cms/resource/12/2855912_image2_1.JPG",
    "category": "중식",
    "original_category": "일식"
  },
  {
    "id": "2922681",
    "title": "최고집손짜장",
    "address": "경기도 용인시 수지구 만현로 17-1 (상현동)",
    "phone": "",
    "latitude": "37.3141160795",
    "longitude": "127.0894708260",
    "image": "http://tong.visitkorea.or.kr/cms/resource/36/3073436_image2_1.jpg",
    "category": "중식",
    "original_category": "일식"
  },
  {
    "id": "2855353",
    "title": "칠봉이짬뽕",
    "address": "광주광역시 광산구 목련로394번길 23-26",
    "phone": "",
    "latitude": "35.1849080549",
    "longitude": "126.8339696374",
    "image": "",
    "category": "중식",
    "original_category": "일식"
  },
  {
    "id": "2734895",
    "title": "코리안손짜장",
    "address": "경기도 화성시 경기동로 500 (장지동)",
    "phone": "",
    "latitude": "37.1509244886",
    "longitude": "127.1249499581",
    "image": "http://tong.visitkorea.or.kr/cms/resource/72/2775472_image2_1.jpg",
    "category": "중식",
    "original_category": "일식"
  },
  {
    "id": "2876008",
    "title": "큰집뼈대있는짬뽕",
    "address": "세종특별자치시 노을3로 19 (한솔동, 첫마을2단지)",
    "phone": "",
    "latitude": "36.4814678350",
    "longitude": "127.2593535019",
    "image": "http://tong.visitkorea.or.kr/cms/resource/90/2875990_image2_1.jpg",
    "category": "중식",
    "original_category": "일식"
  },
  {
    "id": "2863676",
    "title": "탕수육",
    "address": "경기도 파주시 지목로 138 (문발동)",
    "phone": "",
    "latitude": "37.7298720032",
    "longitude": "126.7042803361",
    "image": "http://tong.visitkorea.or.kr/cms/resource/68/2863668_image2_1.JPG",
    "category": "중식",
    "original_category": "일식"
  },
  {
    "id": "1128306",
    "title": "태종대짬뽕",
    "address": "부산광역시 영도구 태종로 805 (동삼동)",
    "phone": "",
    "latitude": "35.0646279036",
    "longitude": "129.0812062500",
    "image": "http://tong.visitkorea.or.kr/cms/resource/51/3526951_image2_1.jpg",
    "category": "중식",
    "original_category": "일식"
  },
  {
    "id": "2858383",
    "title": "통영짬뽕",
    "address": "경상남도 고성군 당항길 154-12",
    "phone": "",
    "latitude": "35.0489419714",
    "longitude": "128.3831674861",
    "image": "",
    "category": "중식",
    "original_category": "일식"
  },
  {
    "id": "2742109",
    "title": "퇴촌돌짜장",
    "address": "경기도 광주시 퇴촌면 산수로 894",
    "phone": "",
    "latitude": "37.4374614270",
    "longitude": "127.3158884505",
    "image": "http://tong.visitkorea.or.kr/cms/resource/48/2745448_image2_1.png",
    "category": "중식",
    "original_category": "일식"
  },
  {
    "id": "2836130",
    "title": "파주돌짜장",
    "address": "경기도 파주시 운정로 129 (상지석동)",
    "phone": "",
    "latitude": "37.7214659999",
    "longitude": "126.7800514195",
    "image": "http://tong.visitkorea.or.kr/cms/resource/27/2836127_image2_1.jpg",
    "category": "중식",
    "original_category": "일식"
  },
  {
    "id": "2893495",
    "title": "하남신짬뽕",
    "address": "경기도 하남시 대성로 133 (춘궁동)",
    "phone": "",
    "latitude": "37.5220550254",
    "longitude": "127.1975134583",
    "image": "http://tong.visitkorea.or.kr/cms/resource/47/2893447_image2_1.jpg",
    "category": "중식",
    "original_category": "일식"
  },
  {
    "id": "2853278",
    "title": "하르방짬뽕",
    "address": "제주특별자치도 제주시 하귀동남4길 4",
    "phone": "",
    "latitude": "33.4825082726",
    "longitude": "126.4124692997",
    "image": "http://tong.visitkorea.or.kr/cms/resource/71/2853271_image2_1.jpg",
    "category": "중식",
    "original_category": "일식"
  },
  {
    "id": "2874391",
    "title": "합천짬뽕",
    "address": "경상남도 합천군 합천읍 문화로 13",
    "phone": "",
    "latitude": "35.5614301955",
    "longitude": "128.1551737886",
    "image": "http://tong.visitkorea.or.kr/cms/resource/71/2874371_image2_1.JPG",
    "category": "중식",
    "original_category": "일식"
  },
  {
    "id": "2868985",
    "title": "해물화짬뽕",
    "address": "충청남도 천안시 동남구 교천지산길 104",
    "phone": "",
    "latitude": "36.7777993939",
    "longitude": "127.1987508516",
    "image": "http://tong.visitkorea.or.kr/cms/resource/74/2868974_image2_1.jpg",
    "category": "중식",
    "original_category": "일식"
  },
  {
    "id": "2855387",
    "title": "향뚝짬뽕",
    "address": "전북특별자치도 완주군 초포다리로 250",
    "phone": "",
    "latitude": "35.8780016464",
    "longitude": "127.1572231843",
    "image": "http://tong.visitkorea.or.kr/cms/resource/75/2855375_image2_1.jpg",
    "category": "중식",
    "original_category": "일식"
  },
  {
    "id": "2892749",
    "title": "향연양꼬치",
    "address": "경기도 안양시 동안구 인덕원로 30 (관양동)",
    "phone": "",
    "latitude": "37.4021843675",
    "longitude": "126.9744454691",
    "image": "http://tong.visitkorea.or.kr/cms/resource/45/2892745_image2_1.jpg",
    "category": "중식",
    "original_category": "일식"
  },
  {
    "id": "2845860",
    "title": "현짬뽕",
    "address": "대구광역시 남구 대봉로 170 (이천동)",
    "phone": "",
    "latitude": "35.8538719483",
    "longitude": "128.6029041326",
    "image": "http://tong.visitkorea.or.kr/cms/resource/58/2845858_image2_1.jpg",
    "category": "중식",
    "original_category": "일식"
  },
  {
    "id": "2910476",
    "title": "홍바짬뽕",
    "address": "경상남도 사천시 노례길 3",
    "phone": "",
    "latitude": "34.9914843511",
    "longitude": "128.0610249370",
    "image": "http://tong.visitkorea.or.kr/cms/resource/59/2910459_image2_1.jpg",
    "category": "중식",
    "original_category": "일식"
  },
  {
    "id": "2905238",
    "title": "화화쿵주마라탕",
    "address": "인천광역시 연수구 송도과학로16번길 33-3 (송도동)",
    "phone": "",
    "latitude": "37.3798702879",
    "longitude": "126.6612634871",
    "image": "http://tong.visitkorea.or.kr/cms/resource/20/2905220_image2_1.jpg",
    "category": "중식",
    "original_category": "일식"
  },
  {
    "id": "2875116",
    "title": "황제바지락짬뽕",
    "address": "경기도 성남시 수정구 탄천로307번길 6 (사송동)",
    "phone": "",
    "latitude": "37.4191877264",
    "longitude": "127.1167987163",
    "image": "http://tong.visitkorea.or.kr/cms/resource/10/2875110_image2_1.jpg",
    "category": "중식",
    "original_category": "일식"
  },
  {
    "id": "3536523",
    "title": "태양부양꼬치 강릉점",
    "address": "강원특별자치도 강릉시 회산로383번길 1 (회산동)",
    "phone": "",
    "latitude": "37.7417331792",
    "longitude": "128.8687195551",
    "image": "",
    "category": "중식",
    "original_category": "이색음식점"
  },
  {
    "id": "3537206",
    "title": "강릉 중화짬뽕빵",
    "address": "강원특별자치도 강릉시 금성로13번길 17 (성남동)",
    "phone": "0507-1333-6812",
    "latitude": "37.7533574475",
    "longitude": "128.9001719187",
    "image": "",
    "category": "중식",
    "original_category": "카페디저트"
  },
  {
    "id": "2739451",
    "title": "마라커피로스터스",
    "address": "경기도 용인시 기흥구 지삼로 214",
    "phone": "",
    "latitude": "37.2395560815",
    "longitude": "127.1348521364",
    "image": "http://tong.visitkorea.or.kr/cms/resource/68/2775168_image2_1.jpg",
    "category": "중식",
    "original_category": "카페디저트"
  },
  {
    "id": "1887494",
    "title": "호찐빵만두나라",
    "address": "대구광역시 달성군 가창면 가창로 1102",
    "phone": "053-767-1007",
    "latitude": "35.8028586357",
    "longitude": "128.6224621621",
    "image": "http://tong.visitkorea.or.kr/cms/resource/70/1876170_image2_1.jpg",
    "category": "중식",
    "original_category": "카페디저트"
  }
]