[
  {
    "id": "2901530",
    "title": "가경목장",
    "address": "경기도 안산시 상록구 감골로 173 (사동)",
    "phone": "",
    "latitude": "37.2971166997",
    "longitude": "126.8580034344",
    "image": "http://tong.visitkorea.or.kr/cms/resource/12/2901512_image2_1.jpg",
    "category": "한식"
  },
  {
    "id": "1797757",
    "title": "가경식당",
    "address": "충청남도 부여군 부여읍 성왕로 286",
    "phone": "041-835-5338",
    "latitude": "36.2832456836",
    "longitude": "126.9189337881",
    "image": "",
    "category": "한식"
  },
  {
    "id": "2788416",
    "title": "가고파부치기",
    "address": "강원특별자치도 평창군 평창읍 평창시장1길 14",
    "phone": "",
    "latitude": "37.3669090429",
    "longitude": "128.3949096743",
    "image": "http://tong.visitkorea.or.kr/cms/resource/85/2788385_image2_1.jpg",
    "category": "한식"
  },
  {
    "id": "2866408",
    "title": "가고파생삼겹구이",
    "address": "경상남도 창원시 마산합포구 해양관광로 962",
    "phone": "",
    "latitude": "35.1052441863",
    "longitude": "128.5483682280",
    "image": "http://tong.visitkorea.or.kr/cms/resource/02/2866402_image2_1.JPG",
    "category": "한식"
  },
  {
    "id": "2572443",
    "title": "가고파식당",
    "address": "경상남도 통영시 한산면 한산일주로 856",
    "phone": "055-641-8388",
    "latitude": "34.7671312725",
    "longitude": "128.5064669527",
    "image": "",
    "category": "한식"
  },
  {
    "id": "1928589",
    "title": "가나샤브샤브",
    "address": "대전광역시 유성구 신성로84번길 49",
    "phone": "",
    "latitude": "36.3890161659",
    "longitude": "127.3512700000",
    "image": "http://tong.visitkorea.or.kr/cms/resource/30/3062830_image2_1.JPG",
    "category": "한식"
  },
  {
    "id": "2894914",
    "title": "가나안국수",
    "address": "경기도 고양시 덕양구 행주로15번길 16",
    "phone": "",
    "latitude": "37.6009169989",
    "longitude": "126.8278865647",
    "image": "http://tong.visitkorea.or.kr/cms/resource/91/2894891_image2_1.jpg",
    "category": "한식"
  },
  {
    "id": "2831563",
    "title": "가나안장어마을",
    "address": "경기도 고양시 일산동구 애니골길 54 (풍동)",
    "phone": "",
    "latitude": "37.6721941761",
    "longitude": "126.7921100429",
    "image": "http://tong.visitkorea.or.kr/cms/resource/54/2831554_image2_1.JPG",
    "category": "한식"
  },
  {
    "id": "597467",
    "title": "가덕도횟집",
    "address": "인천광역시 중구 연안부두로 61",
    "phone": "032-882-8505",
    "latitude": "37.4534884332",
    "longitude": "126.5998642696",
    "image": "http://tong.visitkorea.or.kr/cms/resource/74/1884774_image2_1.jpg",
    "category": "한식"
  },
  {
    "id": "2903777",
    "title": "가덕한우정육점",
    "address": "충청북도 청주시 상당구 단재로 940",
    "phone": "",
    "latitude": "36.5634910212",
    "longitude": "127.5291215233",
    "image": "http://tong.visitkorea.or.kr/cms/resource/63/2903763_image2_1.png",
    "category": "한식"
  },
  {
    "id": "2900308",
    "title": "가든세계평화",
    "address": "경상북도 청송군 경동로 5185",
    "phone": "",
    "latitude": "36.5041023204",
    "longitude": "129.1218147595",
    "image": "http://tong.visitkorea.or.kr/cms/resource/90/2900290_image2_1.jpg",
    "category": "한식"
  },
  {
    "id": "2876098",
    "title": "가든파티 계양점",
    "address": "인천광역시 계양구 경명대로 977",
    "phone": "",
    "latitude": "37.5441604907",
    "longitude": "126.7155150810",
    "image": "http://tong.visitkorea.or.kr/cms/resource/95/2876095_image2_1.jpg",
    "category": "한식"
  },
  {
    "id": "2757617",
    "title": "가락골마산아구찜",
    "address": "서울특별시 송파구 송이로19길 3",
    "phone": "",
    "latitude": "37.4975120620",
    "longitude": "127.1217599348",
    "image": "",
    "category": "한식"
  },
  {
    "id": "2013680",
    "title": "가람",
    "address": "충청북도 제천시 수산면 월악로 2970",
    "phone": "043-651-2264",
    "latitude": "36.9329354680",
    "longitude": "128.1772085952",
    "image": "http://tong.visitkorea.or.kr/cms/resource/26/2013726_image2_1.JPG",
    "category": "한식"
  },
  {
    "id": "2906155",
    "title": "가람",
    "address": "제주특별자치도 제주시 복지로북길 4",
    "phone": "",
    "latitude": "33.4888787305",
    "longitude": "126.5206569716",
    "image": "http://tong.visitkorea.or.kr/cms/resource/52/2906152_image2_1.jpg",
    "category": "한식"
  },
  {
    "id": "2755053",
    "title": "가람돌솥밥",
    "address": "제주특별자치도 서귀포시 중문관광로 332 (대포동)",
    "phone": "",
    "latitude": "33.2496926417",
    "longitude": "126.4313090015",
    "image": "http://tong.visitkorea.or.kr/cms/resource/47/2755047_image2_1.jpg",
    "category": "한식"
  },
  {
    "id": "2507936",
    "title": "가람복집",
    "address": "전라남도 여수시 화산로 20",
    "phone": "061-683-3559",
    "latitude": "34.7715294549",
    "longitude": "127.6408868078",
    "image": "",
    "category": "한식"
  },
  {
    "id": "2860249",
    "title": "가람오리구이",
    "address": "경기도 용인시 처인구 원양로 250-14",
    "phone": "",
    "latitude": "37.1823185696",
    "longitude": "127.3067354039",
    "image": "",
    "category": "한식"
  },
  {
    "id": "2868839",
    "title": "가람집옹심이",
    "address": "강원특별자치도 강릉시 공항길30번길 16",
    "phone": "",
    "latitude": "37.7611934162",
    "longitude": "128.9393320379",
    "image": "http://tong.visitkorea.or.kr/cms/resource/29/2868829_image2_1.jpeg",
    "category": "한식"
  },
  {
    "id": "2768070",
    "title": "가래울해장국",
    "address": "경기도 여주시 점동면 가래울길 29",
    "phone": "",
    "latitude": "37.2051837464",
    "longitude": "127.6756069815",
    "image": "http://tong.visitkorea.or.kr/cms/resource/93/2768293_image2_1.jpg",
    "category": "한식"
  },
  {
    "id": "2823496",
    "title": "가루실가든",
    "address": "충청남도 예산군 가루실길 180",
    "phone": "",
    "latitude": "36.6615196977",
    "longitude": "126.6435540583",
    "image": "",
    "category": "한식"
  },
  {
    "id": "2768130",
    "title": "가리비칼국수",
    "address": "인천광역시 남동구 오봉동로4번길 9",
    "phone": "",
    "latitude": "37.4168005458",
    "longitude": "126.7298895439",
    "image": "",
    "category": "한식"
  },
  {
    "id": "608471",
    "title": "가리산막국수",
    "address": "강원특별자치도 홍천군 두촌면 가리산길23번길 7",
    "phone": "033-435-2704",
    "latitude": "37.8381278478",
    "longitude": "128.0138244871",
    "image": "",
    "category": "한식"
  },
  {
    "id": "2801756",
    "title": "가리왕산가든",
    "address": "강원특별자치도 평창군 대화면 가평로 5",
    "phone": "",
    "latitude": "37.4546831081",
    "longitude": "128.4403251905",
    "image": "http://tong.visitkorea.or.kr/cms/resource/52/2801752_image2_1.jpg",
    "category": "한식"
  },
  {
    "id": "2832447",
    "title": "가림시골밥상",
    "address": "경기도 파주시 탄현면 새오리로 68",
    "phone": "",
    "latitude": "37.7906479225",
    "longitude": "126.6858608619",
    "image": "http://tong.visitkorea.or.kr/cms/resource/46/2832446_image2_1.jpg",
    "category": "한식"
  },
  {
    "id": "2893648",
    "title": "가마골 소갈비찜",
    "address": "경상남도 양산시 삼성7길 17",
    "phone": "",
    "latitude": "35.3586914400",
    "longitude": "129.0416655122",
    "image": "http://tong.visitkorea.or.kr/cms/resource/80/2893380_image2_1.jpg",
    "category": "한식"
  },
  {
    "id": "2525533",
    "title": "가마골백숙",
    "address": "경기도 양주시 장흥면 북한산로 1028",
    "phone": "",
    "latitude": "37.7135870113",
    "longitude": "126.9712897230",
    "image": "",
    "category": "한식"
  },
  {
    "id": "2828299",
    "title": "가마골쉼터",
    "address": "충청북도 단양군 새밭로 547-8",
    "phone": "",
    "latitude": "36.9939165292",
    "longitude": "128.4302036157",
    "image": "",
    "category": "한식"
  },
  {
    "id": "2844860",
    "title": "가마솥 솔뚜껑",
    "address": "경상남도 창원시 마산합포구 해양관광로 1594",
    "phone": "",
    "latitude": "35.0855329500",
    "longitude": "128.5728805048",
    "image": "http://tong.visitkorea.or.kr/cms/resource/58/2844858_image2_1.JPG",
    "category": "한식"
  },
  {
    "id": "2905359",
    "title": "가마솥 양푼이 밥상",
    "address": "경상북도 경주시 북군3길 12-1",
    "phone": "",
    "latitude": "35.8529760771",
    "longitude": "129.2645765871",
    "image": "http://tong.visitkorea.or.kr/cms/resource/42/2905342_image2_1.jpg",
    "category": "한식"
  },
  {
    "id": "2577474",
    "title": "가마솥국밥",
    "address": "경상남도 거제시 동부면 산양리",
    "phone": "055-632-5363",
    "latitude": "34.8230379497",
    "longitude": "128.6074233659",
    "image": "",
    "category": "한식"
  },
  {
    "id": "2736051",
    "title": "가마솥밥상 철산본점",
    "address": "경기도 광명시 안양천로 459 (철산동)",
    "phone": "",
    "latitude": "37.4884752575",
    "longitude": "126.8695942571",
    "image": "http://tong.visitkorea.or.kr/cms/resource/34/2774734_image2_1.jpeg",
    "category": "한식"
  },
  {
    "id": "2577481",
    "title": "가마솥보리밥",
    "address": "경상남도 거제시 거제중앙로5길 18",
    "phone": "055-637-8819",
    "latitude": "34.8777016369",
    "longitude": "128.6269535524",
    "image": "",
    "category": "한식"
  },
  {
    "id": "2850291",
    "title": "가마솥보리밥집",
    "address": "경기도 이천시 마장면 서이천로 129-3",
    "phone": "",
    "latitude": "37.2475372344",
    "longitude": "127.3733830863",
    "image": "http://tong.visitkorea.or.kr/cms/resource/76/2850276_image2_1.jpg",
    "category": "한식"
  },
  {
    "id": "2845011",
    "title": "가마솥생복집",
    "address": "부산광역시 기장군 차성로 327-2 가마솥생복집",
    "phone": "",
    "latitude": "35.2470210453",
    "longitude": "129.2134452993",
    "image": "http://tong.visitkorea.or.kr/cms/resource/05/2845005_image2_1.jpg",
    "category": "한식"
  },
  {
    "id": "135696",
    "title": "가마솥손두부",
    "address": "인천광역시 미추홀구 소성로326번길 4 (문학동)",
    "phone": "032-426-7270",
    "latitude": "37.4374806550",
    "longitude": "126.6833904290",
    "image": "",
    "category": "한식"
  },
  {
    "id": "2906287",
    "title": "가마솥에누룽지",
    "address": "경상남도 밀양시 얼음골로 54",
    "phone": "",
    "latitude": "35.5827343433",
    "longitude": "128.9691795210",
    "image": "http://tong.visitkorea.or.kr/cms/resource/83/2906283_image2_1.jpg",
    "category": "한식"
  },
  {
    "id": "2905610",
    "title": "가마솥찜",
    "address": "경상남도 거제시 중곡1로 34",
    "phone": "",
    "latitude": "34.8949163539",
    "longitude": "128.6255698826",
    "image": "http://tong.visitkorea.or.kr/cms/resource/92/2905592_image2_1.jpg",
    "category": "한식"
  },
  {
    "id": "2834411",
    "title": "가마솥한우진곰탕",
    "address": "충청남도 금산군 금산로 2428 화목가든",
    "phone": "",
    "latitude": "36.1807282347",
    "longitude": "127.4725203603",
    "image": "http://tong.visitkorea.or.kr/cms/resource/00/2834400_image2_1.jpg",
    "category": "한식"
  },
  {
    "id": "2849631",
    "title": "가막골흑염소요리전문점",
    "address": "서울특별시 강서구 화곡로56길 37-11",
    "phone": "",
    "latitude": "37.5516842628",
    "longitude": "126.8518857611",
    "image": "http://tong.visitkorea.or.kr/cms/resource/29/2849629_image2_1.jpg",
    "category": "한식"
  },
  {
    "id": "2891703",
    "title": "가보자순대국",
    "address": "강원특별자치도 춘천시 율문2길 11",
    "phone": "",
    "latitude": "37.9264347789",
    "longitude": "127.7461684086",
    "image": "http://tong.visitkorea.or.kr/cms/resource/95/2891695_image2_1.jpg",
    "category": "한식"
  },
  {
    "id": "602895",
    "title": "가보정갈비",
    "address": "경기도 수원시 팔달구 장다리로 282 (인계동)",
    "phone": "1600-3883",
    "latitude": "37.2743223786",
    "longitude": "127.0286663492",
    "image": "http://tong.visitkorea.or.kr/cms/resource/17/2926717_image2_1.jpg",
    "category": "한식"
  },
  {
    "id": "1953998",
    "title": "가빈",
    "address": "경상남도 사천시 각산로 140",
    "phone": "055-835-8755",
    "latitude": "34.9315271620",
    "longitude": "128.0595988457",
    "image": "http://tong.visitkorea.or.kr/cms/resource/96/1953396_image2_1.jpg",
    "category": "한식"
  },
  {
    "id": "2917485",
    "title": "가빈정",
    "address": "경기도 화성시 동학산2길 7 (석우동)",
    "phone": "",
    "latitude": "37.2249844679",
    "longitude": "127.0746635561",
    "image": "http://tong.visitkorea.or.kr/cms/resource/75/2917475_image2_1.png",
    "category": "한식"
  },
  {
    "id": "2836567",
    "title": "가산물갈비&백년불고기",
    "address": "서울특별시 금천구 가산디지털1로 128 에스티엑스브이타워",
    "phone": "",
    "latitude": "37.4773045854",
    "longitude": "126.8837682791",
    "image": "http://tong.visitkorea.or.kr/cms/resource/60/2836560_image2_1.jpg",
    "category": "한식"
  },
  {
    "id": "686404",
    "title": "가선식당",
    "address": "충청북도 영동군 양산면 금강로 760",
    "phone": "043-743-8665",
    "latitude": "36.1249479950",
    "longitude": "127.6011326297",
    "image": "http://tong.visitkorea.or.kr/cms/resource/07/689607_image2_1.jpg",
    "category": "한식"
  },
  {
    "id": "2795029",
    "title": "가시머리식당",
    "address": "강원특별자치도 평창군 대관령면 대관령마루길 369",
    "phone": "",
    "latitude": "37.6849678755",
    "longitude": "128.7438214416",
    "image": "http://tong.visitkorea.or.kr/cms/resource/14/2795014_image2_1.JPG",
    "category": "한식"
  },
  {
    "id": "1866904",
    "title": "가시식당",
    "address": "제주특별자치도 서귀포시 표선면 가시로565번길 24",
    "phone": "064-787-1035",
    "latitude": "33.3530172003",
    "longitude": "126.7713633064",
    "image": "http://tong.visitkorea.or.kr/cms/resource/76/3389976_image2_1.jpg",
    "category": "한식"
  },
  {
    "id": "2791481",
    "title": "가시아방국수",
    "address": "제주특별자치도 서귀포시 성산읍 섭지코지로 10",
    "phone": "",
    "latitude": "33.4386573313",
    "longitude": "126.9180930788",
    "image": "http://tong.visitkorea.or.kr/cms/resource/08/2800608_image2_1.jpg",
    "category": "한식"
  },
  {
    "id": "2837181",
    "title": "가시어멍김밥",
    "address": "제주특별자치도 제주시 월랑로 36",
    "phone": "",
    "latitude": "33.4888641378",
    "longitude": "126.4763302701",
    "image": "http://tong.visitkorea.or.kr/cms/resource/75/2837175_image2_1.jpg",
    "category": "한식"
  },
  {
    "id": "2847797",
    "title": "가야마루",
    "address": "경상남도 김해시 인제로51번길 6",
    "phone": "",
    "latitude": "35.2334474072",
    "longitude": "128.9044142549",
    "image": "http://tong.visitkorea.or.kr/cms/resource/80/2847780_image2_1.JPG",
    "category": "한식"
  },
  {
    "id": "2873184",
    "title": "가야밀냉면해물칼국수",
    "address": "서울특별시 은평구 대서문길 36 (진관동)",
    "phone": "",
    "latitude": "37.6555794652",
    "longitude": "126.9485378950",
    "image": "http://tong.visitkorea.or.kr/cms/resource/70/2873170_image2_1.jpg",
    "category": "한식"
  },
  {
    "id": "2846903",
    "title": "가야밀면",
    "address": "경기도 광명시 일직로12번길 21 (일직동)",
    "phone": "",
    "latitude": "37.4208694508",
    "longitude": "126.8826310761",
    "image": "http://tong.visitkorea.or.kr/cms/resource/97/2846897_image2_1.JPG",
    "category": "한식"
  },
  {
    "id": "2891928",
    "title": "가야밀면돼지국밥 일산본점",
    "address": "경기도 고양시 일산서구 호수로856번길 8-9 (대화동)",
    "phone": "",
    "latitude": "37.6708852204",
    "longitude": "126.7486418310",
    "image": "http://tong.visitkorea.or.kr/cms/resource/13/2891913_image2_1.jpg",
    "category": "한식"
  },
  {
    "id": "2736701",
    "title": "가야정",
    "address": "경기도 안성시 양성면 양성로 688-4",
    "phone": "",
    "latitude": "37.1073534536",
    "longitude": "127.2203231010",
    "image": "http://tong.visitkorea.or.kr/cms/resource/61/2759161_image2_1.png",
    "category": "한식"
  },
  {
    "id": "2778443",
    "title": "가야포차선지국",
    "address": "부산광역시 기장군 정관읍 정관8로 28",
    "phone": "",
    "latitude": "35.3223258488",
    "longitude": "129.1788934446",
    "image": "",
    "category": "한식"
  },
  {
    "id": "849929",
    "title": "가야할매 밀면",
    "address": "부산광역시 연제구 월드컵대로145번길 32",
    "phone": "051-865-8017",
    "latitude": "35.1851949389",
    "longitude": "129.0798725132",
    "image": "",
    "category": "한식"
  },
  {
    "id": "2850213",
    "title": "가양칼국수버섯매운탕",
    "address": "서울특별시 영등포구 국제금융로 78 (여의도동)",
    "phone": "",
    "latitude": "37.5209253677",
    "longitude": "126.9313127207",
    "image": "http://tong.visitkorea.or.kr/cms/resource/00/2850200_image2_1.jpg",
    "category": "한식"
  },
  {
    "id": "2741103",
    "title": "가연",
    "address": "충청북도 단양군 단양읍 삼봉로 87",
    "phone": "",
    "latitude": "36.9792195516",
    "longitude": "128.3533442569",
    "image": "http://tong.visitkorea.or.kr/cms/resource/30/2741030_image2_1.jpg",
    "category": "한식"
  },
  {
    "id": "2835371",
    "title": "가연식당",
    "address": "인천광역시 동구 어촌로 7 (만석동)",
    "phone": "",
    "latitude": "37.4821938008",
    "longitude": "126.6209393280",
    "image": "http://tong.visitkorea.or.kr/cms/resource/67/2835367_image2_1.jpg",
    "category": "한식"
  },
  {
    "id": "2739440",
    "title": "가오리와 방패연",
    "address": "경기도 용인시 기흥구 하갈로 98 (하갈동)",
    "phone": "",
    "latitude": "37.2562951524",
    "longitude": "127.0981133313",
    "image": "http://tong.visitkorea.or.kr/cms/resource/50/2775150_image2_1.jpg",
    "category": "한식"
  },
  {
    "id": "2852072",
    "title": "가온길",
    "address": "경기도 의왕시 왕송못서길 149 (초평동)",
    "phone": "",
    "latitude": "37.3048339630",
    "longitude": "126.9418761544",
    "image": "http://tong.visitkorea.or.kr/cms/resource/67/2852067_image2_1.jpeg",
    "category": "한식"
  },
  {
    "id": "2904704",
    "title": "가온전복",
    "address": "전라남도 진도군 의신면 초평길 70-1",
    "phone": "",
    "latitude": "34.4151836832",
    "longitude": "126.3357933885",
    "image": "http://tong.visitkorea.or.kr/cms/resource/95/2904695_image2_1.jpg",
    "category": "한식"
  },
  {
    "id": "2900016",
    "title": "가온칼국수 송도본점",
    "address": "인천광역시 연수구 송도과학로28번길 8 (송도동)",
    "phone": "",
    "latitude": "37.3825144152",
    "longitude": "126.6606773560",
    "image": "http://tong.visitkorea.or.kr/cms/resource/06/2900006_image2_1.jpg",
    "category": "한식"
  },
  {
    "id": "2823338",
    "title": "가우도친구집",
    "address": "전라남도 강진군 가우도길 2-7",
    "phone": "",
    "latitude": "34.5325972175",
    "longitude": "126.7789321912",
    "image": "http://tong.visitkorea.or.kr/cms/resource/30/2823330_image2_1.jpg",
    "category": "한식"
  },
  {
    "id": "404116",
    "title": "가운데집",
    "address": "전북특별자치도 전주시 덕진구 추천로 171",
    "phone": "063-211-5366",
    "latitude": "35.8514760845",
    "longitude": "127.1109168914",
    "image": "http://tong.visitkorea.or.kr/cms/resource/99/401399_image2_1.jpg",
    "category": "한식"
  },
  {
    "id": "2844697",
    "title": "가원",
    "address": "경기도 수원시 영통구 영통로 277-3 (신동)",
    "phone": "",
    "latitude": "37.2512311585",
    "longitude": "127.0595030864",
    "image": "http://tong.visitkorea.or.kr/cms/resource/92/2844692_image2_1.jpg",
    "category": "한식"
  },
  {
    "id": "2846092",
    "title": "가원식당",
    "address": "대구광역시 동구 팔공산로199길 6-3 (용수동)",
    "phone": "",
    "latitude": "35.9906776367",
    "longitude": "128.6968281408",
    "image": "http://tong.visitkorea.or.kr/cms/resource/82/2846082_image2_1.png",
    "category": "한식"
  },
  {
    "id": "2875310",
    "title": "가월리손두부",
    "address": "경기도 파주시 적성면 감악산로 1473",
    "phone": "",
    "latitude": "37.9772303573",
    "longitude": "126.9207117917",
    "image": "http://tong.visitkorea.or.kr/cms/resource/98/2875298_image2_1.jpg",
    "category": "한식"
  },
  {
    "id": "1985801",
    "title": "가을빛묵은지",
    "address": "전라남도 장성군 북하면 백양로 1102-1",
    "phone": "061-392-7401",
    "latitude": "35.4249205487",
    "longitude": "126.8791262589",
    "image": "",
    "category": "한식"
  },
  {
    "id": "2837554",
    "title": "가조가마솥육개장순두부",
    "address": "경상남도 거창군 가조가야로 1129",
    "phone": "",
    "latitude": "35.7105164331",
    "longitude": "128.0184540475",
    "image": "http://tong.visitkorea.or.kr/cms/resource/22/2837522_image2_1.JPG",
    "category": "한식"
  },
  {
    "id": "2910349",
    "title": "가조도 어부횟집",
    "address": "경상남도 거제시 가조로4길 6 우창 블루오션",
    "phone": "",
    "latitude": "34.9303105965",
    "longitude": "128.5256359795",
    "image": "http://tong.visitkorea.or.kr/cms/resource/27/2910327_image2_1.jpg",
    "category": "한식"
  },
  {
    "id": "135563",
    "title": "가족마당",
    "address": "전북특별자치도 무주군 설천면 만선1로 60",
    "phone": "063-322-1188",
    "latitude": "35.9047480294",
    "longitude": "127.7554693059",
    "image": "http://tong.visitkorea.or.kr/cms/resource/61/1983461_image2_1.jpg",
    "category": "한식"
  },
  {
    "id": "2854328",
    "title": "가족천하 본점",
    "address": "서울특별시 영등포구 가마산로 330 (대림동)",
    "phone": "",
    "latitude": "37.4989023017",
    "longitude": "126.8963415265",
    "image": "",
    "category": "한식"
  },
  {
    "id": "2852552",
    "title": "가지산언양불고기",
    "address": "울산광역시 울주군 언양읍 헌양길 96",
    "phone": "",
    "latitude": "35.5655835584",
    "longitude": "129.1215777814",
    "image": "http://tong.visitkorea.or.kr/cms/resource/49/2852549_image2_1.jpg",
    "category": "한식"
  },
  {
    "id": "2841662",
    "title": "가창닭갈비",
    "address": "대구광역시 달성군 가창면 가창로119길 13",
    "phone": "",
    "latitude": "35.7655411302",
    "longitude": "128.6493913845",
    "image": "http://tong.visitkorea.or.kr/cms/resource/53/2841653_image2_1.jpg",
    "category": "한식"
  },
  {
    "id": "2851723",
    "title": "가창숯불갈비",
    "address": "대구광역시 달성군 가창로175길 14",
    "phone": "",
    "latitude": "35.7877134014",
    "longitude": "128.6373668267",
    "image": "",
    "category": "한식"
  },
  {
    "id": "2805240",
    "title": "가파도별미식당",
    "address": "제주특별자치도 서귀포시 대정읍 영서중로 59",
    "phone": "",
    "latitude": "33.2215375052",
    "longitude": "126.2600494870",
    "image": "",
    "category": "한식"
  },
  {
    "id": "2781442",
    "title": "가평냉면 부손 설악본점",
    "address": "경기도 가평군 설악면 유명로 1818-13",
    "phone": "",
    "latitude": "37.6781252532",
    "longitude": "127.4727422665",
    "image": "http://tong.visitkorea.or.kr/cms/resource/94/2781694_image2_1.jpg",
    "category": "한식"
  },
  {
    "id": "1214552",
    "title": "가평장원추어탕",
    "address": "경기도 가평군 가평읍 광장로 5",
    "phone": "031-581-7272",
    "latitude": "37.8262059673",
    "longitude": "127.5111816652",
    "image": "",
    "category": "한식"
  },
  {
    "id": "2844175",
    "title": "가포영도장어구이전문점",
    "address": "경상남도 창원시 마산합포구 가포해안길 47 가포영도장어구이",
    "phone": "",
    "latitude": "35.1691569073",
    "longitude": "128.5730615806",
    "image": "http://tong.visitkorea.or.kr/cms/resource/69/2844169_image2_1.JPG",
    "category": "한식"
  },
  {
    "id": "2756705",
    "title": "가포옛날영도집",
    "address": "경상남도 창원시 마산합포구 가포해안길 37 (가포동)",
    "phone": "",
    "latitude": "35.1692013421",
    "longitude": "128.5728060461",
    "image": "http://tong.visitkorea.or.kr/cms/resource/21/2757021_image2_1.jpg",
    "category": "한식"
  },
  {
    "id": "2844590",
    "title": "가현산 잔치국수",
    "address": "인천광역시 서구 대곡로368번길 25 (대곡동)",
    "phone": "",
    "latitude": "37.6305882921",
    "longitude": "126.6573818608",
    "image": "http://tong.visitkorea.or.kr/cms/resource/80/2844580_image2_1.jpg",
    "category": "한식"
  },
  {
    "id": "132960",
    "title": "가화한정식",
    "address": "충청북도 청주시 청원구 내덕로 27",
    "phone": "043-221-0231",
    "latitude": "36.6570822415",
    "longitude": "127.4833508199",
    "image": "",
    "category": "한식"
  },
  {
    "id": "2853860",
    "title": "각시보쌈",
    "address": "서울특별시 마포구 성지길 25 보광빌딩",
    "phone": "",
    "latitude": "37.5475858397",
    "longitude": "126.9134774828",
    "image": "http://tong.visitkorea.or.kr/cms/resource/51/2853851_image2_1.jpg",
    "category": "한식"
  },
  {
    "id": "2848971",
    "title": "간절곶 돌문어",
    "address": "울산광역시 울주군 신암해안2길 23",
    "phone": "",
    "latitude": "35.3471091228",
    "longitude": "129.3245161880",
    "image": "http://tong.visitkorea.or.kr/cms/resource/25/2848625_image2_1.jpg",
    "category": "한식"
  },
  {
    "id": "2848966",
    "title": "간절곶 보광 보리밥 손칼국수",
    "address": "울산광역시 울주군 해맞이로 787",
    "phone": "",
    "latitude": "35.3459146391",
    "longitude": "129.3153142444",
    "image": "http://tong.visitkorea.or.kr/cms/resource/38/2848638_image2_1.jpg",
    "category": "한식"
  },
  {
    "id": "2514616",
    "title": "갈담부대찌개",
    "address": "경기도 용인시 처인구 모현읍 파담로 140-23",
    "phone": "031-333-9470",
    "latitude": "37.3211402549",
    "longitude": "127.2432761204",
    "image": "http://tong.visitkorea.or.kr/cms/resource/01/2514601_image2_1.jpg",
    "category": "한식"
  },
  {
    "id": "2766514",
    "title": "갈마가든",
    "address": "충청북도 충주시 살미면 용천갈마길 45",
    "phone": "",
    "latitude": "36.8893174561",
    "longitude": "127.9838966173",
    "image": "http://tong.visitkorea.or.kr/cms/resource/57/2767257_image2_1.jpg",
    "category": "한식"
  },
  {
    "id": "2850392",
    "title": "갈매골순두부",
    "address": "경기도 구리시 갈매길 18",
    "phone": "",
    "latitude": "37.6218501328",
    "longitude": "127.1071216167",
    "image": "http://tong.visitkorea.or.kr/cms/resource/82/2850382_image2_1.jpg",
    "category": "한식"
  },
  {
    "id": "2876625",
    "title": "갈매기식당",
    "address": "전라남도 영광군 법성면 진굴비길 46",
    "phone": "",
    "latitude": "35.3601484085",
    "longitude": "126.4473967845",
    "image": "http://tong.visitkorea.or.kr/cms/resource/06/2876606_image2_1.jpg",
    "category": "한식"
  },
  {
    "id": "2874188",
    "title": "갈매기횟집",
    "address": "강원특별자치도 고성군 아야진해변길 80 동해활어, 처갓집양념통닭",
    "phone": "",
    "latitude": "38.2722044028",
    "longitude": "128.5560508090",
    "image": "http://tong.visitkorea.or.kr/cms/resource/64/2874164_image2_1.jpg",
    "category": "한식"
  },
  {
    "id": "2905383",
    "title": "갈매기횟집",
    "address": "경상북도 경주시 대밑길 12-17",
    "phone": "",
    "latitude": "35.7461256748",
    "longitude": "129.4867352071",
    "image": "http://tong.visitkorea.or.kr/cms/resource/71/2905371_image2_1.jpg",
    "category": "한식"
  },
  {
    "id": "2580078",
    "title": "갈밭식당",
    "address": "대전광역시 대덕구 대청호수로 1553",
    "phone": "042-932-3872",
    "latitude": "36.4277332081",
    "longitude": "127.4653476261",
    "image": "http://tong.visitkorea.or.kr/cms/resource/07/3026807_image2_1.JPG",
    "category": "한식"
  },
  {
    "id": "2826592",
    "title": "갈비1987",
    "address": "경기도 포천시 이동면 화동로 2065-1",
    "phone": "",
    "latitude": "38.0322237360",
    "longitude": "127.3663804919",
    "image": "",
    "category": "한식"
  },
  {
    "id": "2607508",
    "title": "갈비곳간",
    "address": "부산광역시 부산진구 서면문화로 32 (부전동)",
    "phone": "051-714-4457",
    "latitude": "35.1599834385",
    "longitude": "129.0562808127",
    "image": "http://tong.visitkorea.or.kr/cms/resource/10/2607510_image2_1.jpg",
    "category": "한식"
  },
  {
    "id": "719757",
    "title": "갈비구락부",
    "address": "울산광역시 울주군 삼남읍 남상평2길 34-12",
    "phone": "052-264-4747",
    "latitude": "35.5606062683",
    "longitude": "129.1176727061",
    "image": "",
    "category": "한식"
  },
  {
    "id": "2837603",
    "title": "갈비도락",
    "address": "경기도 하남시 미사대로 584 (덕풍동)",
    "phone": "",
    "latitude": "37.5549264219",
    "longitude": "127.2092586730",
    "image": "http://tong.visitkorea.or.kr/cms/resource/89/2837589_image2_1.JPG",
    "category": "한식"
  },
  {
    "id": "2766502",
    "title": "갈비만 대구본점",
    "address": "대구광역시 달서구 조암로 58",
    "phone": "",
    "latitude": "35.8243321674",
    "longitude": "128.5237091503",
    "image": "http://tong.visitkorea.or.kr/cms/resource/23/2766623_image2_1.jpg",
    "category": "한식"
  },
  {
    "id": "2370833",
    "title": "갈비명가 소반",
    "address": "경상남도 창원시 의창구 의창대로70번길 1",
    "phone": "055-297-3700",
    "latitude": "35.2573309774",
    "longitude": "128.6081672485",
    "image": "http://tong.visitkorea.or.kr/cms/resource/55/2370855_image2_1.jpeg",
    "category": "한식"
  },
  {
    "id": "2836651",
    "title": "갈비명가이상 돈암본관",
    "address": "서울특별시 성북구 정릉로 364",
    "phone": "",
    "latitude": "37.6015259912",
    "longitude": "127.0236686891",
    "image": "http://tong.visitkorea.or.kr/cms/resource/42/2836642_image2_1.jpg",
    "category": "한식"
  },
  {
    "id": "699542",
    "title": "갈비명가할머니집",
    "address": "경기도 포천시 이동면 화동로 2000",
    "phone": "031-531-1700",
    "latitude": "38.0263661321",
    "longitude": "127.3688776584",
    "image": "http://tong.visitkorea.or.kr/cms/resource/97/700297_image2_1.jpg",
    "category": "한식"
  },
  {
    "id": "2863282",
    "title": "갈비본질 프리미엄",
    "address": "경기도 김포시 양촌읍 김포한강4로 317",
    "phone": "",
    "latitude": "37.6508496562",
    "longitude": "126.6480432585",
    "image": "http://tong.visitkorea.or.kr/cms/resource/66/2863266_image2_1.jpg",
    "category": "한식"
  },
  {
    "id": "2860770",
    "title": "갈비사랑",
    "address": "서울특별시 서초구 강남대로 204 (양재동)",
    "phone": "",
    "latitude": "37.4825317160",
    "longitude": "127.0367458713",
    "image": "http://tong.visitkorea.or.kr/cms/resource/58/2860758_image2_1.jpg",
    "category": "한식"
  },
  {
    "id": "2853490",
    "title": "갈비생각 광릉수목원본점",
    "address": "경기도 포천시 소흘읍 광릉수목원로 1189",
    "phone": "",
    "latitude": "37.7780626770",
    "longitude": "127.1161552032",
    "image": "http://tong.visitkorea.or.kr/cms/resource/85/2853485_image2_1.jpg",
    "category": "한식"
  },
  {
    "id": "2568281",
    "title": "갈비스토리",
    "address": "전북특별자치도 군산시 하나운1길 15",
    "phone": "0507-1302-2832",
    "latitude": "35.9679251522",
    "longitude": "126.6982062510",
    "image": "",
    "category": "한식"
  },
  {
    "id": "2854711",
    "title": "갈비장터",
    "address": "경기도 포천시 소흘읍 솔모루로58번길 4-1",
    "phone": "",
    "latitude": "37.8269519529",
    "longitude": "127.1451122602",
    "image": "http://tong.visitkorea.or.kr/cms/resource/03/2854703_image2_1.jpg",
    "category": "한식"
  },
  {
    "id": "2860438",
    "title": "갈재산장",
    "address": "충청남도 천안시 동남구 해수길 348 갈채산장식당",
    "phone": "",
    "latitude": "36.6625956027",
    "longitude": "127.0205894836",
    "image": "http://tong.visitkorea.or.kr/cms/resource/22/2860422_image2_1.jpg",
    "category": "한식"
  },
  {
    "id": "2853435",
    "title": "갈치공장",
    "address": "제주특별자치도 제주시 해맞이해안로 1296",
    "phone": "",
    "latitude": "33.5319348245",
    "longitude": "126.8509745258",
    "image": "http://tong.visitkorea.or.kr/cms/resource/24/2853424_image2_1.jpg",
    "category": "한식"
  },
  {
    "id": "3545966",
    "title": "갈치바다 애월",
    "address": "제주특별자치도 제주시 애월읍 애월로 15-1",
    "phone": "",
    "latitude": "33.4604452226",
    "longitude": "126.3110036236",
    "image": "http://tong.visitkorea.or.kr/cms/resource/31/3545931_image2_1.jpg",
    "category": "한식"
  },
  {
    "id": "2783304",
    "title": "갈치왕",
    "address": "제주특별자치도 서귀포시 일주서로 1146 (상예동)",
    "phone": "",
    "latitude": "33.2646820142",
    "longitude": "126.3907705168",
    "image": "http://tong.visitkorea.or.kr/cms/resource/03/2783703_image2_1.jpg",
    "category": "한식"
  },
  {
    "id": "2838717",
    "title": "갈치조림 토박이식당",
    "address": "경상북도 경주시 북군길 21",
    "phone": "",
    "latitude": "35.8523094677",
    "longitude": "129.2636461324",
    "image": "http://tong.visitkorea.or.kr/cms/resource/08/2838708_image2_1.jpg",
    "category": "한식"
  },
  {
    "id": "2931185",
    "title": "갈치조림기똥차게맛있는집",
    "address": "전라남도 여수시 돌산읍 향일암로 379-2",
    "phone": "",
    "latitude": "34.6066309874",
    "longitude": "127.7867976769",
    "image": "http://tong.visitkorea.or.kr/cms/resource/76/2931176_image2_1.jpg",
    "category": "한식"
  },
  {
    "id": "2848359",
    "title": "갈풍집",
    "address": "경기도 수원시 영통구 대학1로8번길 83 (이의동)",
    "phone": "",
    "latitude": "37.2981254847",
    "longitude": "127.0458807870",
    "image": "http://tong.visitkorea.or.kr/cms/resource/57/2848357_image2_1.jpg",
    "category": "한식"
  },
  {
    "id": "2873395",
    "title": "갈현냉면집",
    "address": "경기도 고양시 덕양구 용두로 57 (용두동)",
    "phone": "",
    "latitude": "37.6229377314",
    "longitude": "126.8879026871",
    "image": "http://tong.visitkorea.or.kr/cms/resource/57/2873357_image2_1.jpg",
    "category": "한식"
  },
  {
    "id": "2875276",
    "title": "갈현동할머니떡볶이",
    "address": "서울특별시 은평구 통일로87길 8-1 (갈현동)",
    "phone": "",
    "latitude": "37.6235354372",
    "longitude": "126.9187804084",
    "image": "http://tong.visitkorea.or.kr/cms/resource/67/2875267_image2_1.jpg",
    "category": "한식"
  },
  {
    "id": "2877949",
    "title": "감나무",
    "address": "강원특별자치도 삼척시 대학로 74-7 (교동)",
    "phone": "",
    "latitude": "37.4474951083",
    "longitude": "129.1634632686",
    "image": "http://tong.visitkorea.or.kr/cms/resource/42/2877942_image2_1.jpg",
    "category": "한식"
  },
  {
    "id": "133832",
    "title": "감나무집",
    "address": "경기도 남양주시 조안면 다산로747번길 45",
    "phone": "",
    "latitude": "37.5175657918",
    "longitude": "127.3029706666",
    "image": "",
    "category": "한식"
  },
  {
    "id": "686369",
    "title": "감나무집",
    "address": "충청북도 충주시 수안보면 미륵송계로 339-1",
    "phone": "043-846-0608",
    "latitude": "36.8388770944",
    "longitude": "128.0418067574",
    "image": "",
    "category": "한식"
  },
  {
    "id": "849941",
    "title": "감나무집",
    "address": "부산광역시 금정구 공해2길 2",
    "phone": "051-517-1378",
    "latitude": "35.2442128801",
    "longitude": "129.0557979895",
    "image": "http://tong.visitkorea.or.kr/cms/resource/30/1982630_image2_1.jpg",
    "category": "한식"
  },
  {
    "id": "1866954",
    "title": "감나무집",
    "address": "제주특별자치도 제주시 오남로 12",
    "phone": "064-722-8292",
    "latitude": "33.4941753491",
    "longitude": "126.5195597249",
    "image": "",
    "category": "한식"
  },
  {
    "id": "2841682",
    "title": "감나무집",
    "address": "대구광역시 달성군 우록3길 73",
    "phone": "",
    "latitude": "35.7166964170",
    "longitude": "128.6367549604",
    "image": "http://tong.visitkorea.or.kr/cms/resource/66/2841666_image2_1.png",
    "category": "한식"
  },
  {
    "id": "1828984",
    "title": "감나무집 감자옹심이",
    "address": "강원특별자치도 속초시 중앙시장로 110-8",
    "phone": "033-633-2306",
    "latitude": "38.2043713141",
    "longitude": "128.5909303155",
    "image": "",
    "category": "한식"
  },
  {
    "id": "2869265",
    "title": "감나무집 계룡점",
    "address": "충청남도 계룡시 평리길 20",
    "phone": "",
    "latitude": "36.2898145452",
    "longitude": "127.2460682043",
    "image": "http://tong.visitkorea.or.kr/cms/resource/53/2869253_image2_1.jpg",
    "category": "한식"
  },
  {
    "id": "2843816",
    "title": "감나무집기사식당",
    "address": "서울특별시 마포구 연남로 25 (연남동)",
    "phone": "",
    "latitude": "37.5619509880",
    "longitude": "126.9219151974",
    "image": "http://tong.visitkorea.or.kr/cms/resource/14/2843814_image2_1.jpg",
    "category": "한식"
  },
  {
    "id": "2833002",
    "title": "감동식당",
    "address": "서울특별시 노원구 한글비석로47길 58",
    "phone": "",
    "latitude": "37.6617086556",
    "longitude": "127.0665963946",
    "image": "http://tong.visitkorea.or.kr/cms/resource/94/2832994_image2_1.jpg",
    "category": "한식"
  },
  {
    "id": "1595441",
    "title": "감로헌",
    "address": "전북특별자치도 전주시 덕진구 권삼득로 247",
    "phone": "063-275-8811",
    "latitude": "35.8394056159",
    "longitude": "127.1328374779",
    "image": "",
    "category": "한식"
  },
  {
    "id": "2781641",
    "title": "감미옥(감미옥본점)",
    "address": "경기도 성남시 분당구 탄천로 181",
    "phone": "",
    "latitude": "37.4088834742",
    "longitude": "127.1228317928",
    "image": "",
    "category": "한식"
  },
  {
    "id": "2781669",
    "title": "감성식탁",
    "address": "경기도 여주시 칠산길 39 (상동)",
    "phone": "",
    "latitude": "37.2891095950",
    "longitude": "127.6446101509",
    "image": "http://tong.visitkorea.or.kr/cms/resource/38/2781838_image2_1.jpeg",
    "category": "한식"
  },
  {
    "id": "134877",
    "title": "감악산생꼬기꾸이",
    "address": "경기도 구리시 이문안로 6-1 (교문동)",
    "phone": "",
    "latitude": "37.5917013096",
    "longitude": "127.1320757594",
    "image": "",
    "category": "한식"
  },
  {
    "id": "2876420",
    "title": "감자골옹심이",
    "address": "강원특별자치도 춘천시 공지로317번길 20",
    "phone": "",
    "latitude": "37.8670136033",
    "longitude": "127.7294550294",
    "image": "",
    "category": "한식"
  },
  {
    "id": "627582",
    "title": "감자네",
    "address": "강원특별자치도 인제군 인제읍 덕산로 84",
    "phone": "033-462-5766",
    "latitude": "38.0841608395",
    "longitude": "128.1860902759",
    "image": "http://tong.visitkorea.or.kr/cms/resource/06/591306_image2_1.jpg",
    "category": "한식"
  },
  {
    "id": "2892186",
    "title": "감자바우",
    "address": "강원특별자치도 속초시 청초호반로 242 (청학동)",
    "phone": "",
    "latitude": "38.2001550031",
    "longitude": "128.5839783010",
    "image": "",
    "category": "한식"
  },
  {
    "id": "2670841",
    "title": "감자바우식당",
    "address": "강원특별자치도 강릉시 금성로35번길 4",
    "phone": "033-648-4982",
    "latitude": "37.7530768644",
    "longitude": "128.8970944271",
    "image": "http://tong.visitkorea.or.kr/cms/resource/12/2670912_image2_1.jpg",
    "category": "한식"
  },
  {
    "id": "2941250",
    "title": "감자유원지",
    "address": "강원특별자치도 강릉시 경강로2115번길 7",
    "phone": "",
    "latitude": "37.7564042637",
    "longitude": "128.8974165174",
    "image": "",
    "category": "한식"
  },
  {
    "id": "3535171",
    "title": "감자적1번지",
    "address": "강원특별자치도 강릉시 공항길29번길 7 (병산동)",
    "phone": "0507-1455-3461",
    "latitude": "37.7629321065",
    "longitude": "128.9394291976",
    "image": "",
    "category": "한식"
  },
  {
    "id": "2868869",
    "title": "감자적본부",
    "address": "강원특별자치도 강릉시 공항길30번길 5 (병산동)",
    "phone": "",
    "latitude": "37.7620461009",
    "longitude": "128.9396208746",
    "image": "http://tong.visitkorea.or.kr/cms/resource/55/2868855_image2_1.jpg",
    "category": "한식"
  },
  {
    "id": "2484393",
    "title": "감천 아지매 밥집",
    "address": "부산광역시 사하구 옥천로75번길 17",
    "phone": "070-8818-4405",
    "latitude": "35.0938066405",
    "longitude": "129.0088589663",
    "image": "http://tong.visitkorea.or.kr/cms/resource/80/2484380_image2_1.jpg",
    "category": "한식"
  },
  {
    "id": "3536478",
    "title": "감천골",
    "address": "강원특별자치도 강릉시 성덕포남로152번길 16 (포남동)",
    "phone": "033-652-7157",
    "latitude": "37.7666922663",
    "longitude": "128.9130203491",
    "image": "",
    "category": "한식"
  },
  {
    "id": "2844797",
    "title": "감치래비빔국수",
    "address": "경기도 용인시 수지구 고기로 104 (동천동)",
    "phone": "",
    "latitude": "37.3463735088",
    "longitude": "127.0925140869",
    "image": "http://tong.visitkorea.or.kr/cms/resource/94/2844794_image2_1.jpg",
    "category": "한식"
  },
  {
    "id": "2905427",
    "title": "감포이견대횟집",
    "address": "경상북도 경주시 동해안로 1493",
    "phone": "",
    "latitude": "35.7460395377",
    "longitude": "129.4848242654",
    "image": "http://tong.visitkorea.or.kr/cms/resource/18/2905418_image2_1.jpg",
    "category": "한식"
  },
  {
    "id": "2869158",
    "title": "감포참가자미",
    "address": "부산광역시 동구 범일로102번길 16-20 (범일동)",
    "phone": "",
    "latitude": "35.1383498379",
    "longitude": "129.0610587668",
    "image": "http://tong.visitkorea.or.kr/cms/resource/32/2869132_image2_1.jpg",
    "category": "한식"
  },
  {
    "id": "2835404",
    "title": "갑돌갈비",
    "address": "충청북도 영동군 계산로2길 5-23 갑돌갈비",
    "phone": "",
    "latitude": "36.1732734690",
    "longitude": "127.7802292626",
    "image": "http://tong.visitkorea.or.kr/cms/resource/91/2835391_image2_1.jpg",
    "category": "한식"
  },
  {
    "id": "1923993",
    "title": "갑동숯골냉면",
    "address": "대전광역시 유성구 현충원로 173",
    "phone": "",
    "latitude": "36.3607960991",
    "longitude": "127.2906095269",
    "image": "http://tong.visitkorea.or.kr/cms/resource/84/3062984_image2_1.JPG",
    "category": "한식"
  },
  {
    "id": "2899380",
    "title": "갑동숯불민물장어",
    "address": "대전광역시 유성구 갑동로 12 (갑동)",
    "phone": "",
    "latitude": "36.3614904413",
    "longitude": "127.2893207348",
    "image": "http://tong.visitkorea.or.kr/cms/resource/72/2899372_image2_1.jpg",
    "category": "한식"
  },
  {
    "id": "2847736",
    "title": "갑오삼계탕 본점",
    "address": "경상남도 김해시 삼문로 6",
    "phone": "",
    "latitude": "35.1917863058",
    "longitude": "128.8016104654",
    "image": "http://tong.visitkorea.or.kr/cms/resource/24/2847724_image2_1.JPG",
    "category": "한식"
  },
  {
    "id": "2767298",
    "title": "갑오징어와코다리",
    "address": "충청북도 음성군 삼성면 금일로 1274",
    "phone": "",
    "latitude": "37.0419072775",
    "longitude": "127.4757713143",
    "image": "http://tong.visitkorea.or.kr/cms/resource/70/2767270_image2_1.jpg",
    "category": "한식"
  },
  {
    "id": "2843633",
    "title": "갑을식당",
    "address": "경상남도 함양군 함양읍 함양로 1104-1",
    "phone": "",
    "latitude": "35.5174441941",
    "longitude": "127.7263877665",
    "image": "http://tong.visitkorea.or.kr/cms/resource/22/2843622_image2_1.JPG",
    "category": "한식"
  },
  {
    "id": "2851590",
    "title": "값진식육",
    "address": "서울특별시 영등포구 선유로 58-4 (문래동3가)",
    "phone": "",
    "latitude": "37.5190803938",
    "longitude": "126.8896998979",
    "image": "http://tong.visitkorea.or.kr/cms/resource/81/2851581_image2_1.jpg",
    "category": "한식"
  },
  {
    "id": "2940414",
    "title": "강가네돌솥밥추어탕",
    "address": "서울특별시 금천구 남부순환로 1420 (독산동)",
    "phone": "",
    "latitude": "37.4804130000",
    "longitude": "126.9085798208",
    "image": "",
    "category": "한식"
  },
  {
    "id": "2846694",
    "title": "강가네한다리이향갈비 본점",
    "address": "경기도 구리시 아차산로 302 (교문동)",
    "phone": "",
    "latitude": "37.5819579477",
    "longitude": "127.1293651728",
    "image": "http://tong.visitkorea.or.kr/cms/resource/74/2846674_image2_1.jpg",
    "category": "한식"
  },
  {
    "id": "135282",
    "title": "강가촌",
    "address": "강원특별자치도 홍천군 서면 한치골길 1122-54",
    "phone": "033-434-9102",
    "latitude": "37.7014988643",
    "longitude": "127.6950463785",
    "image": "http://tong.visitkorea.or.kr/cms/resource/70/3043070_image2_1.jpg",
    "category": "한식"
  },
  {
    "id": "135136",
    "title": "강강술래 신림동",
    "address": "서울특별시 관악구 남부순환로 1660",
    "phone": "",
    "latitude": "37.4845518811",
    "longitude": "126.9350272959",
    "image": "",
    "category": "한식"
  },
  {
    "id": "2788258",
    "title": "강경숯불바베큐",
    "address": "경기도 양주시 광적면 삼일로 123-74",
    "phone": "",
    "latitude": "37.8294876595",
    "longitude": "126.9857656401",
    "image": "http://tong.visitkorea.or.kr/cms/resource/02/2788302_image2_1.jpg",
    "category": "한식"
  },
  {
    "id": "2744546",
    "title": "강경해물칼국수",
    "address": "충청남도 논산시 강경읍 계백로147번길 7",
    "phone": "",
    "latitude": "36.1575200770",
    "longitude": "127.0154423627",
    "image": "http://tong.visitkorea.or.kr/cms/resource/82/2747882_image2_1.jpg",
    "category": "한식"
  },
  {
    "id": "133184",
    "title": "강계봉진막국수",
    "address": "경기도 여주시 대신면 천서리길 26",
    "phone": "031-882-8300",
    "latitude": "37.4032390852",
    "longitude": "127.5489738547",
    "image": "http://tong.visitkorea.or.kr/cms/resource/01/1188601_image2_1.jpg",
    "category": "한식"
  },
  {
    "id": "1014287",
    "title": "강나루",
    "address": "전북특별자치도 무주군 무주읍 내도로 123",
    "phone": "063-324-2898",
    "latitude": "36.0163167003",
    "longitude": "127.6446650253",
    "image": "http://tong.visitkorea.or.kr/cms/resource/10/1023810_image2_1.jpg",
    "category": "한식"
  },
  {
    "id": "3532769",
    "title": "강나루민물장어",
    "address": "강원특별자치도 강릉시 교동광장로 88 (교동)",
    "phone": "",
    "latitude": "37.7648500577",
    "longitude": "128.8742516760",
    "image": "",
    "category": "한식"
  },
  {
    "id": "2823376",
    "title": "강나루풍천장어",
    "address": "전북특별자치도 고창군 연기길 17",
    "phone": "",
    "latitude": "35.5097839943",
    "longitude": "126.6007488501",
    "image": "",
    "category": "한식"
  },
  {
    "id": "2837920",
    "title": "강나루횟집",
    "address": "전북특별자치도 임실군 종운로 802-5 강나루횟집",
    "phone": "",
    "latitude": "35.5980742930",
    "longitude": "127.1090375340",
    "image": "http://tong.visitkorea.or.kr/cms/resource/07/2837907_image2_1.jpg",
    "category": "한식"
  },
  {
    "id": "1756249",
    "title": "강남목장",
    "address": "서울특별시 강남구 논현로86길 34",
    "phone": "02-562-7003",
    "latitude": "37.5003213806",
    "longitude": "127.0402783799",
    "image": "",
    "category": "한식"
  },
  {
    "id": "2683263",
    "title": "강남식당",
    "address": "강원특별자치도 평창군 평창읍 노성로 126-27",
    "phone": "",
    "latitude": "37.3679561882",
    "longitude": "128.3972205463",
    "image": "",
    "category": "한식"
  },
  {
    "id": "2871478",
    "title": "강남진해장",
    "address": "서울특별시 강남구 테헤란로5길 11 (역삼동)",
    "phone": "",
    "latitude": "37.4995434958",
    "longitude": "127.0292766253",
    "image": "http://tong.visitkorea.or.kr/cms/resource/61/2871461_image2_1.jpg",
    "category": "한식"
  },
  {
    "id": "2871686",
    "title": "강남집",
    "address": "전라남도 여수시 학동6길 1",
    "phone": "",
    "latitude": "34.7636307887",
    "longitude": "127.6668652904",
    "image": "http://tong.visitkorea.or.kr/cms/resource/76/2871676_image2_1.jpg",
    "category": "한식"
  },
  {
    "id": "3536096",
    "title": "강남흑염소전문점",
    "address": "강원특별자치도 강릉시 사천면 해안로 1121-133",
    "phone": "",
    "latitude": "37.8434350648",
    "longitude": "128.8567647081",
    "image": "",
    "category": "한식"
  },
  {
    "id": "2767297",
    "title": "강대박",
    "address": "충청북도 옥천군 동이면 옥천로 2286",
    "phone": "",
    "latitude": "36.2697901167",
    "longitude": "127.6186826849",
    "image": "http://tong.visitkorea.or.kr/cms/resource/96/2767296_image2_1.jpg",
    "category": "한식"
  },
  {
    "id": "2839494",
    "title": "강동반상",
    "address": "서울특별시 강동구 상일로6길 39 강동타워",
    "phone": "",
    "latitude": "37.5498569527",
    "longitude": "127.1753646796",
    "image": "http://tong.visitkorea.or.kr/cms/resource/86/2839486_image2_1.jpg",
    "category": "한식"
  },
  {
    "id": "2839510",
    "title": "강동해물찜해천탕",
    "address": "서울특별시 강동구 양재대로 1416",
    "phone": "",
    "latitude": "37.5323083258",
    "longitude": "127.1385935255",
    "image": "http://tong.visitkorea.or.kr/cms/resource/99/2839499_image2_1.jpg",
    "category": "한식"
  },
  {
    "id": "3536570",
    "title": "강릉 한우타운",
    "address": "강원특별자치도 강릉시 창해로 283 (강문동)",
    "phone": "033-652-9289",
    "latitude": "37.7894287164",
    "longitude": "128.9228132064",
    "image": "",
    "category": "한식"
  },
  {
    "id": "3536390",
    "title": "강릉가마솥설렁탕",
    "address": "강원특별자치도 강릉시 사천면 동해대로 3566",
    "phone": "033-647-0355",
    "latitude": "37.8043730170",
    "longitude": "128.8617043626",
    "image": "",
    "category": "한식"
  },
  {
    "id": "133817",
    "title": "강릉감자옹심",
    "address": "강원특별자치도 강릉시 토성로 171",
    "phone": "033-648-0340",
    "latitude": "37.7564680954",
    "longitude": "128.8948695220",
    "image": "http://tong.visitkorea.or.kr/cms/resource/09/3007909_image2_1.jpg",
    "category": "한식"
  },
  {
    "id": "3532520",
    "title": "강릉국시집",
    "address": "강원특별자치도 강릉시 강릉대로 244 (교동)",
    "phone": "",
    "latitude": "37.7598149707",
    "longitude": "128.8969303445",
    "image": "",
    "category": "한식"
  },
  {
    "id": "3544073",
    "title": "강릉김군박군횟집",
    "address": "강원특별자치도 강릉시 난설헌로 203-18 (초당동)",
    "phone": "033-642-1331",
    "latitude": "37.7925975964",
    "longitude": "128.9126695775",
    "image": "",
    "category": "한식"
  },
  {
    "id": "3535112",
    "title": "강릉김밥",
    "address": "강원특별자치도 강릉시 용지로 121 (옥천동)",
    "phone": "033-652-2018",
    "latitude": "37.7600345280",
    "longitude": "128.9040047003",
    "image": "",
    "category": "한식"
  },
  {
    "id": "2775566",
    "title": "강릉꼬막비빔밥풍호맛뜨락",
    "address": "강원특별자치도 강릉시 임영로 10 (노암동)",
    "phone": "",
    "latitude": "37.7433668677",
    "longitude": "128.8966392118",
    "image": "",
    "category": "한식"
  },
  {
    "id": "3534702",
    "title": "강릉남매삼계탕",
    "address": "강원특별자치도 강릉시 교동광장로 84 (교동)",
    "phone": "",
    "latitude": "37.7649139300",
    "longitude": "128.8737906045",
    "image": "",
    "category": "한식"
  },
  {
    "id": "2775529",
    "title": "강릉독도네꼬막본점",
    "address": "강원특별자치도 강릉시 옥천로 47",
    "phone": "",
    "latitude": "37.7593428738",
    "longitude": "128.9005689199",
    "image": "",
    "category": "한식"
  },
  {
    "id": "2895062",
    "title": "강릉동치미막국수과천점",
    "address": "경기도 과천시 과천대로2길 54 (갈현동)",
    "phone": "",
    "latitude": "37.4069950973",
    "longitude": "126.9843055482",
    "image": "",
    "category": "한식"
  },
  {
    "id": "2685282",
    "title": "강릉뚝배기",
    "address": "강원특별자치도 강릉시 남부로 5",
    "phone": "033-645-9825",
    "latitude": "37.7402474791",
    "longitude": "128.8809990508",
    "image": "http://tong.visitkorea.or.kr/cms/resource/55/2684555_image2_1.jpg",
    "category": "한식"
  },
  {
    "id": "2930038",
    "title": "강릉불고기 본점",
    "address": "강원특별자치도 강릉시 풍호길 270",
    "phone": "",
    "latitude": "37.7492007587",
    "longitude": "128.9598138987",
    "image": "http://tong.visitkorea.or.kr/cms/resource/30/2930030_image2_1.JPG",
    "category": "한식"
  },
  {
    "id": "2845593",
    "title": "강릉불고기 초당점",
    "address": "강원특별자치도 강릉시 초당순두부길 2",
    "phone": "",
    "latitude": "37.7882619117",
    "longitude": "128.9088228368",
    "image": "http://tong.visitkorea.or.kr/cms/resource/37/2845537_image2_1.JPG",
    "category": "한식"
  },
  {
    "id": "3536139",
    "title": "강릉사임당인절미",
    "address": "강원특별자치도 강릉시 창해로 349-2 (강문동)",
    "phone": "0507-1483-2034",
    "latitude": "37.7944808252",
    "longitude": "128.9184939944",
    "image": "",
    "category": "한식"
  },
  {
    "id": "2670860",
    "title": "강릉엄지네꼬막집",
    "address": "강원특별자치도 강릉시 경강로2255번길 21",
    "phone": "033-642-0178",
    "latitude": "37.7663533009",
    "longitude": "128.9070486753",
    "image": "http://tong.visitkorea.or.kr/cms/resource/85/2671085_image2_1.jpg",
    "category": "한식"
  },
  {
    "id": "2868923",
    "title": "강릉유환식당",
    "address": "강원특별자치도 강릉시 강릉대로587번길 2",
    "phone": "",
    "latitude": "37.7844431324",
    "longitude": "128.9202913660",
    "image": "http://tong.visitkorea.or.kr/cms/resource/10/2868910_image2_1.jpg",
    "category": "한식"
  },
  {
    "id": "2774694",
    "title": "강릉전복해물뚝배기",
    "address": "강원특별자치도 강릉시 창해로 361-2 (강문동)",
    "phone": "",
    "latitude": "37.7948974180",
    "longitude": "128.9171802111",
    "image": "http://tong.visitkorea.or.kr/cms/resource/60/3567160_image2_1.jpg",
    "category": "한식"
  },
  {
    "id": "2891383",
    "title": "강릉집",
    "address": "경기도 고양시 일산동구 중앙로1261번길 61 (장항동)",
    "phone": "",
    "latitude": "37.6574649455",
    "longitude": "126.7702485676",
    "image": "http://tong.visitkorea.or.kr/cms/resource/81/2891381_image2_1.jpg",
    "category": "한식"
  },
  {
    "id": "2845698",
    "title": "강릉풍년갈비",
    "address": "강원특별자치도 강릉시 강릉대로587번길 10-5",
    "phone": "",
    "latitude": "37.7851735851",
    "longitude": "128.9193330961",
    "image": "http://tong.visitkorea.or.kr/cms/resource/59/2845659_image2_1.jpg",
    "category": "한식"
  },
  {
    "id": "2995934",
    "title": "강릉한우마크나인",
    "address": "강원특별자치도 강릉시 경강로2255번길 13",
    "phone": "",
    "latitude": "37.7660339038",
    "longitude": "128.9076041907",
    "image": "http://tong.visitkorea.or.kr/cms/resource/00/2995900_image2_1.JPG",
    "category": "한식"
  },
  {
    "id": "3532493",
    "title": "강릉한우만",
    "address": "강원특별자치도 강릉시 정원로 74-23 (교동)",
    "phone": "",
    "latitude": "37.7646361908",
    "longitude": "128.8741211385",
    "image": "",
    "category": "한식"
  },
  {
    "id": "3536555",
    "title": "강릉한우백화점",
    "address": "강원특별자치도 강릉시 구정면 회산로 92",
    "phone": "",
    "latitude": "37.7231266054",
    "longitude": "128.8485497236",
    "image": "",
    "category": "한식"
  },
  {
    "id": "133786",
    "title": "강림순대",
    "address": "강원특별자치도 횡성군 강림면 주천강로강림5길 37",
    "phone": "033-342-7148",
    "latitude": "37.3806942392",
    "longitude": "128.1360270228",
    "image": "http://tong.visitkorea.or.kr/cms/resource/88/1813788_image2_1.jpg",
    "category": "한식"
  },
  {
    "id": "1208943",
    "title": "강마루",
    "address": "경기도 가평군 청평면 북한강로 1871",
    "phone": "031-584-1943",
    "latitude": "37.6849062131",
    "longitude": "127.3862443838",
    "image": "",
    "category": "한식"
  },
  {
    "id": "1920538",
    "title": "강마을다람쥐",
    "address": "경기도 광주시 남종면 태허정로 556",
    "phone": "031-762-5574",
    "latitude": "37.4929405071",
    "longitude": "127.2829343027",
    "image": "http://tong.visitkorea.or.kr/cms/resource/40/3034840_image2_1.jpg",
    "category": "한식"
  },
  {
    "id": "2905190",
    "title": "강문가",
    "address": "강원특별자치도 강릉시 경포로463번길 29",
    "phone": "",
    "latitude": "37.8038572109",
    "longitude": "128.9027617880",
    "image": "http://tong.visitkorea.or.kr/cms/resource/74/2905174_image2_1.jpg",
    "category": "한식"
  },
  {
    "id": "2905205",
    "title": "강문떡갈비",
    "address": "강원특별자치도 강릉시 창해로 360-1",
    "phone": "",
    "latitude": "37.7951529531",
    "longitude": "128.9176440503",
    "image": "http://tong.visitkorea.or.kr/cms/resource/96/2905196_image2_1.png",
    "category": "한식"
  },
  {
    "id": "2685330",
    "title": "강문어화횟집",
    "address": "강원특별자치도 강릉시 창해로 348",
    "phone": "",
    "latitude": "37.7945308250",
    "longitude": "128.9187745232",
    "image": "http://tong.visitkorea.or.kr/cms/resource/79/3571879_image2_1.jpg",
    "category": "한식"
  },
  {
    "id": "135454",
    "title": "강민주의들밥 본점",
    "address": "경기도 이천시 마장면 지산로22번길 17",
    "phone": "031-637-6040",
    "latitude": "37.2214984781",
    "longitude": "127.3678343259",
    "image": "http://tong.visitkorea.or.kr/cms/resource/98/3048698_image2_1.jpg",
    "category": "한식"
  },
  {
    "id": "2671150",
    "title": "강박사냉면숯불갈비",
    "address": "충청북도 제천시 청전대로 91",
    "phone": "043-647-5596",
    "latitude": "37.1487695571",
    "longitude": "128.2081717760",
    "image": "http://tong.visitkorea.or.kr/cms/resource/48/2671148_image2_1.jpg",
    "category": "한식"
  },
  {
    "id": "2862170",
    "title": "강변손두부",
    "address": "경기도 하남시 미사동로 105-1 (미사동)",
    "phone": "",
    "latitude": "37.5763016184",
    "longitude": "127.2037974482",
    "image": "http://tong.visitkorea.or.kr/cms/resource/64/2862164_image2_1.JPG",
    "category": "한식"
  },
  {
    "id": "2000475",
    "title": "강변식당",
    "address": "경상남도 산청군 산청읍 꽃봉산로 30-5",
    "phone": "055-973-2346",
    "latitude": "35.4150221535",
    "longitude": "127.8676835679",
    "image": "",
    "category": "한식"
  },
  {
    "id": "2777869",
    "title": "강변식당",
    "address": "강원특별자치도 평창군 용평면 경강로 2017-20",
    "phone": "",
    "latitude": "37.6071932349",
    "longitude": "128.4389429572",
    "image": "http://tong.visitkorea.or.kr/cms/resource/54/2777854_image2_1.jpg",
    "category": "한식"
  },
  {
    "id": "2807134",
    "title": "강변식당",
    "address": "충청남도 보령시  천변남길 (178)",
    "phone": "",
    "latitude": "36.3468634364",
    "longitude": "126.5997357733",
    "image": "",
    "category": "한식"
  },
  {
    "id": "686331",
    "title": "강변장어",
    "address": "전라남도 순천시 순천만길 436",
    "phone": "061-742-4233",
    "latitude": "34.8926635901",
    "longitude": "127.5089425217",
    "image": "http://tong.visitkorea.or.kr/cms/resource/49/688149_image2_1.jpg",
    "category": "한식"
  },
  {
    "id": "133487",
    "title": "강변횟집",
    "address": "강원특별자치도 화천군 간동면 배터길 45",
    "phone": "",
    "latitude": "38.0961433392",
    "longitude": "127.7756689748",
    "image": "http://tong.visitkorea.or.kr/cms/resource/30/1022530_image2_1.jpg",
    "category": "한식"
  },
  {
    "id": "2572552",
    "title": "강복삼계탕",
    "address": "경상남도 통영시 발개로 152",
    "phone": "055-643-8855",
    "latitude": "34.8261370371",
    "longitude": "128.4207839708",
    "image": "",
    "category": "한식"
  },
  {
    "id": "2925546",
    "title": "강산막국수",
    "address": "강원특별자치도 태백시 서학1길 79",
    "phone": "",
    "latitude": "37.1554640814",
    "longitude": "128.9837215630",
    "image": "http://tong.visitkorea.or.kr/cms/resource/35/2925535_image2_1.jpg",
    "category": "한식"
  },
  {
    "id": "2869690",
    "title": "강산매운탕",
    "address": "세종특별자치시  금강변길 1249",
    "phone": "",
    "latitude": "36.5128132157",
    "longitude": "127.3579715849",
    "image": "http://tong.visitkorea.or.kr/cms/resource/84/2869684_image2_1.jpg",
    "category": "한식"
  },
  {
    "id": "2913332",
    "title": "강산숯불닭갈비막국수",
    "address": "강원특별자치도 춘천시 신북읍 신샘밭로 621",
    "phone": "",
    "latitude": "37.9304293643",
    "longitude": "127.7785570070",
    "image": "http://tong.visitkorea.or.kr/cms/resource/66/2919866_image2_1.jpg",
    "category": "한식"
  },
  {
    "id": "134946",
    "title": "강서면옥",
    "address": "충청북도 보은군 보은읍 동편길 35",
    "phone": "043-544-3895",
    "latitude": "36.4824093444",
    "longitude": "127.7225120150",
    "image": "",
    "category": "한식"
  },
  {
    "id": "232229",
    "title": "강서면옥",
    "address": "서울특별시 중구 세종대로11길 35",
    "phone": "02-752-1945",
    "latitude": "37.5619935812",
    "longitude": "126.9739382319",
    "image": "",
    "category": "한식"
  },
  {
    "id": "2703381",
    "title": "강선생의냉면막국수",
    "address": "인천광역시 서구 담지로86번길5-41",
    "phone": "032-565-9263",
    "latitude": "37.5379602685",
    "longitude": "126.6622506718",
    "image": "",
    "category": "한식"
  },
  {
    "id": "2902003",
    "title": "강성면옥",
    "address": "경상북도 김천시 구농고2길 5",
    "phone": "",
    "latitude": "36.1268874021",
    "longitude": "128.1050155710",
    "image": "http://tong.visitkorea.or.kr/cms/resource/93/2901993_image2_1.jpg",
    "category": "한식"
  },
  {
    "id": "2856926",
    "title": "강쇠낙지마을",
    "address": "충청북도 청주시 서원구 대림로 418",
    "phone": "",
    "latitude": "36.6079093573",
    "longitude": "127.4415614811",
    "image": "http://tong.visitkorea.or.kr/cms/resource/21/2856921_image2_1.jpg",
    "category": "한식"
  },
  {
    "id": "2580221",
    "title": "강씨네",
    "address": "대전광역시 서구 대덕대로234번길 29",
    "phone": "042-486-3355",
    "latitude": "36.3538734996",
    "longitude": "127.3813793707",
    "image": "",
    "category": "한식"
  },
  {
    "id": "2766724",
    "title": "강원도집",
    "address": "대구광역시 달성군 가창면 가창로176길 18",
    "phone": "",
    "latitude": "35.7901992065",
    "longitude": "128.6360085440",
    "image": "",
    "category": "한식"
  },
  {
    "id": "2507574",
    "title": "강원도해장국",
    "address": "울산광역시 중구 북부순환도로 864",
    "phone": "052-294-9400",
    "latitude": "35.5804277409",
    "longitude": "129.3445495574",
    "image": "",
    "category": "한식"
  },
  {
    "id": "2860557",
    "title": "강원막국수",
    "address": "경기도 김포시 고촌읍 전호로 68",
    "phone": "",
    "latitude": "37.6038715774",
    "longitude": "126.7923702784",
    "image": "http://tong.visitkorea.or.kr/cms/resource/47/2860547_image2_1.jpg",
    "category": "한식"
  },
  {
    "id": "2817113",
    "title": "강원칡냉면",
    "address": "경기도 수원시 장안구 수성로339번길 9",
    "phone": "",
    "latitude": "37.2930809611",
    "longitude": "127.0087176353",
    "image": "",
    "category": "한식"
  },
  {
    "id": "627268",
    "title": "강원토속식당",
    "address": "강원특별자치도 영월군 김삿갓면 영월동로 1121-16",
    "phone": "033-372-9014",
    "latitude": "37.1303750763",
    "longitude": "128.5364150952",
    "image": "",
    "category": "한식"
  },
  {
    "id": "2913429",
    "title": "강원한우정육식당",
    "address": "강원특별자치도 양구군 정중앙로 202",
    "phone": "",
    "latitude": "38.0791721102",
    "longitude": "128.0179335117",
    "image": "http://tong.visitkorea.or.kr/cms/resource/14/2913414_image2_1.JPG",
    "category": "한식"
  },
  {
    "id": "2903512",
    "title": "강원횟집",
    "address": "강원특별자치도 양양군 매바위길 138",
    "phone": "",
    "latitude": "37.9451191407",
    "longitude": "128.7868845282",
    "image": "http://tong.visitkorea.or.kr/cms/resource/95/2903495_image2_1.jpg",
    "category": "한식"
  },
  {
    "id": "2839811",
    "title": "강의리추어탕",
    "address": "전라남도 담양군 강의길 73",
    "phone": "",
    "latitude": "35.2645807925",
    "longitude": "126.9043003018",
    "image": "http://tong.visitkorea.or.kr/cms/resource/09/2839809_image2_1.JPG",
    "category": "한식"
  },
  {
    "id": "2871576",
    "title": "강진만갯벌탕",
    "address": "전라남도 강진군 동성로 16",
    "phone": "",
    "latitude": "34.6403545044",
    "longitude": "126.7747077300",
    "image": "http://tong.visitkorea.or.kr/cms/resource/83/3575983_image2_1.jpg",
    "category": "한식"
  },
  {
    "id": "2871594",
    "title": "강진만한정식",
    "address": "전라남도 강진군 보은로 73",
    "phone": "",
    "latitude": "34.6348550048",
    "longitude": "126.7676640386",
    "image": "http://tong.visitkorea.or.kr/cms/resource/90/2871590_image2_1.jpg",
    "category": "한식"
  },
  {
    "id": "2863344",
    "title": "강천 매운탕",
    "address": "경기도 여주시 강천면 강천리길 85",
    "phone": "",
    "latitude": "37.2347476110",
    "longitude": "127.7089503462",
    "image": "http://tong.visitkorea.or.kr/cms/resource/34/2863334_image2_1.jpg",
    "category": "한식"
  },
  {
    "id": "1985854",
    "title": "강천골식당",
    "address": "전북특별자치도 순창군 팔덕면 강천산길 85",
    "phone": "063-652-9920",
    "latitude": "35.4085950781",
    "longitude": "127.0688209680",
    "image": "",
    "category": "한식"
  },
  {
    "id": "2784840",
    "title": "강촌갈비",
    "address": "강원특별자치도 평창군 대관령면 횡계2길 9",
    "phone": "",
    "latitude": "37.6730324712",
    "longitude": "128.7089638364",
    "image": "http://tong.visitkorea.or.kr/cms/resource/31/2784831_image2_1.jpg",
    "category": "한식"
  },
  {
    "id": "1855052",
    "title": "강촌떡갈비",
    "address": "전북특별자치도 전주시 완산구 전주천동로 56",
    "phone": "063-283-0600",
    "latitude": "35.8113397417",
    "longitude": "127.1545918319",
    "image": "http://tong.visitkorea.or.kr/cms/resource/12/1976712_image2_1.jpg",
    "category": "한식"
  },
  {
    "id": "2847165",
    "title": "강촌쌈밥",
    "address": "서울특별시 종로구 평창30길 9",
    "phone": "",
    "latitude": "37.6107629270",
    "longitude": "126.9747812177",
    "image": "http://tong.visitkorea.or.kr/cms/resource/54/2847154_image2_1.jpg",
    "category": "한식"
  },
  {
    "id": "3547763",
    "title": "강촌제주산흑돼지",
    "address": "강원특별자치도 강릉시 용지각길8번길 1 (포남동)",
    "phone": "",
    "latitude": "37.7607427988",
    "longitude": "128.9050101431",
    "image": "",
    "category": "한식"
  },
  {
    "id": "1599093",
    "title": "강촌추어탕",
    "address": "경상남도 거창군 거창읍 창남4길 25",
    "phone": "055-944-7337",
    "latitude": "35.6838203710",
    "longitude": "127.9143834023",
    "image": "",
    "category": "한식"
  },
  {
    "id": "1014486",
    "title": "강태분 할머니묵집",
    "address": "대전광역시 유성구 금남구즉로 1378",
    "phone": "042-935-5842",
    "latitude": "36.4462185283",
    "longitude": "127.3838210857",
    "image": "http://tong.visitkorea.or.kr/cms/resource/96/1023896_image2_1.jpg",
    "category": "한식"
  },
  {
    "id": "134470",
    "title": "강화가든",
    "address": "강원특별자치도 삼척시 원당로2길 69",
    "phone": "033-575-0011",
    "latitude": "37.4375182824",
    "longitude": "129.1534005870",
    "image": "http://tong.visitkorea.or.kr/cms/resource/00/1814100_image2_1.jpg",
    "category": "한식"
  },
  {
    "id": "2891607",
    "title": "강화국수",
    "address": "인천광역시 강화군 동문안길 12-1 삼성양복점",
    "phone": "",
    "latitude": "37.7471633481",
    "longitude": "126.4863053709",
    "image": "http://tong.visitkorea.or.kr/cms/resource/18/2878018_image2_1.jpg",
    "category": "한식"
  },
  {
    "id": "2807606",
    "title": "강화꽃게집",
    "address": "인천광역시 강화군 중앙로 1222",
    "phone": "",
    "latitude": "37.7044666089",
    "longitude": "126.3885210812",
    "image": "",
    "category": "한식"
  },
  {
    "id": "2836723",
    "title": "강화섬약쑥한우",
    "address": "인천광역시 강화군 선원면 선원사지로 32",
    "phone": "",
    "latitude": "37.7264328502",
    "longitude": "126.5099871131",
    "image": "http://tong.visitkorea.or.kr/cms/resource/15/2836715_image2_1.jpg",
    "category": "한식"
  },
  {
    "id": "2836753",
    "title": "강화손칼국수 본점",
    "address": "인천광역시 강화군 양도면 강화남로 678",
    "phone": "",
    "latitude": "37.6608250808",
    "longitude": "126.4230191316",
    "image": "http://tong.visitkorea.or.kr/cms/resource/46/2836746_image2_1.jpg",
    "category": "한식"
  },
  {
    "id": "2851722",
    "title": "강화솥밥집",
    "address": "인천광역시 강화군 강화읍 관청리",
    "phone": "",
    "latitude": "37.7485548221",
    "longitude": "126.4846110428",
    "image": "",
    "category": "한식"
  },
  {
    "id": "2876642",
    "title": "강화식당",
    "address": "전라남도 영광군 굴비로 9-2",
    "phone": "",
    "latitude": "35.3616898589",
    "longitude": "126.4449191893",
    "image": "http://tong.visitkorea.or.kr/cms/resource/33/2876633_image2_1.jpg",
    "category": "한식"
  },
  {
    "id": "728954",
    "title": "강화어부네꽃게탕",
    "address": "인천광역시 강화군 내가면 해안서로 920",
    "phone": "0507-1482-0603",
    "latitude": "37.7016028506",
    "longitude": "126.3768888941",
    "image": "",
    "category": "한식"
  },
  {
    "id": "2877991",
    "title": "강화원조칼국수",
    "address": "인천광역시 강화군 화도면 해안남로 1367",
    "phone": "",
    "latitude": "37.5962916217",
    "longitude": "126.4622367757",
    "image": "http://tong.visitkorea.or.kr/cms/resource/82/2877982_image2_1.jpg",
    "category": "한식"
  },
  {
    "id": "2844192",
    "title": "개군할머니토종순대국",
    "address": "경기도 양평군 개군면 하자포길 27-2",
    "phone": "",
    "latitude": "37.4258057094",
    "longitude": "127.5376436758",
    "image": "http://tong.visitkorea.or.kr/cms/resource/86/2844186_image2_1.jpg",
    "category": "한식"
  },
  {
    "id": "2784321",
    "title": "개금밀면",
    "address": "부산광역시 부산진구 가야대로482번길 9-4",
    "phone": "",
    "latitude": "35.1525864700",
    "longitude": "129.0251059496",
    "image": "http://tong.visitkorea.or.kr/cms/resource/26/2787626_image2_1.jpg",
    "category": "한식"
  },
  {
    "id": "2664961",
    "title": "개마고원",
    "address": "광주광역시 서구 상무대로 1094",
    "phone": "062-366-3744",
    "latitude": "35.1525486232",
    "longitude": "126.8814718006",
    "image": "http://tong.visitkorea.or.kr/cms/resource/04/2667904_image2_1.jpg",
    "category": "한식"
  },
  {
    "id": "2904219",
    "title": "개미국시방",
    "address": "경상북도 포항시 남구 동문로53번길 8",
    "phone": "",
    "latitude": "35.9949783497",
    "longitude": "129.3513204627",
    "image": "http://tong.visitkorea.or.kr/cms/resource/11/2904211_image2_1.jpg",
    "category": "한식"
  },
  {
    "id": "2609623",
    "title": "개미집 본점",
    "address": "부산광역시 중구 중구로30번길 21-1 (신창동2가)",
    "phone": "051-246-3186",
    "latitude": "35.1008006940",
    "longitude": "129.0301485912",
    "image": "http://tong.visitkorea.or.kr/cms/resource/63/2934863_image2_1.jpg",
    "category": "한식"
  },
  {
    "id": "2736707",
    "title": "개미촌",
    "address": "경기도 광주시 남한산성면 남한산성로 512",
    "phone": "",
    "latitude": "37.4672448839",
    "longitude": "127.2066280793",
    "image": "http://tong.visitkorea.or.kr/cms/resource/90/2750690_image2_1.png",
    "category": "한식"
  },
  {
    "id": "2867328",
    "title": "개성설렁탕 본점",
    "address": "경기도 의정부시 신흥로 177 (의정부동)",
    "phone": "",
    "latitude": "37.7321167078",
    "longitude": "127.0432520668",
    "image": "http://tong.visitkorea.or.kr/cms/resource/26/2867326_image2_1.JPG",
    "category": "한식"
  },
  {
    "id": "2575790",
    "title": "개성순대",
    "address": "경상남도 창원시 마산합포구 가포로 686",
    "phone": "",
    "latitude": "35.1405490557",
    "longitude": "128.5757954427",
    "image": "",
    "category": "한식"
  },
  {
    "id": "2824402",
    "title": "개성순두부전문점",
    "address": "전라남도 완도군 개포로 19",
    "phone": "",
    "latitude": "34.3164042784",
    "longitude": "126.7502315674",
    "image": "",
    "category": "한식"
  },
  {
    "id": "134729",
    "title": "개성집",
    "address": "경기도 남양주시 와부읍 경강로 876",
    "phone": "031-576-6497",
    "latitude": "37.5594680265",
    "longitude": "127.2349145429",
    "image": "http://tong.visitkorea.or.kr/cms/resource/83/2499083_image2_1.jpg",
    "category": "한식"
  },
  {
    "id": "2859399",
    "title": "개신동해장국",
    "address": "충청북도 청주시 서원구 모충로 16",
    "phone": "",
    "latitude": "36.6247300843",
    "longitude": "127.4658366180",
    "image": "http://tong.visitkorea.or.kr/cms/resource/90/2859390_image2_1.jpg",
    "category": "한식"
  },
  {
    "id": "2840125",
    "title": "개암곰탕",
    "address": "전북특별자치도 부안군 상서면 부안로 1567",
    "phone": "",
    "latitude": "35.6482666424",
    "longitude": "126.6696197718",
    "image": "http://tong.visitkorea.or.kr/cms/resource/11/2840111_image2_1.jpg",
    "category": "한식"
  },
  {
    "id": "2900693",
    "title": "개운궁",
    "address": "경상북도 상주시 경상대로 2882",
    "phone": "",
    "latitude": "36.4048287656",
    "longitude": "128.1497288558",
    "image": "http://tong.visitkorea.or.kr/cms/resource/83/2900683_image2_1.jpg",
    "category": "한식"
  },
  {
    "id": "2840696",
    "title": "개울가식당",
    "address": "경상북도 경산시 와촌면 갓바위로81길 7-5",
    "phone": "",
    "latitude": "35.9758471797",
    "longitude": "128.7611701103",
    "image": "http://tong.visitkorea.or.kr/cms/resource/84/2840684_image2_1.jpg",
    "category": "한식"
  },
  {
    "id": "634155",
    "title": "개정",
    "address": "대구광역시 중구 동성로 36-6",
    "phone": "053-422-0366",
    "latitude": "35.8730779485",
    "longitude": "128.5942793581",
    "image": "",
    "category": "한식"
  },
  {
    "id": "2580239",
    "title": "개천식당",
    "address": "대전광역시 동구 대전로779번길 41-1 (원동)",
    "phone": "",
    "latitude": "36.3285633966",
    "longitude": "127.4315394615",
    "image": "http://tong.visitkorea.or.kr/cms/resource/31/3034831_image2_1.JPG",
    "category": "한식"
  },
  {
    "id": "2847218",
    "title": "개항면",
    "address": "인천광역시 중구 제물량로 262-13 (선린동)",
    "phone": "",
    "latitude": "37.4745946352",
    "longitude": "126.6181370171",
    "image": "http://tong.visitkorea.or.kr/cms/resource/10/2847210_image2_1.jpg",
    "category": "한식"
  },
  {
    "id": "2849647",
    "title": "개화산장",
    "address": "서울특별시 강서구 개화동로19길 6-53 (방화동)",
    "phone": "",
    "latitude": "37.5738613860",
    "longitude": "126.8039700643",
    "image": "http://tong.visitkorea.or.kr/cms/resource/40/2849640_image2_1.jpg",
    "category": "한식"
  },
  {
    "id": "398363",
    "title": "개화옥",
    "address": "서울특별시 강남구 압구정로50길 7",
    "phone": "02-549-1459",
    "latitude": "37.5277931604",
    "longitude": "127.0386083095",
    "image": "http://tong.visitkorea.or.kr/cms/resource/90/1290490_image2_1.jpg",
    "category": "한식"
  },
  {
    "id": "402897",
    "title": "갯마을",
    "address": "서울특별시 용산구 서빙고로 56 (한강로3가)",
    "phone": "02-795-2277",
    "latitude": "37.5230897040",
    "longitude": "126.9703535474",
    "image": "",
    "category": "한식"
  },
  {
    "id": "2782894",
    "title": "갯마을 (갯마을굴구이)",
    "address": "충청남도 보령시 천북면 홍보로 1061",
    "phone": "",
    "latitude": "36.5080624348",
    "longitude": "126.4870305794",
    "image": "http://tong.visitkorea.or.kr/cms/resource/86/2786086_image2_1.jpg",
    "category": "한식"
  },
  {
    "id": "404056",
    "title": "갯마을갯뻘낙지",
    "address": "인천광역시 연수구 벚꽃로158번길 38",
    "phone": "032-815-5255",
    "latitude": "37.4140361121",
    "longitude": "126.6809024173",
    "image": "http://tong.visitkorea.or.kr/cms/resource/81/401281_image2_1.jpg",
    "category": "한식"
  },
  {
    "id": "2871632",
    "title": "갯마을식당",
    "address": "전라남도 신안군 증도중앙길 40-2",
    "phone": "",
    "latitude": "35.0012561968",
    "longitude": "126.1397134314",
    "image": "",
    "category": "한식"
  },
  {
    "id": "403194",
    "title": "갯마을풍천장어",
    "address": "서울특별시 도봉구 도봉산4나길 12-10",
    "phone": "02-955-3396",
    "latitude": "37.6878635234",
    "longitude": "127.0431866722",
    "image": "http://tong.visitkorea.or.kr/cms/resource/49/399749_image2_1.jpg",
    "category": "한식"
  },
  {
    "id": "2782813",
    "title": "갯마을횟집",
    "address": "전라남도 장흥군 안양면 수문용곡로 141",
    "phone": "",
    "latitude": "34.6328151850",
    "longitude": "127.0312798169",
    "image": "http://tong.visitkorea.or.kr/cms/resource/23/2787623_image2_1.jpg",
    "category": "한식"
  },
  {
    "id": "2872683",
    "title": "갯배생선구이 강화도점",
    "address": "인천광역시 강화군 양도면 중앙로 1124",
    "phone": "",
    "latitude": "37.7026947789",
    "longitude": "126.3991229361",
    "image": "http://tong.visitkorea.or.kr/cms/resource/77/2872677_image2_1.jpg",
    "category": "한식"
  },
  {
    "id": "2874889",
    "title": "갯촌칼국시",
    "address": "경기도 양주시 장흥면 호국로 697",
    "phone": "",
    "latitude": "37.7241777714",
    "longitude": "126.9894016554",
    "image": "http://tong.visitkorea.or.kr/cms/resource/77/2874877_image2_1.jpg",
    "category": "한식"
  },
  {
    "id": "2703401",
    "title": "갱치",
    "address": "충청북도 괴산군 괴산읍 문무로역고개길 73-1",
    "phone": "043-832-7850",
    "latitude": "36.8094789378",
    "longitude": "127.8070203025",
    "image": "",
    "category": "한식"
  },
  {
    "id": "2683277",
    "title": "거기막국수",
    "address": "강원특별자치도 평창군 봉평면 이효석길 163",
    "phone": "033-334-3002",
    "latitude": "37.6147994200",
    "longitude": "128.3724098435",
    "image": "",
    "category": "한식"
  },
  {
    "id": "2760771",
    "title": "거대갈비",
    "address": "부산광역시 해운대구 달맞이길 22 (중동)",
    "phone": "",
    "latitude": "35.1620685910",
    "longitude": "129.1672794347",
    "image": "http://tong.visitkorea.or.kr/cms/resource/56/2761256_image2_1.jpg",
    "category": "한식"
  },
  {
    "id": "2904908",
    "title": "거대곰탕",
    "address": "부산광역시 해운대구 해운대해변로 163 현대베네시티아파트",
    "phone": "",
    "latitude": "35.1584047875",
    "longitude": "129.1497310611",
    "image": "http://tong.visitkorea.or.kr/cms/resource/98/2904898_image2_1.jpg",
    "category": "한식"
  },
  {
    "id": "2893145",
    "title": "거목산장",
    "address": "경기도 안성시 양성면 도곡길 34-15",
    "phone": "",
    "latitude": "37.0774956350",
    "longitude": "127.2116441644",
    "image": "http://tong.visitkorea.or.kr/cms/resource/31/2893131_image2_1.JPG",
    "category": "한식"
  },
  {
    "id": "132858",
    "title": "거목한정식",
    "address": "광주광역시 남구 천변좌로364번길 3-6 거목한정식",
    "phone": "062-672-0333",
    "latitude": "35.1457276824",
    "longitude": "126.9117581828",
    "image": "",
    "category": "한식"
  },
  {
    "id": "2783375",
    "title": "거북선숯불풍천장어",
    "address": "전북특별자치도 고창군 상하면 고리포길 199",
    "phone": "",
    "latitude": "35.4329676956",
    "longitude": "126.4336878622",
    "image": "http://tong.visitkorea.or.kr/cms/resource/00/2783600_image2_1.jpg",
    "category": "한식"
  },
  {
    "id": "2932056",
    "title": "거북선횟집 하모샤브샤브",
    "address": "전라남도 여수시 돌산읍 강남동로 13",
    "phone": "",
    "latitude": "34.7162209533",
    "longitude": "127.7548115805",
    "image": "http://tong.visitkorea.or.kr/cms/resource/54/2932054_image2_1.jpg",
    "category": "한식"
  },
  {
    "id": "3506747",
    "title": "거북섬어쩌다맛집",
    "address": "경기도 시흥시 거북섬둘레길 5-7 (정왕동)",
    "phone": "",
    "latitude": "37.3255129576",
    "longitude": "126.6754386993",
    "image": "",
    "category": "한식"
  },
  {
    "id": "2854724",
    "title": "거북이생고기식당",
    "address": "경기도 포천시 가산면 포천로898번길 156",
    "phone": "",
    "latitude": "37.8383683068",
    "longitude": "127.2010123796",
    "image": "http://tong.visitkorea.or.kr/cms/resource/17/2854717_image2_1.jpg",
    "category": "한식"
  },
  {
    "id": "2931207",
    "title": "거북이식당",
    "address": "전라남도 여수시 국포1로 26 (국동)",
    "phone": "",
    "latitude": "34.7287106604",
    "longitude": "127.7223807650",
    "image": "http://tong.visitkorea.or.kr/cms/resource/96/2931196_image2_1.jpg",
    "category": "한식"
  },
  {
    "id": "2915604",
    "title": "거북횟집",
    "address": "경상남도 거제시 장평로4길 31",
    "phone": "",
    "latitude": "34.8939551445",
    "longitude": "128.6141403479",
    "image": "http://tong.visitkorea.or.kr/cms/resource/74/2915574_image2_1.jpg",
    "category": "한식"
  },
  {
    "id": "2840666",
    "title": "거산 이가네더덕밥",
    "address": "대구광역시 북구 이곡길 35-41 (서변동)",
    "phone": "",
    "latitude": "35.9388873419",
    "longitude": "128.6040238857",
    "image": "http://tong.visitkorea.or.kr/cms/resource/53/2840653_image2_1.jpg",
    "category": "한식"
  },
  {
    "id": "2871638",
    "title": "거시기횟집",
    "address": "전라남도 신안군 압해로 1741-37 거시기횟집",
    "phone": "",
    "latitude": "34.8488555091",
    "longitude": "126.2350058675",
    "image": "http://tong.visitkorea.or.kr/cms/resource/35/2871635_image2_1.jpg",
    "category": "한식"
  },
  {
    "id": "2857971",
    "title": "거장물총칼국수 본점",
    "address": "경상남도 거제시 능포로 53 (장승포동)",
    "phone": "",
    "latitude": "34.8700931839",
    "longitude": "128.7270700482",
    "image": "http://tong.visitkorea.or.kr/cms/resource/61/2857961_image2_1.JPG",
    "category": "한식"
  },
  {
    "id": "2778431",
    "title": "거제 더꽃 본점",
    "address": "경상남도 거제시 아주로 24",
    "phone": "",
    "latitude": "34.8661901959",
    "longitude": "128.6913343700",
    "image": "",
    "category": "한식"
  },
  {
    "id": "1846040",
    "title": "거제도 싱싱게장",
    "address": "경상남도 거제시 장승포로 10",
    "phone": "055-681-5513",
    "latitude": "34.8675934327",
    "longitude": "128.7253563753",
    "image": "",
    "category": "한식"
  },
  {
    "id": "3458060",
    "title": "거제도 전복마을",
    "address": "경상남도 거제시 일운면 소동6길 17-3 (비버리힐즈워터프론트)",
    "phone": "",
    "latitude": "34.8426874358",
    "longitude": "128.7007091799",
    "image": "http://tong.visitkorea.or.kr/cms/resource/62/3457962_image2_1.jpg",
    "category": "한식"
  },
  {
    "id": "2902570",
    "title": "거제도신대구탕",
    "address": "경상남도 거제시 장승포로 28",
    "phone": "",
    "latitude": "34.8679489827",
    "longitude": "128.7272617559",
    "image": "http://tong.visitkorea.or.kr/cms/resource/57/2902557_image2_1.jpg",
    "category": "한식"
  },
  {
    "id": "2858010",
    "title": "거제멸치쌈밥",
    "address": "경상남도 거제시 지세포해안로 12",
    "phone": "",
    "latitude": "34.8351965998",
    "longitude": "128.7003927396",
    "image": "http://tong.visitkorea.or.kr/cms/resource/80/2857980_image2_1.jpg",
    "category": "한식"
  },
  {
    "id": "2917192",
    "title": "거제집",
    "address": "경상남도 거제시 장평1로 21",
    "phone": "",
    "latitude": "34.8924609159",
    "longitude": "128.6168345972",
    "image": "http://tong.visitkorea.or.kr/cms/resource/85/2917185_image2_1.jpg",
    "category": "한식"
  },
  {
    "id": "2914385",
    "title": "거제촌국수",
    "address": "경상남도 거제시 거제대로 5478",
    "phone": "",
    "latitude": "34.9094660723",
    "longitude": "128.5460014244",
    "image": "http://tong.visitkorea.or.kr/cms/resource/77/2914377_image2_1.jpg",
    "category": "한식"
  },
  {
    "id": "2914408",
    "title": "거제해송원조굴구이",
    "address": "경상남도 거제시 거제남서로 3845 해송굴구이촌",
    "phone": "",
    "latitude": "34.8435570747",
    "longitude": "128.5626739391",
    "image": "http://tong.visitkorea.or.kr/cms/resource/00/2914400_image2_1.jpg",
    "category": "한식"
  },
  {
    "id": "2867215",
    "title": "거창맷돌순두부",
    "address": "부산광역시 남구 유엔로 221 (대연동)",
    "phone": "",
    "latitude": "35.1306125441",
    "longitude": "129.1005555434",
    "image": "http://tong.visitkorea.or.kr/cms/resource/07/2867207_image2_1.JPG",
    "category": "한식"
  },
  {
    "id": "1599121",
    "title": "거창추어탕",
    "address": "경상남도 거창군 거창읍 강남로 114",
    "phone": "055-943-0302",
    "latitude": "35.6830148265",
    "longitude": "127.9099171513",
    "image": "",
    "category": "한식"
  },
  {
    "id": "1599113",
    "title": "거창축협한우팰리스",
    "address": "경상남도 거창군 거창읍 거함대로 3178",
    "phone": "055-943-9204",
    "latitude": "35.6798985048",
    "longitude": "127.9094950498",
    "image": "",
    "category": "한식"
  },
  {
    "id": "2844808",
    "title": "건강담은전민숙밥상",
    "address": "경기도 용인시 수지구 신봉1로 331 (신봉동)",
    "phone": "",
    "latitude": "37.3329687970",
    "longitude": "127.0529541673",
    "image": "http://tong.visitkorea.or.kr/cms/resource/00/2844800_image2_1.jpg",
    "category": "한식"
  },
  {
    "id": "2685333",
    "title": "건도리",
    "address": "강원특별자치도 강릉시 창해로 427",
    "phone": "033-644-9700",
    "latitude": "37.7995107058",
    "longitude": "128.9137553764",
    "image": "http://tong.visitkorea.or.kr/cms/resource/46/2684746_image2_1.jpg",
    "category": "한식"
  },
  {
    "id": "2670290",
    "title": "건봉국밥",
    "address": "전라남도 순천시 장평로 65",
    "phone": "061-752-0900",
    "latitude": "34.9455907199",
    "longitude": "127.4939924899",
    "image": "http://tong.visitkorea.or.kr/cms/resource/40/3443440_image2_1.jpg",
    "category": "한식"
  },
  {
    "id": "2736705",
    "title": "건업리 보리밥",
    "address": "경기도 광주시 곤지암읍 광여로 841",
    "phone": "",
    "latitude": "37.3874633125",
    "longitude": "127.4065899850",
    "image": "http://tong.visitkorea.or.kr/cms/resource/79/2750679_image2_1.png",
    "category": "한식"
  },
  {
    "id": "403767",
    "title": "걸구쟁이네",
    "address": "경기도 여주시 강천면 강문로 707",
    "phone": "031-885-9875",
    "latitude": "37.2645804583",
    "longitude": "127.7188347076",
    "image": "",
    "category": "한식"
  },
  {
    "id": "2866153",
    "title": "걸리버막창",
    "address": "대구광역시 북구 옥산로 53 (노원동1가)",
    "phone": "",
    "latitude": "35.8855735199",
    "longitude": "128.5814829152",
    "image": "http://tong.visitkorea.or.kr/cms/resource/44/2866144_image2_1.jpg",
    "category": "한식"
  },
  {
    "id": "1214384",
    "title": "검단집",
    "address": "경기도 가평군 청평면 호반로 1226",
    "phone": "",
    "latitude": "37.7156353239",
    "longitude": "127.5021218350",
    "image": "",
    "category": "한식"
  },
  {
    "id": "2843922",
    "title": "검단태백산 본점",
    "address": "인천광역시 서구 완정로 151 (왕길동)",
    "phone": "",
    "latitude": "37.6011584172",
    "longitude": "126.6592519591",
    "image": "http://tong.visitkorea.or.kr/cms/resource/14/2843914_image2_1.jpg",
    "category": "한식"
  },
  {
    "id": "2873679",
    "title": "검은노루",
    "address": "제주특별자치도 서귀포시 대정읍 상모로 257",
    "phone": "",
    "latitude": "33.2238983821",
    "longitude": "126.2617326224",
    "image": "http://tong.visitkorea.or.kr/cms/resource/69/2873669_image2_1.jpg",
    "category": "한식"
  },
  {
    "id": "2861159",
    "title": "게으쭈루",
    "address": "경기도 평택시 정암로 126-49 (이충동)",
    "phone": "",
    "latitude": "37.0539292023",
    "longitude": "127.0723879683",
    "image": "http://tong.visitkorea.or.kr/cms/resource/26/2861026_image2_1.jpg",
    "category": "한식"
  },
  {
    "id": "2778460",
    "title": "겨비겨비",
    "address": "전라남도 순천시 오천3길 4-13",
    "phone": "",
    "latitude": "34.9324977784",
    "longitude": "127.4958232175",
    "image": "",
    "category": "한식"
  },
  {
    "id": "2762933",
    "title": "견애가",
    "address": "경기도 고양시 덕양구 동헌로 100 (관산동)",
    "phone": "",
    "latitude": "37.7061915885",
    "longitude": "126.8688215155",
    "image": "http://tong.visitkorea.or.kr/cms/resource/42/2763042_image2_1.jpg",
    "category": "한식"
  },
  {
    "id": "2912372",
    "title": "결성칼국수",
    "address": "충청남도 홍성군 구성남로 31",
    "phone": "",
    "latitude": "36.5272723850",
    "longitude": "126.5480773458",
    "image": "http://tong.visitkorea.or.kr/cms/resource/66/2912366_image2_1.jpg",
    "category": "한식"
  },
  {
    "id": "391742",
    "title": "경강막국수",
    "address": "강원특별자치도 춘천시 남산면 서백길 62-4",
    "phone": "033-263-1138",
    "latitude": "37.8422103958",
    "longitude": "127.5509525715",
    "image": "http://tong.visitkorea.or.kr/cms/resource/39/3046639_image2_1.jpg",
    "category": "한식"
  },
  {
    "id": "2845925",
    "title": "경기순대국",
    "address": "경기도 여주시 가남읍 삼군2길 27",
    "phone": "",
    "latitude": "37.2223157471",
    "longitude": "127.5590309069",
    "image": "http://tong.visitkorea.or.kr/cms/resource/24/2845924_image2_1.jpeg",
    "category": "한식"
  },
  {
    "id": "133645",
    "title": "경기식당",
    "address": "경상남도 양산시 하북면 신평강변로 86",
    "phone": "",
    "latitude": "35.4933881544",
    "longitude": "129.0814471923",
    "image": "http://tong.visitkorea.or.kr/cms/resource/57/3069857_image2_1.JPG",
    "category": "한식"
  },
  {
    "id": "2929408",
    "title": "경기식당",
    "address": "충청남도 공주시 동학사1로 303",
    "phone": "",
    "latitude": "36.3571122084",
    "longitude": "127.2351701453",
    "image": "http://tong.visitkorea.or.kr/cms/resource/02/2929402_image2_1.jpg",
    "category": "한식"
  },
  {
    "id": "3536945",
    "title": "경기해변횟집",
    "address": "강원특별자치도 강릉시 창해로 473 (강문동)",
    "phone": "033-644-2069",
    "latitude": "37.8027519269",
    "longitude": "128.9101194924",
    "image": "",
    "category": "한식"
  },
  {
    "id": "2857693",
    "title": "경남식당",
    "address": "충청북도 단양군 단양읍 고수동굴길 4-2",
    "phone": "",
    "latitude": "36.9883773744",
    "longitude": "128.3821941854",
    "image": "http://tong.visitkorea.or.kr/cms/resource/69/2857669_image2_1.jpg",
    "category": "한식"
  },
  {
    "id": "2850054",
    "title": "경동식당",
    "address": "충청남도 아산시 염성길 122",
    "phone": "",
    "latitude": "36.8170353015",
    "longitude": "126.9718174569",
    "image": "http://tong.visitkorea.or.kr/cms/resource/45/2850045_image2_1.jpg",
    "category": "한식"
  },
  {
    "id": "2580294",
    "title": "경동오징어국수",
    "address": "대전광역시 동구 계족로 369",
    "phone": "042-626-5707",
    "latitude": "36.3447671280",
    "longitude": "127.4331638761",
    "image": "",
    "category": "한식"
  },
  {
    "id": "2789203",
    "title": "경동함흥냉면",
    "address": "서울특별시 동대문구 고산자로38길 19",
    "phone": "",
    "latitude": "37.5801509845",
    "longitude": "127.0396456189",
    "image": "http://tong.visitkorea.or.kr/cms/resource/42/2789742_image2_1.jpg",
    "category": "한식"
  },
  {
    "id": "2758836",
    "title": "경미네집",
    "address": "제주특별자치도 서귀포시 성산읍 일출로 259",
    "phone": "",
    "latitude": "33.4612828593",
    "longitude": "126.9334967787",
    "image": "http://tong.visitkorea.or.kr/cms/resource/16/2758916_image2_1.jpg",
    "category": "한식"
  },
  {
    "id": "2666461",
    "title": "경복궁",
    "address": "경상북도 안동시 충효로 4439",
    "phone": "054-859-9900",
    "latitude": "36.5496342496",
    "longitude": "128.7358031916",
    "image": "",
    "category": "한식"
  },
  {
    "id": "3577022",
    "title": "경복궁",
    "address": "울산광역시 남구 산업로 595 (삼산동)",
    "phone": "",
    "latitude": "35.5348079794",
    "longitude": "129.3503586712",
    "image": "http://tong.visitkorea.or.kr/cms/resource/14/3577014_image2_1.jpg",
    "category": "한식"
  },
  {
    "id": "2773715",
    "title": "경복궁 하남미사점",
    "address": "경기도 하남시 미사대로 464 (망월동)",
    "phone": "",
    "latitude": "37.5629697700",
    "longitude": "127.2003009251",
    "image": "http://tong.visitkorea.or.kr/cms/resource/12/2773812_image2_1.jpeg",
    "category": "한식"
  },
  {
    "id": "2833793",
    "title": "경복궁 한옥마을점",
    "address": "인천광역시 연수구 테크노파크로 180",
    "phone": "",
    "latitude": "37.3903047923",
    "longitude": "126.6388013567",
    "image": "http://tong.visitkorea.or.kr/cms/resource/77/2833777_image2_1.jpg",
    "category": "한식"
  },
  {
    "id": "2820889",
    "title": "경복궁에 맛있는 부엌",
    "address": "서울특별시 종로구 사직로 103",
    "phone": "",
    "latitude": "37.5763001859",
    "longitude": "126.9702631619",
    "image": "",
    "category": "한식"
  },
  {
    "id": "2875315",
    "title": "경복식당",
    "address": "서울특별시 노원구 공릉로39길 10 (공릉동, 대아아파트)",
    "phone": "",
    "latitude": "37.6237632891",
    "longitude": "127.0788741361",
    "image": "http://tong.visitkorea.or.kr/cms/resource/04/2875304_image2_1.jpg",
    "category": "한식"
  },
  {
    "id": "2612338",
    "title": "경산예찬한우",
    "address": "경상북도 경산시 남매로 251",
    "phone": "",
    "latitude": "35.8332323875",
    "longitude": "128.7407647965",
    "image": "http://tong.visitkorea.or.kr/cms/resource/42/2612342_image2_1.jpg",
    "category": "한식"
  },
  {
    "id": "2912781",
    "title": "경성삼겹살",
    "address": "대전광역시 유성구 문화원로 90 (봉명동)",
    "phone": "",
    "latitude": "36.3588278590",
    "longitude": "127.3459101875",
    "image": "http://tong.visitkorea.or.kr/cms/resource/79/2912779_image2_1.jpg",
    "category": "한식"
  },
  {
    "id": "2870515",
    "title": "경성수산",
    "address": "제주특별자치도 제주시 한림상로 111",
    "phone": "",
    "latitude": "33.4099473082",
    "longitude": "126.2648059954",
    "image": "http://tong.visitkorea.or.kr/cms/resource/09/2870509_image2_1.jpg",
    "category": "한식"
  },
  {
    "id": "2831373",
    "title": "경성집",
    "address": "경기도 수원시 권선구 서수원로 162 (오목천동)",
    "phone": "",
    "latitude": "37.2418473176",
    "longitude": "126.9701364555",
    "image": "http://tong.visitkorea.or.kr/cms/resource/47/2831347_image2_1.jpg",
    "category": "한식"
  },
  {
    "id": "3537135",
    "title": "경성포차",
    "address": "강원특별자치도 강릉시 해안로 280 (강문동)",
    "phone": "033-652-6548",
    "latitude": "37.7906007670",
    "longitude": "128.9209633368",
    "image": "",
    "category": "한식"
  },
  {
    "id": "2913091",
    "title": "경성한우불고기 송도컨벤시아 본점",
    "address": "인천광역시 연수구 센트럴로 123 송도컨벤시아",
    "phone": "",
    "latitude": "37.3900244069",
    "longitude": "126.6466173186",
    "image": "http://tong.visitkorea.or.kr/cms/resource/81/2913081_image2_1.JPG",
    "category": "한식"
  },
  {
    "id": "2875098",
    "title": "경원식당 본점",
    "address": "경기도 의정부시 둔야로49번길 21 (의정부동)",
    "phone": "",
    "latitude": "37.7403351054",
    "longitude": "127.0382967289",
    "image": "http://tong.visitkorea.or.kr/cms/resource/88/2875088_image2_1.JPG",
    "category": "한식"
  },
  {
    "id": "2923881",
    "title": "경원해물찜",
    "address": "전북특별자치도 군산시 칠성안1길 25",
    "phone": "",
    "latitude": "35.9686330606",
    "longitude": "126.6779997062",
    "image": "http://tong.visitkorea.or.kr/cms/resource/58/2923858_image2_1.jpg",
    "category": "한식"
  },
  {
    "id": "2904100",
    "title": "경인로570숯불구이",
    "address": "경기도 부천시 소사구 경인로 570 (괴안동)",
    "phone": "",
    "latitude": "37.4865190058",
    "longitude": "126.8177323709",
    "image": "http://tong.visitkorea.or.kr/cms/resource/89/2904089_image2_1.jpg",
    "category": "한식"
  },
  {
    "id": "2845021",
    "title": "경인면옥",
    "address": "인천광역시 중구 신포로46번길 38 (내동)",
    "phone": "",
    "latitude": "37.4725783807",
    "longitude": "126.6282305968",
    "image": "http://tong.visitkorea.or.kr/cms/resource/14/2845014_image2_1.jpg",
    "category": "한식"
  },
  {
    "id": "2876236",
    "title": "경주 원조콩국",
    "address": "경상북도 경주시 첨성로 113",
    "phone": "",
    "latitude": "35.8333273532",
    "longitude": "129.2147092947",
    "image": "http://tong.visitkorea.or.kr/cms/resource/17/2876117_image2_1.jpg",
    "category": "한식"
  },
  {
    "id": "2907183",
    "title": "경주단골식당 본점",
    "address": "경상북도 경주시 충효녹지길 30",
    "phone": "",
    "latitude": "35.8415398030",
    "longitude": "129.1876114358",
    "image": "http://tong.visitkorea.or.kr/cms/resource/65/2907165_image2_1.jpg",
    "category": "한식"
  },
  {
    "id": "2838772",
    "title": "경주밀면 본점",
    "address": "경상북도 경주시 시래둑길 7 한림원",
    "phone": "",
    "latitude": "35.7732802417",
    "longitude": "129.3031004864",
    "image": "http://tong.visitkorea.or.kr/cms/resource/63/2838763_image2_1.jpg",
    "category": "한식"
  },
  {
    "id": "2789679",
    "title": "경주식당",
    "address": "충청북도 단양군 단양읍 도전6길 14",
    "phone": "",
    "latitude": "36.9807113621",
    "longitude": "128.3701677078",
    "image": "http://tong.visitkorea.or.kr/cms/resource/29/2791729_image2_1.jpg",
    "category": "한식"
  },
  {
    "id": "2907286",
    "title": "경주어보",
    "address": "경상북도 경주시 포석로1050번길 39-19",
    "phone": "",
    "latitude": "35.8351077077",
    "longitude": "129.2147092440",
    "image": "http://tong.visitkorea.or.kr/cms/resource/73/2907273_image2_1.jpg",
    "category": "한식"
  },
  {
    "id": "2808054",
    "title": "경주집",
    "address": "부산광역시 금정구 하마2길 6 경주집",
    "phone": "",
    "latitude": "35.2790038172",
    "longitude": "129.0771062874",
    "image": "",
    "category": "한식"
  },
  {
    "id": "133343",
    "title": "경주집버섯찌개",
    "address": "충청북도 청주시 상당구 남사로93번길 21",
    "phone": "043-221-6523",
    "latitude": "36.6329211642",
    "longitude": "127.4854957395",
    "image": "",
    "category": "한식"
  },
  {
    "id": "2907299",
    "title": "경주황소곱창 황리단길본점",
    "address": "경상북도 경주시 금성로182번길 13",
    "phone": "",
    "latitude": "35.8339021752",
    "longitude": "129.2087236917",
    "image": "http://tong.visitkorea.or.kr/cms/resource/93/2907293_image2_1.jpg",
    "category": "한식"
  },
  {
    "id": "1829267",
    "title": "경주횟집 지중해",
    "address": "경상북도 경주시 알천북로 325 (동천동)",
    "phone": "",
    "latitude": "35.8446375352",
    "longitude": "129.2331545784",
    "image": "http://tong.visitkorea.or.kr/cms/resource/22/3551222_image2_1.jpg",
    "category": "한식"
  },
  {
    "id": "2855743",
    "title": "경천애인2237",
    "address": "서울특별시 강남구 테헤란로 421 (삼성동)",
    "phone": "",
    "latitude": "37.5060431587",
    "longitude": "127.0525465458",
    "image": "http://tong.visitkorea.or.kr/cms/resource/27/2855727_image2_1.jpg",
    "category": "한식"
  },
  {
    "id": "2824393",
    "title": "경춘재",
    "address": "경상북도 경주시 진현로2길 61-7",
    "phone": "",
    "latitude": "35.7869319287",
    "longitude": "129.3268008011",
    "image": "",
    "category": "한식"
  },
  {
    "id": "475197",
    "title": "경포가든",
    "address": "강원특별자치도 강릉시 경포로463번길 34",
    "phone": "033-644-2229",
    "latitude": "37.8042905107",
    "longitude": "128.9036116983",
    "image": "http://tong.visitkorea.or.kr/cms/resource/63/1814163_image2_1.jpg",
    "category": "한식"
  },
  {
    "id": "3536121",
    "title": "경포동해횟집",
    "address": "강원특별자치도 강릉시 창해로 491 (강문동)",
    "phone": "0507-1305-2231",
    "latitude": "37.8038823250",
    "longitude": "128.9087556914",
    "image": "",
    "category": "한식"
  },
  {
    "id": "3536303",
    "title": "경포비치횟집",
    "address": "강원특별자치도 강릉시 창해로 419 (강문동)",
    "phone": "033-644-2243",
    "latitude": "37.7991218740",
    "longitude": "128.9143442240",
    "image": "",
    "category": "한식"
  },
  {
    "id": "2687777",
    "title": "경포한미횟집",
    "address": "강원특별자치도 강릉시 창해로 491",
    "phone": "033-644-1045",
    "latitude": "37.8038545513",
    "longitude": "128.9088001327",
    "image": "http://tong.visitkorea.or.kr/cms/resource/63/2709763_image2_1.jpg",
    "category": "한식"
  },
  {
    "id": "2501877",
    "title": "경호강 어탕",
    "address": "경상남도 진주시 진산로 355",
    "phone": "055-763-6400",
    "latitude": "35.2173069062",
    "longitude": "128.1007655275",
    "image": "http://tong.visitkorea.or.kr/cms/resource/36/2501836_image2_1.jpeg",
    "category": "한식"
  },
  {
    "id": "2575838",
    "title": "경호강메기탕",
    "address": "경상남도 창원시 의창구 창이대로85번길 5",
    "phone": "055-238-7669",
    "latitude": "35.2401169692",
    "longitude": "128.6480420066",
    "image": "",
    "category": "한식"
  },
  {
    "id": "2841346",
    "title": "경희궁",
    "address": "경기도 부천시 오정구 신흥로 357 (내동)",
    "phone": "",
    "latitude": "37.5155370947",
    "longitude": "126.7749160176",
    "image": "http://tong.visitkorea.or.kr/cms/resource/36/2841336_image2_1.jpg",
    "category": "한식"
  },
  {
    "id": "133271",
    "title": "경희식당",
    "address": "충청북도 보은군 속리산면 사내7길 11-4",
    "phone": "043-543-3736",
    "latitude": "36.5325748408",
    "longitude": "127.8215489935",
    "image": "http://tong.visitkorea.or.kr/cms/resource/66/3082466_image2_1.JPG",
    "category": "한식"
  },
  {
    "id": "2900285",
    "title": "계곡가든",
    "address": "경상북도 청송군 경동로 5173-3",
    "phone": "",
    "latitude": "36.5049910958",
    "longitude": "129.1211731236",
    "image": "http://tong.visitkorea.or.kr/cms/resource/75/2900275_image2_1.jpg",
    "category": "한식"
  },
  {
    "id": "2905286",
    "title": "계곡가든",
    "address": "전북특별자치도 완주군 금고당로 65-12",
    "phone": "",
    "latitude": "36.0721931230",
    "longitude": "127.2997997869",
    "image": "http://tong.visitkorea.or.kr/cms/resource/74/2905274_image2_1.jpg",
    "category": "한식"
  },
  {
    "id": "133561",
    "title": "계곡가든꽃게장",
    "address": "전북특별자치도 군산시 개정면 금강로 470",
    "phone": "063-453-0608",
    "latitude": "35.9831246695",
    "longitude": "126.7713770921",
    "image": "http://tong.visitkorea.or.kr/cms/resource/21/662521_image2_1.jpg",
    "category": "한식"
  },
  {
    "id": "2923329",
    "title": "계동횟집",
    "address": "전라남도 여수시 계동해안길 48",
    "phone": "",
    "latitude": "34.6644607375",
    "longitude": "127.7928679037",
    "image": "http://tong.visitkorea.or.kr/cms/resource/15/2923315_image2_1.jpg",
    "category": "한식"
  },
  {
    "id": "1920784",
    "title": "계룡삼계탕",
    "address": "대전광역시 유성구 진잠로92번길 33",
    "phone": "",
    "latitude": "36.3003646019",
    "longitude": "127.3176448516",
    "image": "http://tong.visitkorea.or.kr/cms/resource/79/3062779_image2_1.JPG",
    "category": "한식"
  },
  {
    "id": "2863040",
    "title": "계룡한우",
    "address": "경기도 광주시 순암로 367-9 (중대동)",
    "phone": "",
    "latitude": "37.4047855599",
    "longitude": "127.2122099025",
    "image": "http://tong.visitkorea.or.kr/cms/resource/32/2863032_image2_1.jpg",
    "category": "한식"
  },
  {
    "id": "2892394",
    "title": "계륵",
    "address": "강원특별자치도 춘천시 남산면 김유정로 351",
    "phone": "",
    "latitude": "37.7435470354",
    "longitude": "127.7099215671",
    "image": "http://tong.visitkorea.or.kr/cms/resource/86/2891986_image2_1.jpg",
    "category": "한식"
  },
  {
    "id": "3535775",
    "title": "계륵장군 강릉점",
    "address": "강원특별자치도 강릉시 입암로148번길 22 (입암동)",
    "phone": "",
    "latitude": "37.7573212342",
    "longitude": "128.9184284850",
    "image": "",
    "category": "한식"
  },
  {
    "id": "2664541",
    "title": "계림동잔치집",
    "address": "광주광역시 동구 무등로306번길 6-1",
    "phone": "",
    "latitude": "35.1618648223",
    "longitude": "126.9160879510",
    "image": "http://tong.visitkorea.or.kr/cms/resource/22/3560822_image2_1.jpg",
    "category": "한식"
  },
  {
    "id": "2367770",
    "title": "계림식당",
    "address": "서울특별시 종로구 돈화문로4길 39",
    "phone": "02-2263-6658",
    "latitude": "37.5701624455",
    "longitude": "126.9945027934",
    "image": "http://tong.visitkorea.or.kr/cms/resource/71/2367771_image2_1.jpg",
    "category": "한식"
  },
  {
    "id": "2855456",
    "title": "계수가든",
    "address": "경기도 시흥시 범안로266번길 11 (계수동)",
    "phone": "",
    "latitude": "37.4591720863",
    "longitude": "126.8123141854",
    "image": "http://tong.visitkorea.or.kr/cms/resource/53/2855453_image2_1.jpeg",
    "category": "한식"
  },
  {
    "id": "2895161",
    "title": "계월",
    "address": "서울특별시 성동구 성덕정3길 8 (성수동1가)",
    "phone": "",
    "latitude": "37.5396169495",
    "longitude": "127.0476515952",
    "image": "http://tong.visitkorea.or.kr/cms/resource/44/2895144_image2_1.JPG",
    "category": "한식"
  },
  {
    "id": "2901359",
    "title": "계자람",
    "address": "서울특별시 성동구 성덕정17길 5 (성수동2가)",
    "phone": "",
    "latitude": "37.5378061841",
    "longitude": "127.0551704068",
    "image": "http://tong.visitkorea.or.kr/cms/resource/51/2901351_image2_1.jpg",
    "category": "한식"
  },
  {
    "id": "3467168",
    "title": "계절그리기",
    "address": "충청북도 단양군 단양읍 다리안로 499",
    "phone": "",
    "latitude": "36.9759405408",
    "longitude": "128.4155776717",
    "image": "http://tong.visitkorea.or.kr/cms/resource/60/3466960_image2_1.jpg",
    "category": "한식"
  },
  {
    "id": "2751025",
    "title": "고가네칼국수",
    "address": "충청남도 공주시 제민천3길 56",
    "phone": "",
    "latitude": "36.4535353061",
    "longitude": "127.1235136644",
    "image": "",
    "category": "한식"
  },
  {
    "id": "2864657",
    "title": "고가식당",
    "address": "경상남도 밀양시 산외로 714",
    "phone": "",
    "latitude": "35.5113844313",
    "longitude": "128.8400816889",
    "image": "http://tong.visitkorea.or.kr/cms/resource/51/2864651_image2_1.JPG",
    "category": "한식"
  },
  {
    "id": "2905124",
    "title": "고갯마루",
    "address": "전북특별자치도 남원시 비홍로 1280",
    "phone": "",
    "latitude": "35.4003616349",
    "longitude": "127.3310285303",
    "image": "http://tong.visitkorea.or.kr/cms/resource/06/2905106_image2_1.jpg",
    "category": "한식"
  },
  {
    "id": "404193",
    "title": "고관심해장국",
    "address": "제주특별자치도 제주시 한경면 용고로 86",
    "phone": "064-772-2825",
    "latitude": "33.3011996689",
    "longitude": "126.1795602716",
    "image": "http://tong.visitkorea.or.kr/cms/resource/42/401542_image2_1.jpg",
    "category": "한식"
  },
  {
    "id": "2575847",
    "title": "고구려",
    "address": "경상남도 창원시 마산회원구 두척1길 27",
    "phone": "055-232-6700",
    "latitude": "35.2374181197",
    "longitude": "128.5417430371",
    "image": "",
    "category": "한식"
  },
  {
    "id": "2380402",
    "title": "고구려숯불갈비",
    "address": "대구광역시 달성군 화원읍 명천로 244",
    "phone": "053-639-6766",
    "latitude": "35.7987400401",
    "longitude": "128.4921820803",
    "image": "http://tong.visitkorea.or.kr/cms/resource/73/2380373_image2_1.JPG",
    "category": "한식"
  },
  {
    "id": "2738662",
    "title": "고구려식당",
    "address": "충청남도 아산시 순천향로 412-8",
    "phone": "",
    "latitude": "36.7562450532",
    "longitude": "126.9702775849",
    "image": "http://tong.visitkorea.or.kr/cms/resource/29/2740529_image2_1.jpg",
    "category": "한식"
  },
  {
    "id": "2845447",
    "title": "고구려참숯구이",
    "address": "경기도 구리시 우미내길 6 (아천동)",
    "phone": "",
    "latitude": "37.5630987547",
    "longitude": "127.1142226444",
    "image": "http://tong.visitkorea.or.kr/cms/resource/37/2845437_image2_1.JPG",
    "category": "한식"
  },