[
  {
    "id": "3071498",
    "title": "김수현드라마아트홀",
    "address": "충청북도 청주시 상당구 우암산로41번길 21 (수동)",
    "phone": "",
    "latitude": "36.6411342691",
    "longitude": "127.4943586064",
    "image": "http://tong.visitkorea.or.kr/cms/resource/75/3071475_image2_1.jpg",
    "category": "공연장",
    "original_category": "전시관"
  },
  {
    "id": "3065619",
    "title": "한해랑 아트홀",
    "address": "전북특별자치도 전주시 완산구 홍산중앙로 13 (효자동2가)",
    "phone": "",
    "latitude": "35.8149274282",
    "longitude": "127.1087513728",
    "image": "http://tong.visitkorea.or.kr/cms/resource/05/3065605_image2_1.jpg",
    "category": "공연장",
    "original_category": "미술관화랑"
  },
  {
    "id": "130220",
    "title": "가평문화예술회관",
    "address": "경기도 가평군 가평읍 문화로 131",
    "phone": "",
    "latitude": "37.8248171919",
    "longitude": "127.5085736093",
    "image": "http://tong.visitkorea.or.kr/cms/resource/34/1589034_image2_1.jpg",
    "category": "공연장"
  },
  {
    "id": "1778079",
    "title": "강진아트홀",
    "address": "전라남도 강진군 강진읍 영랑로1길 9",
    "phone": "",
    "latitude": "34.6382074538",
    "longitude": "126.7705248168",
    "image": "",
    "category": "공연장"
  },
  {
    "id": "130219",
    "title": "강화문예회관",
    "address": "인천광역시 강화군 강화읍 고비고개로19번길 12",
    "phone": "",
    "latitude": "37.7453439098",
    "longitude": "126.4746009394",
    "image": "http://tong.visitkorea.or.kr/cms/resource/82/3350582_image2_1.JPG",
    "category": "공연장"
  },
  {
    "id": "3571394",
    "title": "거암아트홀",
    "address": "서울특별시 강남구 강남대로 652 (신사동)",
    "phone": "",
    "latitude": "37.5196576435",
    "longitude": "127.0190908729",
    "image": "http://tong.visitkorea.or.kr/cms/resource/76/3571376_image2_1.jpg",
    "category": "공연장"
  },
  {
    "id": "1749449",
    "title": "거제문화예술회관",
    "address": "경상남도 거제시 장승로 145",
    "phone": "",
    "latitude": "34.8671295553",
    "longitude": "128.7231565789",
    "image": "",
    "category": "공연장"
  },
  {
    "id": "1750851",
    "title": "거창문화센터",
    "address": "경상남도 거창군 거창읍 수남로 2181",
    "phone": "",
    "latitude": "35.6734631366",
    "longitude": "127.9102618219",
    "image": "",
    "category": "공연장"
  },
  {
    "id": "130546",
    "title": "경기도국악당",
    "address": "경기도 용인시 기흥구 민속촌로 89 (보라동)",
    "phone": "",
    "latitude": "37.2595533889",
    "longitude": "127.1137673762",
    "image": "http://tong.visitkorea.or.kr/cms/resource/30/3068530_image2_1.jpg",
    "category": "공연장"
  },
  {
    "id": "3084989",
    "title": "경기문화재단 아트홀(구 다산홀)",
    "address": "경기도 수원시 팔달구 인계로 178 (인계동)",
    "phone": "",
    "latitude": "37.2659873802",
    "longitude": "127.0369269432",
    "image": "http://tong.visitkorea.or.kr/cms/resource/32/3084532_image2_1.JPG",
    "category": "공연장"
  },
  {
    "id": "3070591",
    "title": "경남도민의집",
    "address": "경상남도 창원시 성산구 외동반림로248번길 36 (용호동)",
    "phone": "",
    "latitude": "35.2371679301",
    "longitude": "128.6826140661",
    "image": "http://tong.visitkorea.or.kr/cms/resource/68/3070568_image2_1.JPG",
    "category": "공연장"
  },
  {
    "id": "130507",
    "title": "경상남도문화예술회관",
    "address": "경상남도 진주시 강남로 215 경남문화예술회관",
    "phone": "",
    "latitude": "35.1865879998",
    "longitude": "128.0929142495",
    "image": "http://tong.visitkorea.or.kr/cms/resource/80/1611580_image2_1.jpg",
    "category": "공연장"
  },
  {
    "id": "1257271",
    "title": "경주예술의전당",
    "address": "경상북도 경주시 알천북로 1 (황성동)",
    "phone": "",
    "latitude": "35.8617128689",
    "longitude": "129.2058037111",
    "image": "",
    "category": "공연장"
  },
  {
    "id": "2946243",
    "title": "경희대학교 국제캠퍼스 노천극장",
    "address": "경기도 용인시 기흥구 덕영대로 1732 (서천동)",
    "phone": "",
    "latitude": "37.2480013599",
    "longitude": "127.0808817927",
    "image": "http://tong.visitkorea.or.kr/cms/resource/88/2945688_image2_1.jpg",
    "category": "공연장"
  },
  {
    "id": "1754902",
    "title": "계룡문화예술의전당",
    "address": "충청남도 계룡시 문화1로 13 계룡 문화예술의 전당",
    "phone": "",
    "latitude": "36.2729690399",
    "longitude": "127.2341641660",
    "image": "http://tong.visitkorea.or.kr/cms/resource/63/3338163_image2_1.jpg",
    "category": "공연장"
  },
  {
    "id": "130290",
    "title": "계양문화회관",
    "address": "인천광역시 계양구 계양산로35번길 11",
    "phone": "",
    "latitude": "37.5460492061",
    "longitude": "126.7181286785",
    "image": "http://tong.visitkorea.or.kr/cms/resource/95/3533195_image2_1.jpg",
    "category": "공연장"
  },
  {
    "id": "3085032",
    "title": "고려대학교 서울캠퍼스화정체육관",
    "address": "서울특별시 성북구 개운사2길 48 (안암동5가)",
    "phone": "",
    "latitude": "37.5900912767",
    "longitude": "127.0274353378",
    "image": "http://tong.visitkorea.or.kr/cms/resource/39/3084439_image2_1.JPG",
    "category": "공연장"
  },
  {
    "id": "254860",
    "title": "고양 아람누리",
    "address": "경기도 고양시 일산동구 중앙로 1286 (마두동)",
    "phone": "",
    "latitude": "37.6610284652",
    "longitude": "126.7728121221",
    "image": "http://tong.visitkorea.or.kr/cms/resource/99/3057699_image2_1.jpg",
    "category": "공연장"
  },
  {
    "id": "130549",
    "title": "고양 어울림누리",
    "address": "경기도 고양시 덕양구 어울림로 33 (성사동)",
    "phone": "",
    "latitude": "37.6484671422",
    "longitude": "126.8346318290",
    "image": "http://tong.visitkorea.or.kr/cms/resource/10/3527710_image2_1.jpg",
    "category": "공연장"
  },
  {
    "id": "130221",
    "title": "고양시문예회관",
    "address": "경기도 고양시 덕양구 고양시청로 10 (주교동)",
    "phone": "",
    "latitude": "37.6577687932",
    "longitude": "126.8321929000",
    "image": "http://tong.visitkorea.or.kr/cms/resource/44/700644_image2_1.jpg",
    "category": "공연장"
  },
  {
    "id": "1750138",
    "title": "고창문화의전당",
    "address": "전북특별자치도 고창군 고창읍 모양성로 11",
    "phone": "",
    "latitude": "35.4333666372",
    "longitude": "126.7045859853",
    "image": "",
    "category": "공연장"
  },
  {
    "id": "1054221",
    "title": "곡성레저문화센터",
    "address": "전라남도 곡성군 곡성읍 곡성로 855",
    "phone": "",
    "latitude": "35.2801301942",
    "longitude": "127.2971596157",
    "image": "http://tong.visitkorea.or.kr/cms/resource/43/3026943_image2_1.jpg",
    "category": "공연장"
  },
  {
    "id": "3024304",
    "title": "공간울림",
    "address": "대구광역시 수성구 삼덕동",
    "phone": "",
    "latitude": "35.8280483099",
    "longitude": "128.6688490460",
    "image": "http://tong.visitkorea.or.kr/cms/resource/44/3024244_image2_1.JPG",
    "category": "공연장"
  },
  {
    "id": "130204",
    "title": "공주문예회관",
    "address": "충청남도 공주시 고마나루길 5",
    "phone": "",
    "latitude": "36.4601871137",
    "longitude": "127.1117228761",
    "image": "http://tong.visitkorea.or.kr/cms/resource/53/3338753_image2_1.jpg",
    "category": "공연장"
  },
  {
    "id": "130089",
    "title": "과천시민회관",
    "address": "경기도 과천시 통영로 5",
    "phone": "",
    "latitude": "37.4282538301",
    "longitude": "126.9892183924",
    "image": "",
    "category": "공연장"
  },
  {
    "id": "3081147",
    "title": "관악아트홀",
    "address": "서울특별시 관악구 신림로3길 35 (신림동)",
    "phone": "",
    "latitude": "37.4676512424",
    "longitude": "126.9448852069",
    "image": "http://tong.visitkorea.or.kr/cms/resource/42/3081142_image2_1.JPG",
    "category": "공연장"
  },
  {
    "id": "130205",
    "title": "광양시문화예술회관",
    "address": "전라남도 광양시 광양읍 향교길 9-30",
    "phone": "",
    "latitude": "34.9799634742",
    "longitude": "127.5875972838",
    "image": "",
    "category": "공연장"
  },
  {
    "id": "3029616",
    "title": "광주광역시공연마루",
    "address": "광주광역시 서구 상무시민로 3 (치평동)",
    "phone": "",
    "latitude": "35.1558169947",
    "longitude": "126.8397587411",
    "image": "http://tong.visitkorea.or.kr/cms/resource/94/3029594_image2_1.jpg",
    "category": "공연장"
  },
  {
    "id": "1732075",
    "title": "광주시문화재단 광주시문화예술의전당",
    "address": "경기도 광주시 회안대로 891 (송정동)",
    "phone": "",
    "latitude": "37.4269198735",
    "longitude": "127.2547220811",
    "image": "http://tong.visitkorea.or.kr/cms/resource/65/3034865_image2_1.jpg",
    "category": "공연장"
  },
  {
    "id": "969963",
    "title": "광주야외음악당",
    "address": "광주광역시 서구 내방로 111",
    "phone": "",
    "latitude": "35.1600194930",
    "longitude": "126.8513576102",
    "image": "http://tong.visitkorea.or.kr/cms/resource/64/3367264_image2_1.jpg",
    "category": "공연장"
  },
  {
    "id": "130058",
    "title": "광주예술의전당",
    "address": "광주광역시 북구 북문대로 60",
    "phone": "",
    "latitude": "35.1779374203",
    "longitude": "126.8813878390",
    "image": "http://tong.visitkorea.or.kr/cms/resource/88/3033588_image2_1.jpg",
    "category": "공연장"
  },
  {
    "id": "968389",
    "title": "구로아트밸리 예술극장",
    "address": "서울특별시 구로구 가마산로25길 9-24",
    "phone": "",
    "latitude": "37.4965302226",
    "longitude": "126.8889367128",
    "image": "",
    "category": "공연장"
  },
  {
    "id": "3082423",
    "title": "구름아래소극장",
    "address": "서울특별시 마포구 와우산로29가길 15 (서교동)",
    "phone": "",
    "latitude": "37.5541659013",
    "longitude": "126.9286148062",
    "image": "http://tong.visitkorea.or.kr/cms/resource/21/3082421_image2_1.JPG",
    "category": "공연장"
  },
  {
    "id": "129739",
    "title": "구미시문화예술회관",
    "address": "경상북도 구미시 송정대로 89 구미시문화예술회관",
    "phone": "",
    "latitude": "36.1184233800",
    "longitude": "128.3490052936",
    "image": "http://tong.visitkorea.or.kr/cms/resource/12/3566112_image2_1.jpg",
    "category": "공연장"
  },
  {
    "id": "130353",
    "title": "국립 정동극장",
    "address": "서울특별시 중구 정동길 43",
    "phone": "",
    "latitude": "37.5659292155",
    "longitude": "126.9728271106",
    "image": "",
    "category": "공연장"
  },
  {
    "id": "3080864",
    "title": "국립국악원 예악당",
    "address": "서울특별시 서초구 남부순환로 2364 (서초동)",
    "phone": "",
    "latitude": "37.4784066973",
    "longitude": "127.0090512856",
    "image": "http://tong.visitkorea.or.kr/cms/resource/58/3080858_image2_1.JPG",
    "category": "공연장"
  },
  {
    "id": "130231",
    "title": "국립극장",
    "address": "서울특별시 중구 장충단로 59",
    "phone": "",
    "latitude": "37.5527228971",
    "longitude": "126.9996333755",
    "image": "http://tong.visitkorea.or.kr/cms/resource/10/3083810_image2_1.jpg",
    "category": "공연장"
  },
  {
    "id": "3080613",
    "title": "국제아트홀",
    "address": "서울특별시 강남구 압구정로 162 (신사동)",
    "phone": "",
    "latitude": "37.5263514611",
    "longitude": "127.0274815858",
    "image": "http://tong.visitkorea.or.kr/cms/resource/04/3080604_image2_1.JPG",
    "category": "공연장"
  },
  {
    "id": "1105871",
    "title": "금나래아트홀",
    "address": "서울특별시 금천구 시흥대로73길 70 금천구청종합청사",
    "phone": "",
    "latitude": "37.4564933229",
    "longitude": "126.8955205706",
    "image": "http://tong.visitkorea.or.kr/cms/resource/45/3563345_image2_1.jpg",
    "category": "공연장"
  },
  {
    "id": "1754940",
    "title": "금산다락원",
    "address": "충청남도 금산군 금산로 1559 다락원",
    "phone": "",
    "latitude": "36.1128474299",
    "longitude": "127.4916843712",
    "image": "http://tong.visitkorea.or.kr/cms/resource/97/3338397_image2_1.jpg",
    "category": "공연장"
  },
  {
    "id": "3078407",
    "title": "금호아트홀 연세",
    "address": "서울특별시 서대문구 연세로 50 (신촌동)",
    "phone": "",
    "latitude": "37.5605791904",
    "longitude": "126.9367638823",
    "image": "http://tong.visitkorea.or.kr/cms/resource/41/3082441_image2_1.JPG",
    "category": "공연장"
  },
  {
    "id": "3038297",
    "title": "기분좋은극장",
    "address": "광주광역시 서구 상무중앙로 90 (치평동)",
    "phone": "",
    "latitude": "35.1549200282",
    "longitude": "126.8489246196",
    "image": "http://tong.visitkorea.or.kr/cms/resource/72/3038272_image2_1.jpg",
    "category": "공연장"
  },
  {
    "id": "1019327",
    "title": "긱 라이브하우스",
    "address": "서울특별시 마포구 신촌로10길 7 (동교동)",
    "phone": "",
    "latitude": "37.5564379211",
    "longitude": "126.9320588728",
    "image": "http://tong.visitkorea.or.kr/cms/resource/76/3401376_image2_1.JPG",
    "category": "공연장"
  },
  {
    "id": "1755760",
    "title": "김천문화예술회관",
    "address": "경상북도 김천시 운동장길 3",
    "phone": "",
    "latitude": "36.1382524782",
    "longitude": "128.0886667077",
    "image": "",
    "category": "공연장"
  },
  {
    "id": "2638136",
    "title": "김포아트홀",
    "address": "경기도 김포시 돌문로 26",
    "phone": "",
    "latitude": "37.6189990881",
    "longitude": "126.7201431169",
    "image": "http://tong.visitkorea.or.kr/cms/resource/19/2638119_image2_1.bmp",
    "category": "공연장"
  },
  {
    "id": "697787",
    "title": "김해문화의전당",
    "address": "경상남도 김해시 김해대로 2060",
    "phone": "",
    "latitude": "35.2437400540",
    "longitude": "128.8694225813",
    "image": "http://tong.visitkorea.or.kr/cms/resource/45/3564345_image2_1.jpg",
    "category": "공연장"
  },
  {
    "id": "3062499",
    "title": "남도소리울림터",
    "address": "전라남도 무안군 삼향읍 남악로 222",
    "phone": "",
    "latitude": "34.8050141777",
    "longitude": "126.4629395502",
    "image": "http://tong.visitkorea.or.kr/cms/resource/27/3535527_image2_1.jpg",
    "category": "공연장"
  },
  {
    "id": "1752779",
    "title": "남동소래아트홀",
    "address": "인천광역시 남동구 아암대로1437번길 32 (논현동)",
    "phone": "",
    "latitude": "37.3875149632",
    "longitude": "126.7246102822",
    "image": "http://tong.visitkorea.or.kr/cms/resource/34/3037134_image2_1.jpg",
    "category": "공연장"
  },
  {
    "id": "130480",
    "title": "남해문화센터",
    "address": "경상남도 남해군 남해읍 선소로 12",
    "phone": "",
    "latitude": "34.8453201260",
    "longitude": "127.8996178422",
    "image": "http://tong.visitkorea.or.kr/cms/resource/59/3373659_image2_1.JPG",
    "category": "공연장"
  },
  {
    "id": "3013134",
    "title": "노들섬 라이브하우스",
    "address": "서울특별시 용산구 양녕로 445 (이촌동)",
    "phone": "",
    "latitude": "37.5177178854",
    "longitude": "126.9580520415",
    "image": "http://tong.visitkorea.or.kr/cms/resource/42/3012842_image2_1.JPG",
    "category": "공연장"
  },
  {
    "id": "1750763",
    "title": "노원문화예술회관",
    "address": "서울특별시 노원구 중계로 181 (중계동)",
    "phone": "",
    "latitude": "37.6502935629",
    "longitude": "127.0802815839",
    "image": "http://tong.visitkorea.or.kr/cms/resource/47/3496347_image2_1.jpg",
    "category": "공연장"
  },
  {
    "id": "3075887",
    "title": "누림아트홀",
    "address": "경기도 화성시 남양읍 시청로 155",
    "phone": "",
    "latitude": "37.1989553304",
    "longitude": "126.8286810407",
    "image": "",
    "category": "공연장"
  },
  {
    "id": "3076506",
    "title": "당진 월드 아트 서커스",
    "address": "충청남도 당진시 신평면 삽교천길 90-16",
    "phone": "",
    "latitude": "36.8862414260",
    "longitude": "126.8260759593",
    "image": "http://tong.visitkorea.or.kr/cms/resource/10/3567510_image2_1.jpg",
    "category": "공연장"
  },
  {
    "id": "1754977",
    "title": "당진문예의전당",
    "address": "충청남도 당진시 무수동2길 25-21",
    "phone": "",
    "latitude": "36.8897210609",
    "longitude": "126.6374540424",
    "image": "http://tong.visitkorea.or.kr/cms/resource/89/3338189_image2_1.JPG",
    "category": "공연장"
  },
  {
    "id": "130100",
    "title": "대가야국악당",
    "address": "경상북도 고령군 대가야읍 지산길 7-8",
    "phone": "",
    "latitude": "35.7265857037",
    "longitude": "128.2636069812",
    "image": "http://tong.visitkorea.or.kr/cms/resource/63/1002863_image2_1.jpg",
    "category": "공연장"
  },
  {
    "id": "130411",
    "title": "대구 코오롱 야외음악당",
    "address": "대구광역시 달서구 야외음악당로 180",
    "phone": "",
    "latitude": "35.8510547396",
    "longitude": "128.5561555513",
    "image": "http://tong.visitkorea.or.kr/cms/resource/51/3041151_image2_1.jpg",
    "category": "공연장"
  },
  {
    "id": "130410",
    "title": "대구문화예술회관",
    "address": "대구광역시 달서구 공원순환로 201",
    "phone": "",
    "latitude": "35.8451165839",
    "longitude": "128.5594887553",
    "image": "http://tong.visitkorea.or.kr/cms/resource/96/3577796_image2_1.JPG",
    "category": "공연장"
  },
  {
    "id": "1117178",
    "title": "대구북구청소년회관 아트홀",
    "address": "대구광역시 북구 검단로 71-17",
    "phone": "",
    "latitude": "35.9057718708",
    "longitude": "128.6160598608",
    "image": "http://tong.visitkorea.or.kr/cms/resource/86/3348686_image2_1.jpg",
    "category": "공연장"
  },
  {
    "id": "1116566",
    "title": "대구서구문화회관",
    "address": "대구광역시 서구 당산로 403",
    "phone": "",
    "latitude": "35.8728270789",
    "longitude": "128.5455336604",
    "image": "http://tong.visitkorea.or.kr/cms/resource/12/3576112_image2_1.JPG",
    "category": "공연장"
  },
  {
    "id": "130191",
    "title": "대구어린이세상",
    "address": "대구광역시 수성구 동대구로 176",
    "phone": "",
    "latitude": "35.8466898866",
    "longitude": "128.6277826972",
    "image": "http://tong.visitkorea.or.kr/cms/resource/58/3459858_image2_1.jpg",
    "category": "공연장"
  },
  {
    "id": "1935424",
    "title": "대구예술발전소",
    "address": "대구광역시 중구 달성로22길 31-12",
    "phone": "",
    "latitude": "35.8754886074",
    "longitude": "128.5845523698",
    "image": "http://tong.visitkorea.or.kr/cms/resource/32/3403232_image2_1.JPG",
    "category": "공연장"
  },
  {
    "id": "130665",
    "title": "대구오페라하우스",
    "address": "대구광역시 북구 호암로 15",
    "phone": "",
    "latitude": "35.8834739558",
    "longitude": "128.5922514697",
    "image": "http://tong.visitkorea.or.kr/cms/resource/73/3376273_image2_1.jpg",
    "category": "공연장"
  },
  {
    "id": "129736",
    "title": "대구콘서트하우스",
    "address": "대구광역시 중구 태평로 141",
    "phone": "",
    "latitude": "35.8758692889",
    "longitude": "128.5937071082",
    "image": "http://tong.visitkorea.or.kr/cms/resource/18/3569618_image2_1.JPG",
    "category": "공연장"
  },
  {
    "id": "1747497",
    "title": "대덕문예회관",
    "address": "대전광역시 대덕구 대전로 1348 (읍내동)",
    "phone": "",
    "latitude": "36.3741302138",
    "longitude": "127.4206947483",
    "image": "http://tong.visitkorea.or.kr/cms/resource/32/3033032_image2_1.JPG",
    "category": "공연장"
  },
  {
    "id": "1608950",
    "title": "대덕문화전당",
    "address": "대구광역시 남구 앞산순환로 478 (대명동)",
    "phone": "053-664-2174",
    "latitude": "35.8313351328",
    "longitude": "128.5769959299",
    "image": "http://tong.visitkorea.or.kr/cms/resource/04/3573304_image2_1.JPG",
    "category": "공연장"
  },
  {
    "id": "3038788",
    "title": "대전시립연정국악원",
    "address": "대전광역시 서구 둔산대로 181 (만년동)",
    "phone": "",
    "latitude": "36.3663860994",
    "longitude": "127.3894005357",
    "image": "http://tong.visitkorea.or.kr/cms/resource/70/3038770_image2_1.JPG",
    "category": "공연장"
  },
  {
    "id": "2931882",
    "title": "대전신세계 Art&Science",
    "address": "대전광역시 유성구 엑스포로 1",
    "phone": "",
    "latitude": "36.3751488554",
    "longitude": "127.3820815082",
    "image": "",
    "category": "공연장"
  },
  {
    "id": "1125312",
    "title": "대전어린이회관",
    "address": "대전광역시 유성구 월드컵대로 32 대전월드컵경기장",
    "phone": "",
    "latitude": "36.3638797168",
    "longitude": "127.3266089995",
    "image": "http://tong.visitkorea.or.kr/cms/resource/66/3031966_image2_1.JPG",
    "category": "공연장"
  },
  {
    "id": "130553",
    "title": "대전예술의전당",
    "address": "대전광역시 서구 둔산대로 135",
    "phone": "",
    "latitude": "36.3666026409",
    "longitude": "127.3837677004",
    "image": "http://tong.visitkorea.or.kr/cms/resource/91/1092591_image2_1.jpg",
    "category": "공연장"
  },
  {
    "id": "1380688",
    "title": "대학로예술극장",
    "address": "서울특별시 종로구 대학로10길 17",
    "phone": "",
    "latitude": "37.5820584406",
    "longitude": "127.0031461125",
    "image": "http://tong.visitkorea.or.kr/cms/resource/04/2023304_image2_1.jpg",
    "category": "공연장"
  },
  {
    "id": "3012777",
    "title": "대학로자유극장",
    "address": "서울특별시 종로구 대학로12길 31 (동숭동)",
    "phone": "",
    "latitude": "37.5828028072",
    "longitude": "127.0036238260",
    "image": "http://tong.visitkorea.or.kr/cms/resource/61/3012761_image2_1.jpg",
    "category": "공연장"
  },
  {
    "id": "3080770",
    "title": "대학로티오엠",
    "address": "서울특별시 종로구 대학로8가길 85 (동숭동)",
    "phone": "",
    "latitude": "37.5823223081",
    "longitude": "127.0036516150",
    "image": "http://tong.visitkorea.or.kr/cms/resource/65/3080765_image2_1.JPG",
    "category": "공연장"
  },
  {
    "id": "3083523",
    "title": "대한민국예술인센터",
    "address": "서울특별시 양천구 목동서로 225 (목동)",
    "phone": "",
    "latitude": "37.5271291208",
    "longitude": "126.8707597310",
    "image": "http://tong.visitkorea.or.kr/cms/resource/02/3083502_image2_1.jpg",
    "category": "공연장"
  },
  {
    "id": "2751979",
    "title": "도고아트홀",
    "address": "충청남도 아산시 도고면 아산만로 171",
    "phone": "",
    "latitude": "36.7590429320",
    "longitude": "126.8678589698",
    "image": "",
    "category": "공연장"
  },
  {
    "id": "3025303",
    "title": "동덕여자대학교 공연예술센터",
    "address": "서울특별시 종로구 동숭길 126 (동숭동)",
    "phone": "",
    "latitude": "37.5837638016",
    "longitude": "127.0033599337",
    "image": "http://tong.visitkorea.or.kr/cms/resource/89/3025289_image2_1.jpg",
    "category": "공연장"
  },
  {
    "id": "1747870",
    "title": "동래문화회관",
    "address": "부산광역시 동래구 문화로 80 동래문화회관",
    "phone": "",
    "latitude": "35.2121198984",
    "longitude": "129.0905625108",
    "image": "http://tong.visitkorea.or.kr/cms/resource/57/3492357_image2_1.jpg",
    "category": "공연장"
  },
  {
    "id": "130049",
    "title": "동리국악당",
    "address": "전북특별자치도 고창군 고창읍 판소리길 20",
    "phone": "",
    "latitude": "35.4317028988",
    "longitude": "126.7023528922",
    "image": "http://tong.visitkorea.or.kr/cms/resource/88/3362288_image2_1.JPG",
    "category": "공연장"
  },
  {
    "id": "3023734",
    "title": "동서대학교 소향씨어터 신한카드홀",
    "address": "부산광역시 해운대구 센텀중앙로 55 (우동)",
    "phone": "",
    "latitude": "35.1731360622",
    "longitude": "129.1276353562",
    "image": "http://tong.visitkorea.or.kr/cms/resource/09/3023709_image2_1.JPG",
    "category": "공연장"
  },
  {
    "id": "3035876",
    "title": "동춘서커스진흥원",
    "address": "경기도 안산시 단원구 대부황금로 1432 (대부북동)",
    "phone": "",
    "latitude": "37.2840103669",
    "longitude": "126.5700744338",
    "image": "http://tong.visitkorea.or.kr/cms/resource/29/3003429_image2_1.jpg",
    "category": "공연장"
  },
  {
    "id": "3081930",
    "title": "동탄복합문화센터반석아트홀",
    "address": "경기도 화성시 노작로 134 (반송동)",
    "phone": "",
    "latitude": "37.2001234506",
    "longitude": "127.0743892751",
    "image": "http://tong.visitkorea.or.kr/cms/resource/90/3081890_image2_1.JPG",
    "category": "공연장"
  },
  {
    "id": "130514",
    "title": "라트어린이극장",
    "address": "서울특별시 강남구 논현로 164",
    "phone": "",
    "latitude": "37.4842816124",
    "longitude": "127.0423008714",
    "image": "http://tong.visitkorea.or.kr/cms/resource/27/1865327_image2_1.jpg",
    "category": "공연장"
  },
  {
    "id": "1022243",
    "title": "롤링홀",
    "address": "서울특별시 마포구 어울마당로 35 (서교동)",
    "phone": "",
    "latitude": "37.5485497360",
    "longitude": "126.9201324048",
    "image": "http://tong.visitkorea.or.kr/cms/resource/27/3520527_image2_1.jpg",
    "category": "공연장"
  },
  {
    "id": "3085149",
    "title": "롯데콘서트홀",
    "address": "서울특별시 송파구 올림픽로 300 (신천동)",
    "phone": "",
    "latitude": "37.5142459111",
    "longitude": "127.1040305171",
    "image": "http://tong.visitkorea.or.kr/cms/resource/42/3085142_image2_1.JPG",
    "category": "공연장"
  },
  {
    "id": "650997",
    "title": "명동난타극장",
    "address": "서울특별시 중구 명동길 26 (명동2가)",
    "phone": "",
    "latitude": "37.5635046937",
    "longitude": "126.9837650716",
    "image": "http://tong.visitkorea.or.kr/cms/resource/70/3113470_image2_1.jpg",
    "category": "공연장"
  },
  {
    "id": "748186",
    "title": "명동예술극장",
    "address": "서울특별시 중구 명동길 35",
    "phone": "",
    "latitude": "37.5639546487",
    "longitude": "126.9841872425",
    "image": "",
    "category": "공연장"
  },
  {
    "id": "1022196",
    "title": "명보아트홀",
    "address": "서울특별시 중구 마른내로 47 (초동)",
    "phone": "",
    "latitude": "37.5647463847",
    "longitude": "126.9932030652",
    "image": "http://tong.visitkorea.or.kr/cms/resource/52/3077752_image2_1.JPG",
    "category": "공연장"
  },
  {
    "id": "3082176",
    "title": "모두예술극장",
    "address": "서울특별시 서대문구 충정로 7 (충정로3가)",
    "phone": "",
    "latitude": "37.5601463655",
    "longitude": "126.9623226761",
    "image": "http://tong.visitkorea.or.kr/cms/resource/17/3505717_image2_1.jpg",
    "category": "공연장"
  },
  {
    "id": "130503",
    "title": "모차르트 콘서트홀",
    "address": "서울특별시 서초구 명달로 104 (서초동)",
    "phone": "",
    "latitude": "37.4864779022",
    "longitude": "127.0045514676",
    "image": "http://tong.visitkorea.or.kr/cms/resource/56/2024256_image2_1.jpg",
    "category": "공연장"
  },
  {
    "id": "3062465",
    "title": "목포 대중음악의 전당",
    "address": "전라남도 목포시 해안로249번길 34 (상락동1가)",
    "phone": "",
    "latitude": "34.7888841800",
    "longitude": "126.3861856074",
    "image": "http://tong.visitkorea.or.kr/cms/resource/00/3530400_image2_1.jpg",
    "category": "공연장"
  },
  {
    "id": "130899",
    "title": "목포문화예술회관",
    "address": "전라남도 목포시 남농로 102",
    "phone": "",
    "latitude": "34.7917316077",
    "longitude": "126.4183049238",
    "image": "http://tong.visitkorea.or.kr/cms/resource/00/3552800_image2_1.jpg",
    "category": "공연장"
  },
  {
    "id": "2795559",
    "title": "목포시민문화체육센터",
    "address": "전라남도 목포시 부주로 312",
    "phone": "",
    "latitude": "34.8123546088",
    "longitude": "126.4380360174",
    "image": "http://tong.visitkorea.or.kr/cms/resource/84/2798684_image2_1.JPG",
    "category": "공연장"
  },
  {
    "id": "130404",
    "title": "무주예체문화관",
    "address": "전북특별자치도 무주군 무주읍 한풍루로 326-17",
    "phone": "",
    "latitude": "36.0023352762",
    "longitude": "127.6625304812",
    "image": "http://tong.visitkorea.or.kr/cms/resource/40/1606540_image2_1.jpg",
    "category": "공연장"
  },
  {
    "id": "1754453",
    "title": "문경문화예술회관",
    "address": "경상북도 문경시 신흥로 85 (점촌동)",
    "phone": "",
    "latitude": "36.5900862595",
    "longitude": "128.1978026766",
    "image": "http://tong.visitkorea.or.kr/cms/resource/28/3465428_image2_1.jpg",
    "category": "공연장"
  },
  {
    "id": "1753541",
    "title": "문화예술원 마루홀",
    "address": "경기도 용인시 처인구 중부대로 1199 (삼가동)",
    "phone": "",
    "latitude": "37.2399762516",
    "longitude": "127.1780093252",
    "image": "http://tong.visitkorea.or.kr/cms/resource/09/3068809_image2_1.jpg",
    "category": "공연장"
  },
  {
    "id": "130286",
    "title": "문화일보홀",
    "address": "서울특별시 중구 새문안로 22",
    "phone": "",
    "latitude": "37.5671262224",
    "longitude": "126.9686163497",
    "image": "http://tong.visitkorea.or.kr/cms/resource/53/1894753_image2_1.jpg",
    "category": "공연장"
  },
  {
    "id": "2630998",
    "title": "미리내마술극단 은하수홀",
    "address": "경기도 수원시 팔달구 정조로 767-8",
    "phone": "",
    "latitude": "37.2767024343",
    "longitude": "127.0161118661",
    "image": "http://tong.visitkorea.or.kr/cms/resource/06/3400906_image2_1.JPG",
    "category": "공연장"
  },
  {
    "id": "3015096",
    "title": "밀양아리나",
    "address": "경상남도 밀양시 부북면 창밀로 3097-16",
    "phone": "",
    "latitude": "35.5326128779",
    "longitude": "128.7045901942",
    "image": "http://tong.visitkorea.or.kr/cms/resource/89/3584489_image2_1.jpg",
    "category": "공연장"
  },
  {
    "id": "3013185",
    "title": "바탕골소극장",
    "address": "서울특별시 종로구 대학로10길 5 (동숭동)",
    "phone": "",
    "latitude": "37.5819112248",
    "longitude": "127.0025878347",
    "image": "http://tong.visitkorea.or.kr/cms/resource/53/3012953_image2_1.jpg",
    "category": "공연장"
  },
  {
    "id": "333121",
    "title": "백암아트홀",
    "address": "서울특별시 강남구 테헤란로113길 7",
    "phone": "",
    "latitude": "37.5103790088",
    "longitude": "127.0660313070",
    "image": "http://tong.visitkorea.or.kr/cms/resource/32/3503232_image2_1.jpg",
    "category": "공연장"
  },
  {
    "id": "1754836",
    "title": "보령문화예술회관",
    "address": "충청남도 보령시 성주산로 101",
    "phone": "",
    "latitude": "36.3338707363",
    "longitude": "126.6145153404",
    "image": "http://tong.visitkorea.or.kr/cms/resource/60/3350060_image2_1.JPG",
    "category": "공연장"
  },
  {
    "id": "3022653",
    "title": "보령문화의전당",
    "address": "충청남도 보령시 대흥로 63 (대천동)",
    "phone": "",
    "latitude": "36.3507628314",
    "longitude": "126.5905309436",
    "image": "http://tong.visitkorea.or.kr/cms/resource/03/3022503_image2_1.jpg",
    "category": "공연장"
  },
  {
    "id": "3080741",
    "title": "봄날아트홀",
    "address": "서울특별시 종로구 동숭길 39 (동숭동)",
    "phone": "",
    "latitude": "37.5800448062",
    "longitude": "127.0042794002",
    "image": "http://tong.visitkorea.or.kr/cms/resource/20/3506720_image2_1.jpg",
    "category": "공연장"
  },
  {
    "id": "1756226",
    "title": "봉산문화회관",
    "address": "대구광역시 중구 봉산문화길 77",
    "phone": "",
    "latitude": "35.8631263392",
    "longitude": "128.5965516572",
    "image": "http://tong.visitkorea.or.kr/cms/resource/10/3349310_image2_1.jpg",
    "category": "공연장"
  },
  {
    "id": "129737",
    "title": "부산 가톨릭센터",
    "address": "부산광역시 중구 중구로 71",
    "phone": "",
    "latitude": "35.1042141801",
    "longitude": "129.0290347066",
    "image": "http://tong.visitkorea.or.kr/cms/resource/37/1982337_image2_1.jpg",
    "category": "공연장"
  },
  {
    "id": "130484",
    "title": "부산 금정문화회관",
    "address": "부산광역시 금정구 체육공원로 7",
    "phone": "",
    "latitude": "35.2459439575",
    "longitude": "129.0944806842",
    "image": "",
    "category": "공연장"
  },
  {
    "id": "129725",
    "title": "부산문화회관",
    "address": "부산광역시 남구 유엔평화로76번길 1 부산문화회관",
    "phone": "",
    "latitude": "35.1285070990",
    "longitude": "129.0937450823",
    "image": "http://tong.visitkorea.or.kr/cms/resource/68/3332668_image2_1.jpg",
    "category": "공연장"
  },
  {
    "id": "129733",
    "title": "부산시민회관",
    "address": "부산광역시 동구 자성로133번길 16",
    "phone": "",
    "latitude": "35.1388026415",
    "longitude": "129.0651972831",
    "image": "http://tong.visitkorea.or.kr/cms/resource/53/3081153_image2_1.JPG",
    "category": "공연장"
  },
  {
    "id": "3008192",
    "title": "부산예술회관",
    "address": "부산광역시 남구 용소로 78 부산예술회관",
    "phone": "",
    "latitude": "35.1307903380",
    "longitude": "129.1025164793",
    "image": "http://tong.visitkorea.or.kr/cms/resource/85/3008185_image2_1.JPG",
    "category": "공연장"
  },
  {
    "id": "3507960",
    "title": "부산콘서트홀",
    "address": "부산광역시 부산진구 동평로 250 (연지동)",
    "phone": "",
    "latitude": "35.1694129009",
    "longitude": "129.0542918388",
    "image": "http://tong.visitkorea.or.kr/cms/resource/87/3507887_image2_1.jpg",
    "category": "공연장"
  },
  {
    "id": "1755818",
    "title": "부안예술회관",
    "address": "전북특별자치도 부안군 부안읍 예술회관길 11",
    "phone": "",
    "latitude": "35.7243700423",
    "longitude": "126.7253989720",
    "image": "http://tong.visitkorea.or.kr/cms/resource/64/3359464_image2_1.JPG",
    "category": "공연장"
  },
  {
    "id": "130293",
    "title": "부천시민회관",
    "address": "경기도 부천시 부일로 365",
    "phone": "",
    "latitude": "37.4881846387",
    "longitude": "126.7704477458",
    "image": "http://tong.visitkorea.or.kr/cms/resource/00/723800_image2_1.jpg",
    "category": "공연장"
  },
  {
    "id": "1747913",
    "title": "북구문화예술회관 공연장",
    "address": "부산광역시 북구 금곡대로46번길 50",
    "phone": "",
    "latitude": "35.2134515157",
    "longitude": "129.0057670798",
    "image": "http://tong.visitkorea.or.kr/cms/resource/87/3343387_image2_1.jpg",
    "category": "공연장"
  },
  {
    "id": "3013975",
    "title": "북한강야외공연장",
    "address": "경기도 남양주시 화도읍 금남리",
    "phone": "",
    "latitude": "37.6473935259",
    "longitude": "127.3655279101",
    "image": "http://tong.visitkorea.or.kr/cms/resource/39/3013939_image2_1.JPG",
    "category": "공연장"
  },
  {
    "id": "1439094",
    "title": "블루스퀘어",
    "address": "서울특별시 용산구 이태원로 294 (한남동)",
    "phone": "",
    "latitude": "37.5409243201",
    "longitude": "127.0025028924",
    "image": "",
    "category": "공연장"
  },
  {
    "id": "3497864",
    "title": "비원뮤직홀",
    "address": "대구광역시 서구 달서천로 374 (원대동1가)",
    "phone": "",
    "latitude": "35.8830597901",
    "longitude": "128.5746613641",
    "image": "http://tong.visitkorea.or.kr/cms/resource/68/3497868_image2_1.jpg",
    "category": "공연장"
  },
  {
    "id": "1745001",
    "title": "빛고을시민문화관",
    "address": "광주광역시 남구 천변좌로338번길 7",
    "phone": "",
    "latitude": "35.1479301594",
    "longitude": "126.9086750662",
    "image": "http://tong.visitkorea.or.kr/cms/resource/05/3366705_image2_1.jpg",
    "category": "공연장"
  },
  {
    "id": "1755615",
    "title": "삼국유사교육문화회관",
    "address": "대구광역시 군위군 군위읍 군청로 158",
    "phone": "",
    "latitude": "36.2374751131",
    "longitude": "128.5739986953",
    "image": "http://tong.visitkorea.or.kr/cms/resource/18/3338418_image2_1.JPG",
    "category": "공연장"
  },
  {
    "id": "130324",
    "title": "삼척문화예술회관",
    "address": "강원특별자치도 삼척시 엑스포로 45",
    "phone": "",
    "latitude": "37.4381544541",
    "longitude": "129.1602443996",
    "image": "http://tong.visitkorea.or.kr/cms/resource/12/3070612_image2_1.jpg",
    "category": "공연장"
  },
  {
    "id": "129743",
    "title": "상주시 문화회관",
    "address": "경상북도 상주시 상산로 235 (남성동)",
    "phone": "",
    "latitude": "36.4119475711",
    "longitude": "128.1592167003",
    "image": "http://tong.visitkorea.or.kr/cms/resource/29/3410729_image2_1.jpg",
    "category": "공연장"
  },
  {
    "id": "130886",
    "title": "샤롯데씨어터",
    "address": "서울특별시 송파구 올림픽로 240 (잠실동)",
    "phone": "",
    "latitude": "37.5123821225",
    "longitude": "127.0976311526",
    "image": "http://tong.visitkorea.or.kr/cms/resource/19/3109819_image2_1.JPG",
    "category": "공연장"
  },
  {
    "id": "3030351",
    "title": "서귀포예술의전당",
    "address": "제주특별자치도 서귀포시 태평로 270 (서홍동)",
    "phone": "",
    "latitude": "33.2463615646",
    "longitude": "126.5508014945",
    "image": "http://tong.visitkorea.or.kr/cms/resource/22/3030322_image2_1.jpg",
    "category": "공연장"
  },
  {
    "id": "1623844",
    "title": "서대전공원 야외음악당",
    "address": "대전광역시 중구 계백로1716번길 23 (문화동)",
    "phone": "",
    "latitude": "36.3208000284",
    "longitude": "127.4108831850",
    "image": "http://tong.visitkorea.or.kr/cms/resource/36/3063036_image2_1.JPG",
    "category": "공연장"
  },
  {
    "id": "130508",
    "title": "서산시문화회관",
    "address": "충청남도 서산시 문화로 54",
    "phone": "",
    "latitude": "36.7860964079",
    "longitude": "126.4480850755",
    "image": "http://tong.visitkorea.or.kr/cms/resource/16/3336916_image2_1.jpg",
    "category": "공연장"
  },
  {
    "id": "407057",
    "title": "서울남산국악당",
    "address": "서울특별시 중구 퇴계로34길 28 (필동2가)",
    "phone": "",
    "latitude": "37.5597775194",
    "longitude": "126.9932865315",
    "image": "http://tong.visitkorea.or.kr/cms/resource/62/3556862_image2_1.jpg",
    "category": "공연장"
  },
  {
    "id": "129750",
    "title": "서울놀이마당",
    "address": "서울특별시 송파구 잠실로 124 서울놀이마당",
    "phone": "",
    "latitude": "37.5097129968",
    "longitude": "127.0981006298",
    "image": "http://tong.visitkorea.or.kr/cms/resource/77/1895077_image2_1.jpg",
    "category": "공연장"
  },
  {
    "id": "2469662",
    "title": "서울돈화문국악당",
    "address": "서울특별시 종로구 율곡로 102 (와룡동)",
    "phone": "",
    "latitude": "37.5773532075",
    "longitude": "126.9906584954",
    "image": "http://tong.visitkorea.or.kr/cms/resource/02/3498902_image2_1.jpg",
    "category": "공연장"
  },
  {
    "id": "130478",
    "title": "성남시 야외공연장",
    "address": "경기도 성남시 분당구 성남대로 550 (수내동)",
    "phone": "",
    "latitude": "37.3803506411",
    "longitude": "127.1211938588",
    "image": "http://tong.visitkorea.or.kr/cms/resource/16/3053716_image2_1.jpg",
    "category": "공연장"
  },
  {
    "id": "130244",
    "title": "성산아트홀",
    "address": "경상남도 창원시 의창구 중앙대로 181",
    "phone": "",
    "latitude": "35.2300937430",
    "longitude": "128.6836502782",
    "image": "http://tong.visitkorea.or.kr/cms/resource/06/3584506_image2_1.jpg",
    "category": "공연장"
  },
  {
    "id": "770036",
    "title": "성산포 해녀물질공연장",
    "address": "제주특별자치도 서귀포시 성산읍 일출로 284-34",
    "phone": "",
    "latitude": "33.4628688824",
    "longitude": "126.9388907191",
    "image": "http://tong.visitkorea.or.kr/cms/resource/46/3024646_image2_1.jpg",
    "category": "공연장"
  },
  {
    "id": "3084413",
    "title": "성수아트홀",
    "address": "서울특별시 성동구 뚝섬로1길 43 (성수동1가)",
    "phone": "",
    "latitude": "37.5454829221",
    "longitude": "127.0469626028",
    "image": "http://tong.visitkorea.or.kr/cms/resource/01/3084101_image2_1.JPG",
    "category": "공연장"
  },
  {
    "id": "130295",
    "title": "성포예술공원",
    "address": "경기도 안산시 상록구 성포로 6 (성포동)",
    "phone": "",
    "latitude": "19.6944274800",
    "longitude": "117.9925662504",
    "image": "http://tong.visitkorea.or.kr/cms/resource/89/3518489_image2_1.jpg",
    "category": "공연장"
  },
  {
    "id": "3080847",
    "title": "세일아트홀",
    "address": "서울특별시 강남구 논현로 414 (역삼동)",
    "phone": "",
    "latitude": "37.4972911553",
    "longitude": "127.0390785749",
    "image": "http://tong.visitkorea.or.kr/cms/resource/34/3080834_image2_1.JPG",
    "category": "공연장"
  },
  {
    "id": "130296",
    "title": "세종국악당",
    "address": "경기도 여주시 영릉로 125",
    "phone": "",
    "latitude": "37.2973999374",
    "longitude": "127.6246422732",
    "image": "http://tong.visitkorea.or.kr/cms/resource/16/1591416_image2_1.jpg",
    "category": "공연장"
  },
  {
    "id": "1755029",
    "title": "세종문화예술회관",
    "address": "세종특별자치시 조치원읍 문예회관길 22",
    "phone": "",
    "latitude": "36.5984910341",
    "longitude": "127.2881255090",
    "image": "",
    "category": "공연장"
  },
  {
    "id": "129735",
    "title": "세종문화회관",
    "address": "서울특별시 종로구 세종대로 175 (세종로)",
    "phone": "",
    "latitude": "37.5720618985",
    "longitude": "126.9763210635",
    "image": "http://tong.visitkorea.or.kr/cms/resource/87/3082687_image2_1.png",
    "category": "공연장"
  },
  {
    "id": "3028068",
    "title": "세종예술의전당",
    "address": "세종특별자치시  국립박물관로 21 세종 예술의 전당",
    "phone": "",
    "latitude": "36.4867173758",
    "longitude": "127.2673831951",
    "image": "http://tong.visitkorea.or.kr/cms/resource/64/3028064_image2_1.JPG",
    "category": "공연장"
  },
  {
    "id": "130781",
    "title": "소극장 산울림",
    "address": "서울특별시 마포구 와우산로 157 (서교동)",
    "phone": "",
    "latitude": "37.5551380375",
    "longitude": "126.9301229747",
    "image": "http://tong.visitkorea.or.kr/cms/resource/60/3525560_image2_1.jpg",
    "category": "공연장"
  },
  {
    "id": "3084412",
    "title": "소월아트홀",
    "address": "서울특별시 성동구 왕십리로 281 (행당동)",
    "phone": "",
    "latitude": "37.5593616689",
    "longitude": "127.0360243166",
    "image": "http://tong.visitkorea.or.kr/cms/resource/02/3084102_image2_1.JPG",
    "category": "공연장"
  },
  {
    "id": "130111",
    "title": "속초문화예술회관",
    "address": "강원특별자치도 속초시 번영로 155 (영랑동)",
    "phone": "",
    "latitude": "38.2126953142",
    "longitude": "128.5893135357",
    "image": "http://tong.visitkorea.or.kr/cms/resource/52/3071352_image2_1.jpg",
    "category": "공연장"
  },
  {
    "id": "2657493",
    "title": "솔가람 아트홀",
    "address": "경기도 파주시 가람로116번길 170",
    "phone": "",
    "latitude": "37.7305868621",
    "longitude": "126.7633999075",
    "image": "",
    "category": "공연장"
  },
  {
    "id": "1115451",
    "title": "수성아트피아",
    "address": "대구광역시 수성구 무학로 180",
    "phone": "",
    "latitude": "35.8294724001",
    "longitude": "128.6282831320",
    "image": "http://tong.visitkorea.or.kr/cms/resource/15/3021015_image2_1.JPG",
    "category": "공연장"
  },
  {
    "id": "130203",
    "title": "수영민속예술관",
    "address": "부산광역시 수영구 수영성로 43",
    "phone": "",
    "latitude": "35.1712193572",
    "longitude": "129.1139699306",
    "image": "http://tong.visitkorea.or.kr/cms/resource/05/3491505_image2_1.jpg",
    "category": "공연장"
  },
  {
    "id": "3075454",
    "title": "수원SK아트리움",
    "address": "경기도 수원시 장안구 이목로 24-25 (정자동)",
    "phone": "",
    "latitude": "37.3086176490",
    "longitude": "126.9862747938",
    "image": "http://tong.visitkorea.or.kr/cms/resource/59/3499759_image2_1.jpg",
    "category": "공연장"
  },
  {
    "id": "130095",
    "title": "수원시민회관",
    "address": "경기도 수원시 팔달구 팔달산로 28 (매산로3가)",
    "phone": "",
    "latitude": "37.2736499248",
    "longitude": "127.0113318301",
    "image": "http://tong.visitkorea.or.kr/cms/resource/58/3475858_image2_1.JPG",
    "category": "공연장"
  },
  {
    "id": "130094",
    "title": "수원야외음악당",
    "address": "경기도 수원시 팔달구 동수원로 335 (인계동)",
    "phone": "",
    "latitude": "37.2593659375",
    "longitude": "127.0376465076",
    "image": "http://tong.visitkorea.or.kr/cms/resource/07/3055307_image2_1.JPG",
    "category": "공연장"
  },
  {
    "id": "129728",
    "title": "순천문화예술회관",
    "address": "전라남도 순천시 삼산로 16",
    "phone": "",
    "latitude": "34.9705238789",
    "longitude": "127.4853065078",
    "image": "",
    "category": "공연장"
  },
  {
    "id": "3081150",
    "title": "슈피겐홀",
    "address": "서울특별시 강남구 봉은사로 446 (삼성동)",
    "phone": "",
    "latitude": "37.5114202399",
    "longitude": "127.0485328700",
    "image": "http://tong.visitkorea.or.kr/cms/resource/53/3080853_image2_1.JPG",
    "category": "공연장"
  },
  {
    "id": "1624089",
    "title": "승달문화예술회관",
    "address": "전라남도 무안군 무안읍 창포로 8",
    "phone": "",
    "latitude": "34.9903128818",
    "longitude": "126.4720620252",
    "image": "http://tong.visitkorea.or.kr/cms/resource/58/1608358_image2_1.jpg",
    "category": "공연장"
  },
  {
    "id": "2581396",
    "title": "신촌문화발전소",
    "address": "서울특별시 서대문구 연세로2나길 57 (창천동)",
    "phone": "",
    "latitude": "37.5580156534",
    "longitude": "126.9397692367",
    "image": "http://tong.visitkorea.or.kr/cms/resource/74/3466974_image2_1.jpg",
    "category": "공연장"
  },
  {
    "id": "3076069",
    "title": "신한아트홀",
    "address": "서울특별시 강남구 역삼로 251 (역삼동)",
    "phone": "",
    "latitude": "37.4983383419",
    "longitude": "127.0438558885",
    "image": "http://tong.visitkorea.or.kr/cms/resource/18/3503418_image2_1.jpg",
    "category": "공연장"
  },
  {
    "id": "3076199",
    "title": "신한카드 SOL페이 스퀘어",
    "address": "서울특별시 마포구 양화로 45 (서교동, 메세나폴리스)",
    "phone": "",
    "latitude": "37.5498911308",
    "longitude": "126.9136829551",
    "image": "",
    "category": "공연장"
  },
  {
    "id": "3002968",
    "title": "쌍벽루아트홀",
    "address": "경상남도 양산시 신기강변로 26",
    "phone": "",
    "latitude": "35.3500617142",
    "longitude": "129.0341525167",
    "image": "http://tong.visitkorea.or.kr/cms/resource/54/3052354_image2_1.jpg",
    "category": "공연장"
  },
  {
    "id": "3029891",
    "title": "아르코공연연습센터 포항",
    "address": "경상북도 포항시 북구 중앙로 373 (덕수동)",
    "phone": "",
    "latitude": "36.0459922741",
    "longitude": "129.3643484013",
    "image": "",
    "category": "공연장"
  },
  {
    "id": "130230",
    "title": "아르코예술극장",
    "address": "서울특별시 종로구 대학로8길 7 (동숭동)",
    "phone": "",
    "latitude": "37.5812640855",
    "longitude": "127.0029878163",
    "image": "",
    "category": "공연장"
  },
  {
    "id": "130185",
    "title": "아산시 평생학습관",
    "address": "충청남도 아산시 남부로 92",
    "phone": "",
    "latitude": "36.7709104176",
    "longitude": "126.9921918757",
    "image": "http://tong.visitkorea.or.kr/cms/resource/78/3050378_image2_1.jpg",
    "category": "공연장"
  },
  {
    "id": "3079882",
    "title": "아트브릿지(대전)",
    "address": "대전광역시 서구 둔산대로117번길 22 (만년동)",
    "phone": "",
    "latitude": "36.3659693593",
    "longitude": "127.3825789352",
    "image": "http://tong.visitkorea.or.kr/cms/resource/74/3079874_image2_1.JPG",
    "category": "공연장"
  },
  {
    "id": "3013178",
    "title": "아트포레스트",
    "address": "서울특별시 종로구 동숭동",
    "phone": "",
    "latitude": "37.5825444946",
    "longitude": "127.0031099912",
    "image": "",
    "category": "공연장"
  },
  {
    "id": "1754420",
    "title": "안동문화예술의전당",
    "address": "경상북도 안동시 축제장길 66 (안흥동)",
    "phone": "",
    "latitude": "36.5594579266",
    "longitude": "128.7250955247",
    "image": "http://tong.visitkorea.or.kr/cms/resource/14/3402614_image2_1.jpg",
    "category": "공연장"
  },
  {
    "id": "129752",
    "title": "안동시민회관",
    "address": "경상북도 안동시 퇴계로 115 (명륜동)",
    "phone": "",
    "latitude": "36.5678848379",
    "longitude": "128.7301420543",
    "image": "http://tong.visitkorea.or.kr/cms/resource/19/3028819_image2_1.jpg",
    "category": "공연장"
  },
  {
    "id": "130556",
    "title": "안산문화예술의전당",
    "address": "경기도 안산시 단원구 화랑로 312 (고잔동)",
    "phone": "",
    "latitude": "37.3212799318",
    "longitude": "126.8222782333",
    "image": "http://tong.visitkorea.or.kr/cms/resource/79/3057879_image2_1.jpg",
    "category": "공연장"
  },
  {
    "id": "130547",
    "title": "안성 남사당 공연장",
    "address": "경기도 안성시 보개면 남사당로 198-2",
    "phone": "",
    "latitude": "37.0318221187",
    "longitude": "127.3101448759",
    "image": "http://tong.visitkorea.or.kr/cms/resource/81/1781881_image2_1.jpg",
    "category": "공연장"
  },
  {
    "id": "2747170",
    "title": "안성맞춤아트홀",
    "address": "경기도 안성시 발화대길 21 (현수동)",
    "phone": "",
    "latitude": "37.0013389726",
    "longitude": "127.2794596084",
    "image": "http://tong.visitkorea.or.kr/cms/resource/97/3577697_image2_1.jpg",
    "category": "공연장"
  },
  {
    "id": "1752914",
    "title": "양산문화예술회관",
    "address": "경상남도 양산시 중앙로 39-1",
    "phone": "",
    "latitude": "35.3336441563",
    "longitude": "129.0365055420",
    "image": "http://tong.visitkorea.or.kr/cms/resource/86/3372686_image2_1.JPG",
    "category": "공연장"
  },
  {
    "id": "2754295",
    "title": "양주별산대놀이전수교육관",
    "address": "경기도 양주시 부흥로1399번길 47",
    "phone": "",
    "latitude": "37.7863796214",
    "longitude": "127.0315626907",
    "image": "http://tong.visitkorea.or.kr/cms/resource/33/3406833_image2_1.jpg",
    "category": "공연장"
  },
  {
    "id": "2790974",
    "title": "양주소놀이굿공연장",
    "address": "경기도 양주시 백석읍 중앙로93번길 70-21",
    "phone": "",
    "latitude": "37.7911646115",
    "longitude": "127.0003598493",
    "image": "http://tong.visitkorea.or.kr/cms/resource/07/2797807_image2_1.jpg",
    "category": "공연장"
  },
  {
    "id": "130297",
    "title": "양주시문화예술회관",
    "address": "경기도 양주시 광적면 부흥로618번길 303",
    "phone": "",
    "latitude": "37.8124838414",
    "longitude": "126.9722312544",
    "image": "http://tong.visitkorea.or.kr/cms/resource/07/3476007_image2_1.JPG",
    "category": "공연장"
  },
  {
    "id": "1113537",
    "title": "양천문화회관",
    "address": "서울특별시 양천구 목동서로 367",
    "phone": "",
    "latitude": "37.5164580059",
    "longitude": "126.8633162653",
    "image": "http://tong.visitkorea.or.kr/cms/resource/54/3432554_image2_1.jpg",
    "category": "공연장"
  },
  {
    "id": "2732184",
    "title": "에무",
    "address": "서울특별시 종로구 경희궁1가길 7",
    "phone": "",
    "latitude": "37.5721256494",
    "longitude": "126.9690495022",
    "image": "",
    "category": "공연장"
  },
  {
    "id": "129727",
    "title": "여수시민회관",
    "address": "전라남도 여수시 좌수영로 69",
    "phone": "",
    "latitude": "34.7468392816",
    "longitude": "127.7279020442",
    "image": "",
    "category": "공연장"
  },
  {
    "id": "130406",
    "title": "연우소극장",
    "address": "서울특별시 종로구 창경궁로35길 21 (혜화동)",
    "phone": "",
    "latitude": "37.5870328375",
    "longitude": "127.0017766520",
    "image": "http://tong.visitkorea.or.kr/cms/resource/95/3505695_image2_1.jpg",
    "category": "공연장"
  },
  {
    "id": "3066651",
    "title": "연지아트홀",
    "address": "전북특별자치도 정읍시 중앙로 73 (연지동)",
    "phone": "",
    "latitude": "35.5704424180",
    "longitude": "126.8489141294",
    "image": "http://tong.visitkorea.or.kr/cms/resource/35/3066635_image2_1.jpg",
    "category": "공연장"
  },
  {
    "id": "1730495",
    "title": "연천수레울아트홀",
    "address": "경기도 연천군 연천읍 문화로 150",
    "phone": "",
    "latitude": "38.1087984320",
    "longitude": "127.0800683593",
    "image": "http://tong.visitkorea.or.kr/cms/resource/95/3564095_image2_1.jpg",
    "category": "공연장"
  },
  {
    "id": "1747948",
    "title": "영도문화예술회관",
    "address": "부산광역시 영도구 함지로79번길 6",
    "phone": "",
    "latitude": "35.0755014082",
    "longitude": "129.0660433825",
    "image": "http://tong.visitkorea.or.kr/cms/resource/14/3361214_image2_1.jpg",
    "category": "공연장"
  },
  {
    "id": "3082184",
    "title": "영등포아트홀",
    "address": "서울특별시 영등포구 국회대로 596 (당산동3가)",
    "phone": "",
    "latitude": "37.5260603248",
    "longitude": "126.9001237514",
    "image": "http://tong.visitkorea.or.kr/cms/resource/77/3082177_image2_1.JPG",
    "category": "공연장"
  },
  {
    "id": "130243",
    "title": "영산아트홀",
    "address": "서울특별시 영등포구 여의공원로 101",
    "phone": "",
    "latitude": "37.5292437306",
    "longitude": "126.9248880718",
    "image": "http://tong.visitkorea.or.kr/cms/resource/93/2378593_image2_1.jpg",
    "category": "공연장"
  },
  {
    "id": "3080901",
    "title": "영산양재홀",
    "address": "서울특별시 서초구 바우뫼로37길 45 (양재동)",
    "phone": "",
    "latitude": "37.4805375334",
    "longitude": "127.0384402181",
    "image": "http://tong.visitkorea.or.kr/cms/resource/96/3080896_image2_1.JPG",
    "category": "공연장"
  },
  {
    "id": "1778114",
    "title": "영천시민회관",
    "address": "경상북도 영천시 시청로 17 (문외동)",
    "phone": "",
    "latitude": "35.9722036646",
    "longitude": "128.9375991252",
    "image": "http://tong.visitkorea.or.kr/cms/resource/43/3402743_image2_1.jpg",
    "category": "공연장"
  },
  {
    "id": "1188653",
    "title": "예림당아트홀",
    "address": "서울특별시 강남구 언주로 337 (역삼동)",
    "phone": "",
    "latitude": "37.4979911693",
    "longitude": "127.0443725181",
    "image": "http://tong.visitkorea.or.kr/cms/resource/67/3413867_image2_1.jpg",
    "category": "공연장"
  },
  {
    "id": "129748",
    "title": "예산군문예회관",
    "address": "충청남도 예산군 예산읍 아리랑로 185-14",
    "phone": "",
    "latitude": "36.6854010835",
    "longitude": "126.8492293063",
    "image": "http://tong.visitkorea.or.kr/cms/resource/62/3340262_image2_1.jpg",
    "category": "공연장"
  },
  {
    "id": "2739475",
    "title": "예술가의집",
    "address": "서울특별시 종로구 동숭길 3 (동숭동)",
    "phone": "",
    "latitude": "37.5797531420",
    "longitude": "127.0025212349",
    "image": "http://tong.visitkorea.or.kr/cms/resource/23/3428523_image2_1.jpg",
    "category": "공연장"
  },
  {
    "id": "129747",
    "title": "예술의전당",
    "address": "서울특별시 서초구 남부순환로 2406 (서초동)",
    "phone": "",
    "latitude": "37.4804843130",
    "longitude": "127.0134702692",
    "image": "",
    "category": "공연장"
  },
  {
    "id": "3085122",
    "title": "예스24라이브홀",
    "address": "서울특별시 광진구 구천면로 20 (광장동)",
    "phone": "",
    "latitude": "37.5457895419",
    "longitude": "127.1079959266",
    "image": "http://tong.visitkorea.or.kr/cms/resource/17/3085117_image2_1.JPG",
    "category": "공연장"
  },
  {
    "id": "3080735",
    "title": "예스24스테이지",
    "address": "서울특별시 종로구 대학로12길 21 (동숭동)",
    "phone": "",
    "latitude": "37.5828027992",
    "longitude": "127.0031766444",
    "image": "http://tong.visitkorea.or.kr/cms/resource/33/3080733_image2_1.JPG",
    "category": "공연장"
  },
  {
    "id": "3012705",
    "title": "예스24아트원",
    "address": "서울특별시 종로구 대학로12길 83 (동숭동)",
    "phone": "",
    "latitude": "37.5803225470",
    "longitude": "127.0040210825",
    "image": "http://tong.visitkorea.or.kr/cms/resource/80/3012680_image2_1.jpg",
    "category": "공연장"
  },
  {
    "id": "130701",
    "title": "예주문화예술회관",
    "address": "경상북도 영덕군 영해면 318만세길 36",
    "phone": "",
    "latitude": "36.5297576222",
    "longitude": "129.4050278658",
    "image": "",
    "category": "공연장"
  },
  {
    "id": "130103",
    "title": "예천문화회관",
    "address": "경상북도 예천군 예천읍 충효로 209-15",
    "phone": "",
    "latitude": "36.6504978413",
    "longitude": "128.4456927455",
    "image": "http://tong.visitkorea.or.kr/cms/resource/32/3405132_image2_1.jpg",
    "category": "공연장"
  },
  {
    "id": "3084955",
    "title": "오거리 소극장",
    "address": "전북특별자치도 전주시 완산구 전주객사5길 67 (고사동)",
    "phone": "",
    "latitude": "35.8211328995",
    "longitude": "127.1446313508",
    "image": "http://tong.visitkorea.or.kr/cms/resource/67/3084067_image2_1.JPG",
    "category": "공연장"
  },
  {
    "id": "1730375",
    "title": "오산문화예술회관",
    "address": "경기도 오산시 경기동로 41",
    "phone": "",
    "latitude": "37.1594893050",
    "longitude": "127.0768179667",
    "image": "http://tong.visitkorea.or.kr/cms/resource/76/1858976_image2_1.jpg",
    "category": "공연장"
  },
  {
    "id": "3081522",
    "title": "오정아트홀",
    "address": "경기도 부천시 오정구 성오로 172 (오정동)",
    "phone": "",
    "latitude": "37.5276666149",
    "longitude": "126.7959859785",
    "image": "http://tong.visitkorea.or.kr/cms/resource/16/3081516_image2_1.JPG",
    "category": "공연장"
  },
  {
    "id": "1729761",
    "title": "옥천문화예술회관",
    "address": "충청북도 옥천군 옥천읍 문정1길 32",
    "phone": "",
    "latitude": "36.3037048912",
    "longitude": "127.5741635098",
    "image": "http://tong.visitkorea.or.kr/cms/resource/44/3334944_image2_1.JPG",
    "category": "공연장"
  },
  {
    "id": "3085174",
    "title": "올림픽공원 올림픽홀",
    "address": "서울특별시 송파구 올림픽로 424 (방이동)",
    "phone": "",
    "latitude": "37.5206092598",
    "longitude": "127.1150682209",
    "image": "http://tong.visitkorea.or.kr/cms/resource/63/3085163_image2_1.JPG",
    "category": "공연장"
  },
  {
    "id": "1752704",
    "title": "완도문화예술의전당",
    "address": "전라남도 완도군 완도읍 개포로159번길 55",
    "phone": "",
    "latitude": "34.3236644374",
    "longitude": "126.7416988086",
    "image": "",
    "category": "공연장"
  },
  {
    "id": "1784117",
    "title": "완주향토예술문화회관",
    "address": "전북특별자치도 완주군 삼례읍 삼봉로 215",
    "phone": "",
    "latitude": "35.9199985284",
    "longitude": "127.0931250152",
    "image": "http://tong.visitkorea.or.kr/cms/resource/61/3080261_image2_1.JPG",
    "category": "공연장"
  },
  {
    "id": "3013174",
    "title": "용산아트홀",
    "address": "서울특별시 용산구 녹사평대로 150 (이태원동)",
    "phone": "",
    "latitude": "37.5325306355",
    "longitude": "126.9904986675",
    "image": "http://tong.visitkorea.or.kr/cms/resource/60/3012860_image2_1.JPG",
    "category": "공연장"
  },
  {
    "id": "1753401",
    "title": "용인 포은아트홀",
    "address": "경기도 용인시 수지구 포은대로 499 (죽전동)",
    "phone": "",
    "latitude": "37.3249234268",
    "longitude": "127.1042691793",
    "image": "http://tong.visitkorea.or.kr/cms/resource/16/3078516_image2_1.jpg",
    "category": "공연장"
  },
  {
    "id": "1753495",
    "title": "용인시 평생학습관",
    "address": "경기도 용인시 수지구 문정로7번길 15 (풍덕천동)",
    "phone": "",
    "latitude": "37.3205765511",
    "longitude": "127.0955145410",
    "image": "http://tong.visitkorea.or.kr/cms/resource/01/3068601_image2_1.jpg",
    "category": "공연장"
  },
  {
    "id": "1753474",
    "title": "용인시문예회관",
    "address": "경기도 용인시 처인구 중부대로1392번길 15 (김량장동)",
    "phone": "",
    "latitude": "37.2317970171",
    "longitude": "127.1988798860",
    "image": "http://tong.visitkorea.or.kr/cms/resource/02/3068502_image2_1.jpg",
    "category": "공연장"
  },
  {
    "id": "1689977",
    "title": "우륵당",
    "address": "충청북도 충주시 중원대로 3324",
    "phone": "",
    "latitude": "36.9648743632",
    "longitude": "127.9255691356",
    "image": "http://tong.visitkorea.or.kr/cms/resource/57/3349057_image2_1.JPG",
    "category": "공연장"
  },
  {
    "id": "1751182",
    "title": "우리금융아트홀",
    "address": "서울특별시 송파구 올림픽로 424",
    "phone": "",
    "latitude": "37.5218287295",
    "longitude": "127.1243145673",
    "image": "http://tong.visitkorea.or.kr/cms/resource/99/2031399_image2_1.jpg",
    "category": "공연장"
  },
  {
    "id": "130258",
    "title": "우송예술회관",
    "address": "대전광역시 동구 동대전로 171",
    "phone": "",
    "latitude": "36.3378320366",
    "longitude": "127.4459073694",
    "image": "http://tong.visitkorea.or.kr/cms/resource/70/1585570_image2_1.jpg",
    "category": "공연장"
  },
  {
    "id": "1755827",
    "title": "울릉한마음회관",
    "address": "경상북도 울릉군 울릉읍 울릉순환로 286",
    "phone": "",
    "latitude": "37.4904059641",
    "longitude": "130.9047820729",
    "image": "http://tong.visitkorea.or.kr/cms/resource/69/3464069_image2_1.jpg",
    "category": "공연장"
  },
  {
    "id": "130524",
    "title": "울산문화예술회관",
    "address": "울산광역시 남구 번영로 200",
    "phone": "",
    "latitude": "35.5429649590",
    "longitude": "129.3271521316",
    "image": "http://tong.visitkorea.or.kr/cms/resource/77/1587977_image2_1.jpg",
    "category": "공연장"
  },
  {
    "id": "130522",
    "title": "울산북구문화예술회관",
    "address": "울산광역시 북구 산업로 1000",
    "phone": "",
    "latitude": "35.5813751751",
    "longitude": "129.3614369457",
    "image": "http://tong.visitkorea.or.kr/cms/resource/51/3077951_image2_1.bmp",
    "category": "공연장"
  },
  {
    "id": "1747340",
    "title": "울주문화예술회관",
    "address": "울산광역시 울주군 범서읍 천상중앙길 36",
    "phone": "",
    "latitude": "35.5641968974",
    "longitude": "129.2322042662",
    "image": "",
    "category": "공연장"
  },
  {
    "id": "3072015",
    "title": "원주 백운아트홀",
    "address": "강원특별자치도 원주시 시청로 1 (무실동)",
    "phone": "",
    "latitude": "37.3416502836",
    "longitude": "127.9205809318",
    "image": "http://tong.visitkorea.or.kr/cms/resource/13/3051713_image2_1.jpg",
    "category": "공연장"
  },
  {
    "id": "3082429",
    "title": "웨스트브릿지 라이브홀",
    "address": "서울특별시 마포구 와우산로25길 6 (서교동)",
    "phone": "",
    "latitude": "37.5536964678",
    "longitude": "126.9261789302",
    "image": "http://tong.visitkorea.or.kr/cms/resource/24/3082424_image2_1.JPG",
    "category": "공연장"
  },
  {
    "id": "130259",
    "title": "위니아트(건국대학교 새천년관 대공연장)",
    "address": "서울특별시 광진구 능동로 120 (화양동)",
    "phone": "",
    "latitude": "37.5416615911",
    "longitude": "127.0717965616",
    "image": "http://tong.visitkorea.or.kr/cms/resource/92/3539992_image2_1.jpg",
    "category": "공연장"
  },
  {
    "id": "3080775",
    "title": "유니플렉스",
    "address": "서울특별시 종로구 대학로12길 64 (동숭동)",
    "phone": "",
    "latitude": "37.5812502100",
    "longitude": "127.0036322023",
    "image": "http://tong.visitkorea.or.kr/cms/resource/71/3080771_image2_1.JPG",
    "category": "공연장"
  },
  {
    "id": "3080550",
    "title": "윤당아트홀",
    "address": "서울특별시 강남구 언주로 844 (신사동)",
    "phone": "",
    "latitude": "37.5257127591",
    "longitude": "127.0337449226",
    "image": "http://tong.visitkorea.or.kr/cms/resource/40/3080540_image2_1.JPG",
    "category": "공연장"
  },
  {
    "id": "1748028",
    "title": "을숙도문화회관",
    "address": "부산광역시 사하구 낙동남로1233번길 25",
    "phone": "",
    "latitude": "35.1099925394",
    "longitude": "128.9447641030",
    "image": "http://tong.visitkorea.or.kr/cms/resource/99/3029299_image2_1.JPG",
    "category": "공연장"
  },
  {
    "id": "1729772",
    "title": "음성문화예술회관",
    "address": "충청북도 음성군 음성읍 예술로 102",
    "phone": "",
    "latitude": "36.9315098248",
    "longitude": "127.6805587668",
    "image": "http://tong.visitkorea.or.kr/cms/resource/10/3335410_image2_1.JPG",
    "category": "공연장"
  },
  {
    "id": "2772315",
    "title": "음악역 1939",
    "address": "경기도 가평군 가평읍 석봉로 100",
    "phone": "",
    "latitude": "37.8242284478",
    "longitude": "127.5126926962",
    "image": "http://tong.visitkorea.or.kr/cms/resource/53/3332053_image2_1.png",
    "category": "공연장"
  },
  {
    "id": "1779330",
    "title": "의성문화회관",
    "address": "경상북도 의성군 의성읍 충효로 88",
    "phone": "",
    "latitude": "36.3554362954",
    "longitude": "128.7016618097",
    "image": "",
    "category": "공연장"
  },
  {
    "id": "130409",
    "title": "의정부예술의전당",
    "address": "경기도 의정부시 의정로 1 (의정부동)",
    "phone": "",
    "latitude": "37.7332858581",
    "longitude": "127.0345167201",
    "image": "http://tong.visitkorea.or.kr/cms/resource/00/3072800_image2_1.jpg",
    "category": "공연장"
  },
  {
    "id": "1730519",
    "title": "이천아트홀",
    "address": "경기도 이천시 부악로 40 (중리동)",
    "phone": "",
    "latitude": "37.2721271897",
    "longitude": "127.4357517447",
    "image": "http://tong.visitkorea.or.kr/cms/resource/50/3068850_image2_1.jpg",
    "category": "공연장"
  },
  {
    "id": "130163",
    "title": "익산시솜리문화예술회관",
    "address": "전북특별자치도 익산시 선화1로 106",
    "phone": "",
    "latitude": "35.9392219546",
    "longitude": "126.9683050887",
    "image": "http://tong.visitkorea.or.kr/cms/resource/94/3574894_image2_1.jpg",
    "category": "공연장"
  },
  {
    "id": "1722458",
    "title": "인제 하늘내린센터",
    "address": "강원특별자치도 인제군 인제읍 비봉로44번길 100",
    "phone": "",
    "latitude": "38.0604271120",
    "longitude": "128.1662566934",
    "image": "http://tong.visitkorea.or.kr/cms/resource/94/3042494_image2_1.jpg",
    "category": "공연장"
  },
  {
    "id": "2601714",
    "title": "인천 아트플랫폼",
    "address": "인천광역시 중구 제물량로218번길 3 (해안동1가)",
    "phone": "",
    "latitude": "37.4726060191",
    "longitude": "126.6205007453",
    "image": "http://tong.visitkorea.or.kr/cms/resource/17/3529917_image2_1.jpg",
    "category": "공연장"
  },
  {
    "id": "129726",
    "title": "인천문화예술회관",
    "address": "인천광역시 남동구 예술로 149",
    "phone": "",
    "latitude": "37.4476131053",
    "longitude": "126.7000330745",
    "image": "",
    "category": "공연장"
  },
  {
    "id": "130291",
    "title": "인천서구문화회관",
    "address": "인천광역시 서구 서달로 190",
    "phone": "",
    "latitude": "37.5158048243",
    "longitude": "126.6799218995",
    "image": "",
    "category": "공연장"
  },
  {
    "id": "129738",
    "title": "인천수봉문화회관",
    "address": "인천광역시 미추홀구 수봉안길 78",
    "phone": "",
    "latitude": "37.4615191552",
    "longitude": "126.6622472444",
    "image": "http://tong.visitkorea.or.kr/cms/resource/29/3395129_image2_1.JPG",
    "category": "공연장"
  },
  {
    "id": "231968",
    "title": "인천여성가족재단",
    "address": "인천광역시 부평구 길주로 539 (갈산동)",
    "phone": "",
    "latitude": "37.5076398554",
    "longitude": "126.7222210452",
    "image": "http://tong.visitkorea.or.kr/cms/resource/82/3529082_image2_1.jpg",
    "category": "공연장"
  },
  {
    "id": "1752823",
    "title": "인천학생교육문화회관",
    "address": "인천광역시 중구 자유공원로 12 (인현동)",
    "phone": "",
    "latitude": "37.4758558031",
    "longitude": "126.6296581531",
    "image": "http://tong.visitkorea.or.kr/cms/resource/10/2363110_image2_1.jpg",
    "category": "공연장"
  },
  {
    "id": "3013173",
    "title": "일신홀",
    "address": "서울특별시 용산구 한남대로 98 (한남동)",
    "phone": "",
    "latitude": "37.5372192491",
    "longitude": "127.0055304997",
    "image": "http://tong.visitkorea.or.kr/cms/resource/84/3012884_image2_1.jpg",
    "category": "공연장"
  },
  {
    "id": "3080508",
    "title": "일지아트홀",
    "address": "서울특별시 강남구 선릉로 806 (청담동)",
    "phone": "",
    "latitude": "37.5239491810",
    "longitude": "127.0396499902",
    "image": "http://tong.visitkorea.or.kr/cms/resource/04/3080504_image2_1.JPG",
    "category": "공연장"
  },
  {
    "id": "1619338",
    "title": "작은극장 돌체",
    "address": "인천광역시 미추홀구 매소홀로 573",
    "phone": "",
    "latitude": "37.4387944327",
    "longitude": "126.6857346232",
    "image": "http://tong.visitkorea.or.kr/cms/resource/55/3528655_image2_1.jpg",
    "category": "공연장"
  },
  {
    "id": "1752754",
    "title": "장성문화예술회관",
    "address": "전라남도 장성군 장성읍 문화로 110",
    "phone": "",
    "latitude": "35.3022270077",
    "longitude": "126.7679503241",
    "image": "http://tong.visitkorea.or.kr/cms/resource/27/3571527_image2_1.jpg",
    "category": "공연장"
  },
  {
    "id": "1750151",
    "title": "장수 한누리전당",
    "address": "전북특별자치도 장수군 장수읍 한누리로 393",
    "phone": "",
    "latitude": "35.6411181919",
    "longitude": "127.5180751461",
    "image": "http://tong.visitkorea.or.kr/cms/resource/00/3333700_image2_1.JPG",
    "category": "공연장"
  },
  {
    "id": "1626011",
    "title": "전북예술회관",
    "address": "전북특별자치도 전주시 완산구 팔달로 161 (경원동1가)",
    "phone": "",
    "latitude": "35.8168639836",
    "longitude": "127.1471256848",
    "image": "http://tong.visitkorea.or.kr/cms/resource/91/3562091_image2_1.jpg",
    "category": "공연장"
  },
  {
    "id": "130054",
    "title": "전주 덕진예술회관",
    "address": "전북특별자치도 전주시 덕진구 권삼득로 407",
    "phone": "",
    "latitude": "35.8479433034",
    "longitude": "127.1195939894",
    "image": "http://tong.visitkorea.or.kr/cms/resource/84/1605384_image2_1.jpg",
    "category": "공연장"
  },
  {
    "id": "1594841",
    "title": "전주 창작극회 창작소극장",
    "address": "전북특별자치도 전주시 완산구 동문길 100",
    "phone": "",
    "latitude": "35.8181305316",
    "longitude": "127.1485699676",
    "image": "http://tong.visitkorea.or.kr/cms/resource/39/3364439_image2_1.JPG",
    "category": "공연장"
  },
  {
    "id": "2524190",
    "title": "정선 아리랑센터 (정선아리랑문화재단)",
    "address": "강원특별자치도 정선군 정선읍 애산로 51",
    "phone": "",
    "latitude": "37.3763965519",
    "longitude": "128.6715234210",
    "image": "http://tong.visitkorea.or.kr/cms/resource/89/2536189_image2_1.jpg",
    "category": "공연장"
  },
  {
    "id": "130042",
    "title": "정읍사예술회관",
    "address": "전북특별자치도 정읍시 시기4길 13",
    "phone": "",
    "latitude": "35.5529529525",
    "longitude": "126.8615801168",
    "image": "http://tong.visitkorea.or.kr/cms/resource/76/197176_image2_1.jpg",
    "category": "공연장"
  },
  {
    "id": "3304086",
    "title": "정조테마공연장",
    "address": "경기도 수원시 팔달구 정조로 817 (팔달로1가)",
    "phone": "",
    "latitude": "37.2811074845",
    "longitude": "127.0163422775",
    "image": "http://tong.visitkorea.or.kr/cms/resource/72/3304072_image2_1.jpg",
    "category": "공연장"
  },
  {
    "id": "3037623",
    "title": "제주 스카이워터쇼",
    "address": "제주특별자치도 제주시 구좌읍 번영로 2172-80",
    "phone": "",
    "latitude": "33.4242533430",
    "longitude": "126.7442862502",
    "image": "http://tong.visitkorea.or.kr/cms/resource/08/3037608_image2_1.jpg",
    "category": "공연장"
  },
  {
    "id": "129895",
    "title": "제주 탑동해변공연장",
    "address": "제주특별자치도 제주시 중앙로 2",
    "phone": "",
    "latitude": "33.5179061303",
    "longitude": "126.5243032176",
    "image": "http://tong.visitkorea.or.kr/cms/resource/44/3411244_image2_1.jpg",
    "category": "공연장"
  },
  {
    "id": "3030422",
    "title": "제주아리랑 혼",
    "address": "제주특별자치도 서귀포시 표선면 번영로 2564-21",
    "phone": "",
    "latitude": "33.4025424013",
    "longitude": "126.7784337864",
    "image": "http://tong.visitkorea.or.kr/cms/resource/67/3030367_image2_1.jpg",
    "category": "공연장"
  },
  {
    "id": "130512",
    "title": "제주아트서커스",
    "address": "제주특별자치도 서귀포시 안덕면 동광로 214",
    "phone": "",
    "latitude": "33.3143952464",
    "longitude": "126.3449344975",
    "image": "http://tong.visitkorea.or.kr/cms/resource/62/3034562_image2_1.jpg",
    "category": "공연장"
  },
  {
    "id": "129753",
    "title": "제천문화회관",
    "address": "충청북도 제천시 의림대로6길 32",
    "phone": "",
    "latitude": "37.1304855969",
    "longitude": "128.2105943135",
    "image": "http://tong.visitkorea.or.kr/cms/resource/24/3349024_image2_1.JPG",
    "category": "공연장"
  },
  {
    "id": "3543603",
    "title": "제천예술의전당",
    "address": "충청북도 제천시 동명로 77 (명동)",
    "phone": "",
    "latitude": "37.1357377275",
    "longitude": "128.2083221421",
    "image": "http://tong.visitkorea.or.kr/cms/resource/12/3543912_image2_1.jpg",
    "category": "공연장"
  },
  {
    "id": "1753572",
    "title": "죽전야외음악당",
    "address": "경기도 용인시 수지구 죽전로168번길 9 (죽전동)",
    "phone": "",
    "latitude": "37.3255126466",
    "longitude": "127.1264977011",
    "image": "http://tong.visitkorea.or.kr/cms/resource/09/3068609_image2_1.jpg",
    "category": "공연장"
  },
  {
    "id": "3055494",
    "title": "중구문화의전당",
    "address": "울산광역시 중구 종가로 405 (성안동)",
    "phone": "",
    "latitude": "35.5675843083",
    "longitude": "129.3215658141",
    "image": "http://tong.visitkorea.or.kr/cms/resource/95/3055495_image2_1.jpg",
    "category": "공연장"
  },
  {
    "id": "3010557",
    "title": "진남문예회관",
    "address": "전라남도 여수시 좌수영로 69 시민회관",
    "phone": "",
    "latitude": "34.7468448423",
    "longitude": "127.7282297932",
    "image": "http://tong.visitkorea.or.kr/cms/resource/56/3010556_image2_1.jpg",
    "category": "공연장"
  },
  {
    "id": "130863",
    "title": "진도향토문화회관",
    "address": "전라남도 진도군 진도읍 진도대로 7197",
    "phone": "",
    "latitude": "34.4795198452",
    "longitude": "126.2698698980",
    "image": "http://tong.visitkorea.or.kr/cms/resource/89/3561389_image2_1.jpg",
    "category": "공연장"
  },
  {
    "id": "130328",
    "title": "진안 문예체육회관",
    "address": "전북특별자치도 진안군 진안읍 진무로 1054-38",
    "phone": "",
    "latitude": "35.7863278855",
    "longitude": "127.4265238774",
    "image": "http://tong.visitkorea.or.kr/cms/resource/37/3368537_image2_1.JPG",
    "category": "공연장"
  },
  {
    "id": "1779286",
    "title": "진해문화센터",
    "address": "경상남도 창원시 진해구 진해대로 325",
    "phone": "",
    "latitude": "35.1691612510",
    "longitude": "128.6594179292",
    "image": "http://tong.visitkorea.or.kr/cms/resource/98/3050298_image2_1.JPG",
    "category": "공연장"
  },
  {
    "id": "3070509",
    "title": "진해야외공연장",
    "address": "경상남도 창원시 진해구 천자로 103 (덕산동)",
    "phone": "",
    "latitude": "35.1433480650",
    "longitude": "128.6915935939",
    "image": "http://tong.visitkorea.or.kr/cms/resource/88/3070488_image2_1.JPG",
    "category": "공연장"
  },
  {
    "id": "1112029",
    "title": "창덕궁 소극장",
    "address": "서울특별시 종로구 창경궁로 227 (명륜4가)",
    "phone": "",
    "latitude": "37.5824805174",
    "longitude": "126.9977743679",
    "image": "http://tong.visitkorea.or.kr/cms/resource/32/3572432_image2_1.jpg",
    "category": "공연장"
  },
  {
    "id": "130064",
    "title": "천안시 성정평생학습관",
    "address": "충청남도 천안시 서북구 성정중4길 29",
    "phone": "",
    "latitude": "36.8273842423",
    "longitude": "127.1362884499",
    "image": "http://tong.visitkorea.or.kr/cms/resource/40/3342540_image2_1.JPG",
    "category": "공연장"
  },
  {
    "id": "3067528",
    "title": "천안시청 봉서홀",
    "address": "충청남도 천안시 서북구 번영로 156 (불당동)",
    "phone": "",
    "latitude": "36.8146491745",
    "longitude": "127.1124242843",
    "image": "http://tong.visitkorea.or.kr/cms/resource/25/3067525_image2_1.jpg",
    "category": "공연장"
  },
  {
    "id": "1755077",
    "title": "청양문화예술회관",
    "address": "충청남도 청양군 청양읍 문화예술로 187",
    "phone": "",
    "latitude": "36.4562710129",
    "longitude": "126.8004509446",
    "image": "http://tong.visitkorea.or.kr/cms/resource/11/3357011_image2_1.jpg",
    "category": "공연장"
  },
  {
    "id": "3071217",
    "title": "청주아트홀",
    "address": "충청북도 청주시 서원구 예체로 118-1 (사직동)",
    "phone": "",
    "latitude": "36.6369815217",
    "longitude": "127.4694776198",
    "image": "http://tong.visitkorea.or.kr/cms/resource/75/3071175_image2_1.jpg",
    "category": "공연장"
  },
  {
    "id": "129758",
    "title": "청주예술의전당",
    "address": "충청북도 청주시 서원구 흥덕로 69 (사직동)",
    "phone": "",
    "latitude": "36.6416199239",
    "longitude": "127.4720355958",
    "image": "http://tong.visitkorea.or.kr/cms/resource/14/3377814_image2_1.jpg",
    "category": "공연장"
  },
  {
    "id": "1279232",
    "title": "축제극장몸짓",
    "address": "강원특별자치도 춘천시 춘천로 112",
    "phone": "",
    "latitude": "37.8729823203",
    "longitude": "127.7276939015",
    "image": "http://tong.visitkorea.or.kr/cms/resource/62/3102562_image2_1.jpg",
    "category": "공연장"
  },
  {
    "id": "129759",
    "title": "춘천문화예술회관",
    "address": "강원특별자치도 춘천시 효자상길5번길 13",
    "phone": "",
    "latitude": "37.8726351683",
    "longitude": "127.7292937668",
    "image": "http://tong.visitkorea.or.kr/cms/resource/02/3046602_image2_1.jpg",
    "category": "공연장"
  },
  {
    "id": "1167117",
    "title": "충남대학교 정심화국제문화회관",
    "address": "대전광역시 유성구 대학로 99 (궁동)",
    "phone": "",
    "latitude": "36.3625690784",
    "longitude": "127.3448407368",
    "image": "http://tong.visitkorea.or.kr/cms/resource/13/3031813_image2_1.JPG",
    "category": "공연장"
  },
  {
    "id": "130108",
    "title": "치악예술관",
    "address": "강원특별자치도 원주시 서원대로 331 치악예술관",
    "phone": "",
    "latitude": "37.3352097976",
    "longitude": "127.9440623343",
    "image": "http://tong.visitkorea.or.kr/cms/resource/91/2046391_image2_1.jpg",
    "category": "공연장"
  },
  {
    "id": "130069",
    "title": "카이스트 강당·노천극장",
    "address": "대전광역시 유성구 대학로 291",
    "phone": "",
    "latitude": "36.3717460903",
    "longitude": "127.3608473894",
    "image": "http://tong.visitkorea.or.kr/cms/resource/46/3079346_image2_1.JPG",
    "category": "공연장"
  },
  {
    "id": "3076105",
    "title": "코엑스 오디토리움",
    "address": "서울특별시 강남구 봉은사로 524 (삼성동)",
    "phone": "",
    "latitude": "37.5129952125",
    "longitude": "127.0571487082",
    "image": "",
    "category": "공연장"
  },
  {
    "id": "1019271",
    "title": "코엑스아티움",
    "address": "서울특별시 강남구 영동대로 513 (삼성동)",
    "phone": "",
    "latitude": "37.5119175967",
    "longitude": "127.0592179950",
    "image": "http://tong.visitkorea.or.kr/cms/resource/78/3555778_image2_1.jpg",
    "category": "공연장"
  },
  {
    "id": "3080738",
    "title": "콘텐츠박스",
    "address": "서울특별시 종로구 동숭길 55 (동숭동)",
    "phone": "",
    "latitude": "37.5808113818",
    "longitude": "127.0041960524",
    "image": "http://tong.visitkorea.or.kr/cms/resource/36/3080736_image2_1.JPG",
    "category": "공연장"
  },
  {
    "id": "2932046",
    "title": "콩치노콩크리트",
    "address": "경기도 파주시 새오리로161번길 17",
    "phone": "",
    "latitude": "37.7967277786",
    "longitude": "126.6864134171",
    "image": "",
    "category": "공연장"
  },
  {
    "id": "2507820",
    "title": "큐빅광장",
    "address": "울산광역시 중구 학성로 65",
    "phone": "",
    "latitude": "35.5547606861",
    "longitude": "129.3181748052",
    "image": "http://tong.visitkorea.or.kr/cms/resource/15/3335215_image2_1.jpg",
    "category": "공연장"
  },
  {
    "id": "1722369",
    "title": "태백시 문화예술회관",
    "address": "강원특별자치도 태백시 고원로 203",
    "phone": "",
    "latitude": "37.1720067101",
    "longitude": "128.9880567883",
    "image": "http://tong.visitkorea.or.kr/cms/resource/53/3043753_image2_1.jpg",
    "category": "공연장"
  },
  {
    "id": "1735893",
    "title": "태안군문화예술회관",
    "address": "충청남도 태안군 태안읍 백화로 200",
    "phone": "",
    "latitude": "36.7548226932",
    "longitude": "126.3127092762",
    "image": "http://tong.visitkorea.or.kr/cms/resource/40/3341040_image2_1.jpg",
    "category": "공연장"
  },
  {
    "id": "2638512",
    "title": "통영국제음악당",
    "address": "경상남도 통영시 큰발개1길 38 (도남동)",
    "phone": "",
    "latitude": "34.8265540068",
    "longitude": "128.4403655880",
    "image": "",
    "category": "공연장"
  },
  {
    "id": "130139",
    "title": "통영시 시민문화회관",
    "address": "경상남도 통영시 남망공원길 29 (동호동)",
    "phone": "",
    "latitude": "34.8420742637",
    "longitude": "128.4275024122",
    "image": "http://tong.visitkorea.or.kr/cms/resource/20/3573420_image2_1.jpg",
    "category": "공연장"
  },
  {
    "id": "1730614",
    "title": "통진두레문화센터",
    "address": "경기도 김포시 통진읍 김포대로 2347-8",
    "phone": "",
    "latitude": "37.6958322229",
    "longitude": "126.5869809182",
    "image": "http://tong.visitkorea.or.kr/cms/resource/69/3350369_image2_1.JPG",
    "category": "공연장"
  },
  {
    "id": "3012760",
    "title": "틴틴홀",
    "address": "서울특별시 종로구 대학로10길 24 (동숭동)",
    "phone": "",
    "latitude": "37.5816529390",
    "longitude": "127.0035683079",
    "image": "http://tong.visitkorea.or.kr/cms/resource/45/3012745_image2_1.jpg",
    "category": "공연장"
  },
  {
    "id": "3081629",
    "title": "파주시민회관",
    "address": "경기도 파주시 시민회관길 33 (금촌동)",
    "phone": "",
    "latitude": "37.7591560560",
    "longitude": "126.7802586666",
    "image": "http://tong.visitkorea.or.kr/cms/resource/24/3081624_image2_1.JPG",
    "category": "공연장"
  },
  {
    "id": "1899703",
    "title": "패션디자인개발지원센터",
    "address": "대구광역시 북구 유통단지로14길 17",
    "phone": "",
    "latitude": "35.9061689681",
    "longitude": "128.6117268984",
    "image": "http://tong.visitkorea.or.kr/cms/resource/07/1899707_image2_1.jpg",
    "category": "공연장"
  },
  {
    "id": "631881",
    "title": "평촌아트홀",
    "address": "경기도 안양시 동안구 평촌대로 76 (호계동)",
    "phone": "",
    "latitude": "37.3800339730",
    "longitude": "126.9640387032",
    "image": "http://tong.visitkorea.or.kr/cms/resource/33/3577733_image2_1.jpg",
    "category": "공연장"
  },
  {
    "id": "130130",
    "title": "평택남부문화예술회관",
    "address": "경기도 평택시 중앙로 277 (비전동)",
    "phone": "",
    "latitude": "36.9909899859",
    "longitude": "127.1139387328",
    "image": "http://tong.visitkorea.or.kr/cms/resource/84/3514084_image2_1.jpg",
    "category": "공연장"
  },
  {
    "id": "130131",
    "title": "평택북부문화예술회관",
    "address": "경기도 평택시 경기대로 1366 (서정동)",
    "phone": "",
    "latitude": "37.0666942504",
    "longitude": "127.0643161221",
    "image": "http://tong.visitkorea.or.kr/cms/resource/99/3514099_image2_1.jpg",
    "category": "공연장"
  },
  {
    "id": "130298",
    "title": "평택서부문화예술회관",
    "address": "경기도 평택시 안중읍 서동대로 1531",
    "phone": "",
    "latitude": "36.9894811530",
    "longitude": "126.9193619230",
    "image": "http://tong.visitkorea.or.kr/cms/resource/96/3514096_image2_1.jpg",
    "category": "공연장"
  },
  {
    "id": "645791",
    "title": "포니정홀",
    "address": "서울특별시 강남구 영동대로 520",
    "phone": "",
    "latitude": "37.5137285311",
    "longitude": "127.0610761076",
    "image": "http://tong.visitkorea.or.kr/cms/resource/91/3565291_image2_1.jpg",
    "category": "공연장"
  },
  {
    "id": "3000359",
    "title": "포스코광양백운아트홀",
    "address": "전라남도 광양시 금호로 215 백운아트홀",
    "phone": "",
    "latitude": "34.9423645448",
    "longitude": "127.7259694408",
    "image": "",
    "category": "공연장"
  },
  {
    "id": "129731",
    "title": "포스트극장",
    "address": "서울특별시 마포구 와우산로 148",
    "phone": "",
    "latitude": "37.5541214804",
    "longitude": "126.9296424918",
    "image": "http://tong.visitkorea.or.kr/cms/resource/75/1807775_image2_1.jpg",
    "category": "공연장"
  },
  {
    "id": "130684",
    "title": "포천 반월아트홀",
    "address": "경기도 포천시 군내면 청성로 111",
    "phone": "",
    "latitude": "37.8951924312",
    "longitude": "127.2114736640",
    "image": "http://tong.visitkorea.or.kr/cms/resource/54/3563254_image2_1.jpg",
    "category": "공연장"
  },
  {
    "id": "130246",
    "title": "포항문화예술회관",
    "address": "경상북도 포항시 남구 희망대로 850",
    "phone": "",
    "latitude": "36.0092686840",
    "longitude": "129.3661687478",
    "image": "",
    "category": "공연장"
  },
  {
    "id": "3012935",
    "title": "푸르지오아트홀",
    "address": "서울특별시 중구 을지로4가",
    "phone": "",
    "latitude": "37.5661074117",
    "longitude": "126.9973026526",
    "image": "http://tong.visitkorea.or.kr/cms/resource/06/3012906_image2_1.jpg",
    "category": "공연장"
  },
  {
    "id": "1730693",
    "title": "하남문화예술회관",
    "address": "경기도 하남시 신평로 125 (덕풍동)",
    "phone": "",
    "latitude": "37.5445331619",
    "longitude": "127.2080257492",
    "image": "http://tong.visitkorea.or.kr/cms/resource/49/3072849_image2_1.jpg",
    "category": "공연장"
  },
  {
    "id": "1752940",
    "title": "하동문화예술회관",
    "address": "경상남도 하동군 하동읍 섬진강대로 2222",
    "phone": "",
    "latitude": "35.0723002086",
    "longitude": "127.7411147658",
    "image": "http://tong.visitkorea.or.kr/cms/resource/63/3050463_image2_1.jpg",
    "category": "공연장"
  },
  {
    "id": "3362945",
    "title": "하마씨어터",
    "address": "서울특별시 종로구 대학로10길 15-11 (동숭동)",
    "phone": "",
    "latitude": "37.5823222927",
    "longitude": "127.0027933598",
    "image": "http://tong.visitkorea.or.kr/cms/resource/23/3362923_image2_1.jpg",
    "category": "공연장"
  },
  {
    "id": "3061209",
    "title": "학산소극장",
    "address": "인천광역시 미추홀구 인하로 126 (용현동)",
    "phone": "",
    "latitude": "37.4495594272",
    "longitude": "126.6618920537",
    "image": "http://tong.visitkorea.or.kr/cms/resource/32/3051832_image2_1.jpg",
    "category": "공연장"
  },
  {
    "id": "3083532",
    "title": "한국방송회관코바코홀",
    "address": "서울특별시 양천구 목동동로 233 (목동)",
    "phone": "",
    "latitude": "37.5270291440",
    "longitude": "126.8714152298",
    "image": "http://tong.visitkorea.or.kr/cms/resource/26/3083526_image2_1.jpg",
    "category": "공연장"
  },
  {
    "id": "130435",
    "title": "한국소리문화의전당",
    "address": "전북특별자치도 전주시 덕진구 소리로 31",
    "phone": "",
    "latitude": "35.8552677836",
    "longitude": "127.1376810758",
    "image": "http://tong.visitkorea.or.kr/cms/resource/21/2808121_image2_1.jpg",
    "category": "공연장"
  },
  {
    "id": "3010877",
    "title": "한국소리터",
    "address": "경기도 평택시 현덕면 평택호길 147",
    "phone": "",
    "latitude": "36.9212584984",
    "longitude": "126.9208719893",
    "image": "http://tong.visitkorea.or.kr/cms/resource/81/3003681_image2_1.jpg",
    "category": "공연장"
  },
  {
    "id": "129749",
    "title": "한국의집",
    "address": "서울특별시 중구 퇴계로36길 10 (필동2가)",
    "phone": "",
    "latitude": "37.5602774831",
    "longitude": "126.9945141838",
    "image": "http://tong.visitkorea.or.kr/cms/resource/70/3332270_image2_1.jpg",
    "category": "공연장"
  },
  {
    "id": "2753376",
    "title": "한국코미디타운",
    "address": "경상북도 청도군 이서면 이서로 565",
    "phone": "",
    "latitude": "35.6935721622",
    "longitude": "128.6862345859",
    "image": "http://tong.visitkorea.or.kr/cms/resource/52/2753352_image2_1.png",
    "category": "공연장"
  },
  {
    "id": "129723",
    "title": "한남대학교 성지관",
    "address": "대전광역시 대덕구 한남로 70",
    "phone": "",
    "latitude": "36.3541130790",
    "longitude": "127.4217979720",
    "image": "http://tong.visitkorea.or.kr/cms/resource/20/3565120_image2_1.jpg",
    "category": "공연장"
  },
  {
    "id": "3081953",
    "title": "한누리아트홀",
    "address": "경기도 수원시 장안구 송원로 101 (조원동)",
    "phone": "",
    "latitude": "37.3035853381",
    "longitude": "127.0108727008",
    "image": "http://tong.visitkorea.or.kr/cms/resource/48/3081948_image2_1.JPG",
    "category": "공연장"
  },
  {
    "id": "3072272",
    "title": "한성아트홀",
    "address": "서울특별시 종로구 창경궁로 254 (명륜2가)",
    "phone": "",
    "latitude": "37.5838054019",
    "longitude": "126.9999657976",
    "image": "http://tong.visitkorea.or.kr/cms/resource/78/3025278_image2_1.jpg",
    "category": "공연장"
  },
  {
    "id": "1762507",
    "title": "함안문화예술회관",
    "address": "경상남도 함안군 가야읍 함안대로 619-1",
    "phone": "",
    "latitude": "35.2832826470",
    "longitude": "128.4012735424",
    "image": "http://tong.visitkorea.or.kr/cms/resource/61/3584761_image2_1.jpg",
    "category": "공연장"
  },
  {
    "id": "1753003",
    "title": "함양문화예술회관",
    "address": "경상남도 함양군 함양읍 필봉산길 55",
    "phone": "",
    "latitude": "35.5240156128",
    "longitude": "127.7229601178",
    "image": "http://tong.visitkorea.or.kr/cms/resource/86/3342586_image2_1.JPG",
    "category": "공연장"
  },
  {
    "id": "130907",
    "title": "해남문화예술회관",
    "address": "전라남도 해남군 해남읍 군청길 4",
    "phone": "",
    "latitude": "34.5735424396",
    "longitude": "126.5992608873",
    "image": "http://tong.visitkorea.or.kr/cms/resource/17/3564417_image2_1.jpg",
    "category": "공연장"
  },
  {
    "id": "1748157",
    "title": "해운대문화회관",
    "address": "부산광역시 해운대구 양운로 97 해운대문화회관",
    "phone": "",
    "latitude": "35.1711815853",
    "longitude": "129.1740313744",
    "image": "http://tong.visitkorea.or.kr/cms/resource/27/3026627_image2_1.JPG",
    "category": "공연장"
  },
  {
    "id": "130261",
    "title": "현대예술관",
    "address": "울산광역시 동구 명덕로 10 현대예술관",
    "phone": "",
    "latitude": "35.5228997416",
    "longitude": "129.4317185812",
    "image": "http://tong.visitkorea.or.kr/cms/resource/23/1355323_image2_1.jpg",
    "category": "공연장"
  },
  {
    "id": "1691236",
    "title": "호암예술관",
    "address": "충청북도 충주시 중원대로 3306",
    "phone": "",
    "latitude": "36.9627190795",
    "longitude": "127.9269024117",
    "image": "",
    "category": "공연장"
  },
  {
    "id": "3085116",
    "title": "호원아트홀",
    "address": "서울특별시 강동구 성안로 30 (성내동)",
    "phone": "",
    "latitude": "37.5263449807",
    "longitude": "127.1303472226",
    "image": "http://tong.visitkorea.or.kr/cms/resource/10/3085110_image2_1.JPG",
    "category": "공연장"
  },
  {
    "id": "1389382",
    "title": "홍대난타극장",
    "address": "서울특별시 마포구 양화로16길 29 (서교동)",
    "phone": "",
    "latitude": "37.5532686502",
    "longitude": "126.9211766210",
    "image": "http://tong.visitkorea.or.kr/cms/resource/40/3113640_image2_1.jpg",
    "category": "공연장"
  },
  {
    "id": "129756",
    "title": "홍주문화회관",
    "address": "충청남도 홍성군 홍성읍 내포로 164",
    "phone": "",
    "latitude": "36.5947386378",
    "longitude": "126.6518606433",
    "image": "http://tong.visitkorea.or.kr/cms/resource/00/3340100_image2_1.jpg",
    "category": "공연장"
  },
  {
    "id": "1722441",
    "title": "홍천문화예술회관",
    "address": "강원특별자치도 홍천군 홍천읍 설악로 1792",
    "phone": "",
    "latitude": "37.6889957140",
    "longitude": "127.8954063416",
    "image": "http://tong.visitkorea.or.kr/cms/resource/34/3021034_image2_1.jpg",
    "category": "공연장"
  },
  {
    "id": "2744398",
    "title": "황인용 뮤직 스페이스 <카메라타>",
    "address": "경기도 파주시 탄현면 헤이리마을길 83",
    "phone": "",
    "latitude": "37.7900815669",
    "longitude": "126.6996179513",
    "image": "http://tong.visitkorea.or.kr/cms/resource/51/3308451_image2_1.JPG",
    "category": "공연장"
  },
  {
    "id": "2380303",
    "title": "횡성군문화예술회관",
    "address": "강원특별자치도 횡성군 횡성읍 문예로 75",
    "phone": "",
    "latitude": "37.4886398615",
    "longitude": "127.9751716993",
    "image": "http://tong.visitkorea.or.kr/cms/resource/20/3042420_image2_1.jpg",
    "category": "공연장"
  },
  {
    "id": "2738033",
    "title": "효자아트홀",
    "address": "경상북도 포항시 남구 행복길 120",
    "phone": "",
    "latitude": "36.0126009586",
    "longitude": "129.3304051228",
    "image": "http://tong.visitkorea.or.kr/cms/resource/10/2738110_image2_1.jpg",
    "category": "공연장"
  },
  {
    "id": "3074669",
    "title": "BNK부산은행조은극장",
    "address": "부산광역시 중구 구덕로34번길 4 (남포동2가)",
    "phone": "",
    "latitude": "35.0983065691",
    "longitude": "129.0323345803",
    "image": "",
    "category": "공연장"
  },
  {
    "id": "3082435",
    "title": "CJ아지트 광흥창",
    "address": "서울특별시 마포구 창전로 14 (신정동)",
    "phone": "",
    "latitude": "37.5443004123",
    "longitude": "126.9303482605",
    "image": "http://tong.visitkorea.or.kr/cms/resource/30/3082430_image2_1.JPG",
    "category": "공연장"
  },
  {
    "id": "1250301",
    "title": "CTS아트홀",
    "address": "서울특별시 동작구 노량진로 100",
    "phone": "",
    "latitude": "37.5129652827",
    "longitude": "126.9369985380",
    "image": "http://tong.visitkorea.or.kr/cms/resource/20/3476920_image2_1.JPG",
    "category": "공연장"
  },
  {
    "id": "3080840",
    "title": "GB가빈아트홀",
    "address": "서울특별시 강남구 삼성로 534 (삼성동)",
    "phone": "",
    "latitude": "37.5097316733",
    "longitude": "127.0555517233",
    "image": "http://tong.visitkorea.or.kr/cms/resource/34/3080834_image2_1.JPG",
    "category": "공연장"
  },
  {
    "id": "3080570",
    "title": "GB성암아트홀",
    "address": "서울특별시 강남구 선릉로111길 6 (논현동)",
    "phone": "",
    "latitude": "37.5111062889",
    "longitude": "127.0430361570",
    "image": "http://tong.visitkorea.or.kr/cms/resource/65/3080565_image2_1.JPG",
    "category": "공연장"
  },
  {
    "id": "3013252",
    "title": "JTN아트홀",
    "address": "서울특별시 종로구 이화장길 26 (이화동)",
    "phone": "",
    "latitude": "37.5766979666",
    "longitude": "127.0039461920",
    "image": "http://tong.visitkorea.or.kr/cms/resource/66/3012966_image2_1.jpg",
    "category": "공연장"
  },
  {
    "id": "129732",
    "title": "KBS 울산홀",
    "address": "울산광역시 남구 번영로 212 (달동)",
    "phone": "",
    "latitude": "35.5440592521",
    "longitude": "129.3256383448",
    "image": "http://tong.visitkorea.or.kr/cms/resource/65/3574965_image2_1.jpg",
    "category": "공연장"
  },
  {
    "id": "129751",
    "title": "KBS 창원홀",
    "address": "경상남도 창원시 의창구 중앙대로 178",
    "phone": "",
    "latitude": "35.2291716683",
    "longitude": "128.6860612038",
    "image": "http://tong.visitkorea.or.kr/cms/resource/11/3050411_image2_1.JPG",
    "category": "공연장"
  },
  {
    "id": "3076141",
    "title": "KBS아레나",
    "address": "서울특별시 강서구 공항대로 376 (화곡동)",
    "phone": "",
    "latitude": "37.5569002401",
    "longitude": "126.8472082628",
    "image": "",
    "category": "공연장"
  },
  {
    "id": "397572",
    "title": "KT&G 상상마당 홍대",
    "address": "서울특별시 마포구 어울마당로 65",
    "phone": "",
    "latitude": "37.5509355861",
    "longitude": "126.9210433658",
    "image": "http://tong.visitkorea.or.kr/cms/resource/17/3526617_image2_1.jpg",
    "category": "공연장"
  },
  {
    "id": "3080833",
    "title": "KT&G상상마당 대치아트홀",
    "address": "서울특별시 강남구 영동대로 416 (대치동)",
    "phone": "",
    "latitude": "37.5066377643",
    "longitude": "127.0653425868",
    "image": "http://tong.visitkorea.or.kr/cms/resource/27/3080827_image2_1.JPG",
    "category": "공연장"
  },
  {
    "id": "2945183",
    "title": "MEG아트홀",
    "address": "경기도 오산시 내삼미로 93 (수청동)",
    "phone": "",
    "latitude": "37.1705878248",
    "longitude": "127.0658019887",
    "image": "http://tong.visitkorea.or.kr/cms/resource/79/2945179_image2_1.jpg",
    "category": "공연장"
  },
  {
    "id": "3080870",
    "title": "SCC홀",
    "address": "서울특별시 서초구 남부순환로325길 9 (서초동)",
    "phone": "",
    "latitude": "37.4817730723",
    "longitude": "127.0145340254",
    "image": "http://tong.visitkorea.or.kr/cms/resource/65/3080865_image2_1.JPG",
    "category": "공연장"
  }
]