[
  {
    "id": "3583362",
    "title": "목포모자아트갤러리",
    "address": "전라남도 목포시 해안로229번길 20-2 (영해동2가)",
    "phone": "",
    "latitude": "34.7869760475",
    "longitude": "126.3853301730",
    "image": "http://tong.visitkorea.or.kr/cms/resource/59/3585859_image2_1.jpg",
    "category": "미술관화랑",
    "original_category": "박물관"
  },
  {
    "id": "3014604",
    "title": "영산포역사갤러리",
    "address": "전라남도 나주시 영산3길 17 (영산동)",
    "phone": "",
    "latitude": "35.0007601230",
    "longitude": "126.7115155936",
    "image": "http://tong.visitkorea.or.kr/cms/resource/91/3014591_image2_1.jpg",
    "category": "미술관화랑",
    "original_category": "박물관"
  },
  {
    "id": "2606139",
    "title": "김환태문학관&최북미술관",
    "address": "전북특별자치도 무주군 무주읍 최북로 15",
    "phone": "",
    "latitude": "36.0030241342",
    "longitude": "127.6651996701",
    "image": "http://tong.visitkorea.or.kr/cms/resource/03/3560903_image2_1.jpg",
    "category": "미술관화랑",
    "original_category": "기념관"
  },
  {
    "id": "130494",
    "title": "이중섭 미술관",
    "address": "제주특별자치도 서귀포시 이중섭로 33 (서귀동)",
    "phone": "",
    "latitude": "33.2451869106",
    "longitude": "126.5644808911",
    "image": "http://tong.visitkorea.or.kr/cms/resource/93/3533493_image2_1.jpg",
    "category": "미술관화랑",
    "original_category": "기념관"
  },
  {
    "id": "3012455",
    "title": "갤러리 위",
    "address": "경기도 용인시 수지구 호수로52번길 25-17 (고기동)",
    "phone": "",
    "latitude": "37.3521640800",
    "longitude": "127.0688716267",
    "image": "http://tong.visitkorea.or.kr/cms/resource/93/3582593_image2_1.jpg",
    "category": "미술관화랑",
    "original_category": "전시관"
  },
  {
    "id": "3057945",
    "title": "김희수아트센터",
    "address": "서울특별시 동대문구 홍릉로 118 (청량리동)",
    "phone": "",
    "latitude": "37.5907525849",
    "longitude": "127.0426533769",
    "image": "http://tong.visitkorea.or.kr/cms/resource/23/3057923_image2_1.jpg",
    "category": "미술관화랑",
    "original_category": "전시관"
  },
  {
    "id": "2833944",
    "title": "다울랭 갤러리",
    "address": "서울특별시 용산구 한강대로15길 32 (한강로3가)",
    "phone": "",
    "latitude": "37.5266141606",
    "longitude": "126.9628680184",
    "image": "http://tong.visitkorea.or.kr/cms/resource/17/2833917_image2_1.jpg",
    "category": "미술관화랑",
    "original_category": "전시관"
  },
  {
    "id": "3447882",
    "title": "달빛갤러리",
    "address": "전라남도 여수시 고소5길 32 (고소동)",
    "phone": "",
    "latitude": "34.7397541742",
    "longitude": "127.7400622717",
    "image": "",
    "category": "미술관화랑",
    "original_category": "전시관"
  },
  {
    "id": "3406745",
    "title": "대인예술시장 한평갤러리",
    "address": "광주광역시 동구 제봉로184번길 9-10 (대인동)",
    "phone": "",
    "latitude": "35.1537629825",
    "longitude": "126.9174602548",
    "image": "http://tong.visitkorea.or.kr/cms/resource/20/3405920_image2_1.jpg",
    "category": "미술관화랑",
    "original_category": "전시관"
  },
  {
    "id": "3570424",
    "title": "더샵갤러리",
    "address": "서울특별시 강남구 자곡로 210 (자곡동)",
    "phone": "",
    "latitude": "37.4751560365",
    "longitude": "127.1058647926",
    "image": "http://tong.visitkorea.or.kr/cms/resource/11/3570411_image2_1.jpg",
    "category": "미술관화랑",
    "original_category": "전시관"
  },
  {
    "id": "2760793",
    "title": "동제미술관(동제미술전시관)",
    "address": "대구광역시 달성군 가창면 헐티로10길 18",
    "phone": "",
    "latitude": "35.7895012789",
    "longitude": "128.5934345322",
    "image": "",
    "category": "미술관화랑",
    "original_category": "전시관"
  },
  {
    "id": "3494628",
    "title": "리아트센터",
    "address": "광주광역시 동구 서석로85번길 20-1 (궁동)",
    "phone": "",
    "latitude": "35.1506883595",
    "longitude": "126.9192101775",
    "image": "http://tong.visitkorea.or.kr/cms/resource/01/3494601_image2_1.jpg",
    "category": "미술관화랑",
    "original_category": "전시관"
  },
  {
    "id": "3375301",
    "title": "리안갤러리 대구",
    "address": "대구광역시 중구 이천로 184-31 (대봉동)",
    "phone": "",
    "latitude": "35.8579991909",
    "longitude": "128.5991987886",
    "image": "http://tong.visitkorea.or.kr/cms/resource/78/3375478_image2_1.jpg",
    "category": "미술관화랑",
    "original_category": "전시관"
  },
  {
    "id": "3398112",
    "title": "벨포레 미디어아트센터",
    "address": "충청북도 증평군 도안면 연촌리",
    "phone": "",
    "latitude": "36.8491480819",
    "longitude": "127.5829198634",
    "image": "http://tong.visitkorea.or.kr/cms/resource/08/3570808_image2_1.jpg",
    "category": "미술관화랑",
    "original_category": "전시관"
  },
  {
    "id": "3027953",
    "title": "부산시립미술관별관 이우환공간",
    "address": "부산광역시 해운대구 APEC로 58 (우동)",
    "phone": "",
    "latitude": "35.1667980624",
    "longitude": "129.1373013560",
    "image": "",
    "category": "미술관화랑",
    "original_category": "전시관"
  },
  {
    "id": "3076035",
    "title": "부천아트센터",
    "address": "경기도 부천시 중동",
    "phone": "",
    "latitude": "37.5022162699",
    "longitude": "126.7664116104",
    "image": "",
    "category": "미술관화랑",
    "original_category": "전시관"
  },
  {
    "id": "2606585",
    "title": "서학동사진미술관",
    "address": "전북특별자치도 전주시 완산구 서학로 16-17",
    "phone": "",
    "latitude": "35.8092399230",
    "longitude": "127.1512671823",
    "image": "http://tong.visitkorea.or.kr/cms/resource/98/3536998_image2_1.jpg",
    "category": "미술관화랑",
    "original_category": "전시관"
  },
  {
    "id": "2949775",
    "title": "세종대학교 세종아트갤러리",
    "address": "서울특별시 광진구 능동로 209 세종대학교",
    "phone": "",
    "latitude": "37.5491580008",
    "longitude": "127.0750627181",
    "image": "http://tong.visitkorea.or.kr/cms/resource/73/2949773_image2_1.png",
    "category": "미술관화랑",
    "original_category": "전시관"
  },
  {
    "id": "3030439",
    "title": "신풍미술관",
    "address": "경상북도 예천군 지보면 신풍1리길 50",
    "phone": "",
    "latitude": "36.5401658408",
    "longitude": "128.4368078113",
    "image": "",
    "category": "미술관화랑",
    "original_category": "전시관"
  },
  {
    "id": "2790984",
    "title": "장흥조각공원(양주시립장욱진미술관)",
    "address": "경기도 양주시 장흥면 권율로 193",
    "phone": "",
    "latitude": "37.7328704810",
    "longitude": "126.9492661845",
    "image": "http://tong.visitkorea.or.kr/cms/resource/67/3331967_image2_1.jpg",
    "category": "미술관화랑",
    "original_category": "전시관"
  },
  {
    "id": "2390748",
    "title": "전통주갤러리",
    "address": "서울특별시 종로구 북촌로 18",
    "phone": "",
    "latitude": "37.5784557709",
    "longitude": "126.9858672342",
    "image": "http://tong.visitkorea.or.kr/cms/resource/22/3400422_image2_1.JPG",
    "category": "미술관화랑",
    "original_category": "전시관"
  },
  {
    "id": "3037222",
    "title": "홍천미술관",
    "address": "강원특별자치도 홍천군 홍천읍 희망로 55",
    "phone": "",
    "latitude": "37.6941394421",
    "longitude": "127.8890067694",
    "image": "http://tong.visitkorea.or.kr/cms/resource/01/3037201_image2_1.jpg",
    "category": "미술관화랑",
    "original_category": "전시관"
  },
  {
    "id": "2779126",
    "title": "화랑대역",
    "address": "서울특별시 노원구 화랑로 610 (공릉동)",
    "phone": "",
    "latitude": "37.6243079306",
    "longitude": "127.0932978062",
    "image": "http://tong.visitkorea.or.kr/cms/resource/99/2795199_image2_1.jpg",
    "category": "미술관화랑",
    "original_category": "전시관"
  },
  {
    "id": "3456876",
    "title": "화랑대역사 전시관",
    "address": "서울특별시 노원구 화랑로 610 (공릉동)",
    "phone": "",
    "latitude": "37.6243079306",
    "longitude": "127.0932978062",
    "image": "http://tong.visitkorea.or.kr/cms/resource/62/3456862_image2_1.jpg",
    "category": "미술관화랑",
    "original_category": "전시관"
  },
  {
    "id": "129854",
    "title": "가나아트센터",
    "address": "서울특별시 종로구 평창30길 28",
    "phone": "",
    "latitude": "37.6122099878",
    "longitude": "126.9751811398",
    "image": "http://tong.visitkorea.or.kr/cms/resource/11/3506711_image2_1.jpg",
    "category": "미술관화랑"
  },
  {
    "id": "129898",
    "title": "가람화랑",
    "address": "서울특별시 종로구 인사동10길 11 (관훈동)",
    "phone": "",
    "latitude": "37.5743368010",
    "longitude": "126.9856284839",
    "image": "http://tong.visitkorea.or.kr/cms/resource/36/3505536_image2_1.jpg",
    "category": "미술관화랑"
  },
  {
    "id": "2714751",
    "title": "가원미술관",
    "address": "경기도 과천시 새빛로 24 (문원동)",
    "phone": "",
    "latitude": "37.4240072797",
    "longitude": "126.9992398229",
    "image": "http://tong.visitkorea.or.kr/cms/resource/86/3565386_image2_1.jpg",
    "category": "미술관화랑"
  },
  {
    "id": "130511",
    "title": "간송미술관(서울 보화각)",
    "address": "서울특별시 성북구 성북로 102-11 (성북동)",
    "phone": "",
    "latitude": "37.5936764304",
    "longitude": "126.9973796423",
    "image": "http://tong.visitkorea.or.kr/cms/resource/43/3464643_image2_1.jpg",
    "category": "미술관화랑"
  },
  {
    "id": "2706817",
    "title": "강릉시립미술관 교동",
    "address": "강원특별자치도 강릉시 화부산로40번길 46 (교동)",
    "phone": "",
    "latitude": "37.7606064277",
    "longitude": "128.8908669769",
    "image": "http://tong.visitkorea.or.kr/cms/resource/31/3577531_image2_1.jpg",
    "category": "미술관화랑"
  },
  {
    "id": "3100746",
    "title": "강릉시립미술관 솔올",
    "address": "강원특별자치도 강릉시 원대로 45 (교동)",
    "phone": "",
    "latitude": "37.7589258472",
    "longitude": "128.8796263745",
    "image": "http://tong.visitkorea.or.kr/cms/resource/98/3100598_image2_1.jpg",
    "category": "미술관화랑"
  },
  {
    "id": "745873",
    "title": "갤러리 M",
    "address": "서울특별시 종로구 삼일대로 445",
    "phone": "",
    "latitude": "37.5742729433",
    "longitude": "126.9869450321",
    "image": "http://tong.visitkorea.or.kr/cms/resource/21/696721_image2_1.jpg",
    "category": "미술관화랑"
  },
  {
    "id": "2654476",
    "title": "갤러리 MOA",
    "address": "경기도 파주시 탄현면 헤이리마을길 48-37",
    "phone": "",
    "latitude": "37.7877540724",
    "longitude": "126.7002790678",
    "image": "http://tong.visitkorea.or.kr/cms/resource/60/3383660_image2_1.JPG",
    "category": "미술관화랑"
  },
  {
    "id": "130573",
    "title": "갤러리 S.P",
    "address": "서울특별시 용산구 회나무로44가길 30",
    "phone": "",
    "latitude": "37.5383633594",
    "longitude": "126.9943120449",
    "image": "http://tong.visitkorea.or.kr/cms/resource/94/1257994_image2_1.jpg",
    "category": "미술관화랑"
  },
  {
    "id": "2591878",
    "title": "갤러리 구루지",
    "address": "서울특별시 구로구 가마산로25길 21",
    "phone": "",
    "latitude": "37.4970135079",
    "longitude": "126.8894255436",
    "image": "http://tong.visitkorea.or.kr/cms/resource/14/3392914_image2_1.JPG",
    "category": "미술관화랑"
  },
  {
    "id": "130840",
    "title": "갤러리 나우",
    "address": "서울특별시 강남구 언주로152길 16",
    "phone": "",
    "latitude": "37.5228103408",
    "longitude": "127.0349865585",
    "image": "http://tong.visitkorea.or.kr/cms/resource/55/682555_image2_1.jpg",
    "category": "미술관화랑"
  },
  {
    "id": "2713397",
    "title": "갤러리 더 화",
    "address": "경기도 이천시 신둔면 도자예술로99번길 41",
    "phone": "",
    "latitude": "37.2916490012",
    "longitude": "127.3844974951",
    "image": "http://tong.visitkorea.or.kr/cms/resource/78/3392178_image2_1.jpg",
    "category": "미술관화랑"
  },
  {
    "id": "130577",
    "title": "갤러리 라메르",
    "address": "서울특별시 종로구 인사동5길 26 (관훈동)",
    "phone": "",
    "latitude": "37.5726342077",
    "longitude": "126.9848841554",
    "image": "http://tong.visitkorea.or.kr/cms/resource/07/2022407_image2_1.jpg",
    "category": "미술관화랑"
  },
  {
    "id": "130581",
    "title": "갤러리 마노",
    "address": "서울특별시 강남구 압구정로46길 71",
    "phone": "",
    "latitude": "37.5240907763",
    "longitude": "127.0365891542",
    "image": "http://tong.visitkorea.or.kr/cms/resource/83/2402783_image2_1.jpg",
    "category": "미술관화랑"
  },
  {
    "id": "130568",
    "title": "갤러리 미즈",
    "address": "서울특별시 종로구 삼일대로 461 (경운동)",
    "phone": "",
    "latitude": "37.5756088859",
    "longitude": "126.9862172830",
    "image": "http://tong.visitkorea.or.kr/cms/resource/11/3384811_image2_1.JPG",
    "category": "미술관화랑"
  },
  {
    "id": "129846",
    "title": "갤러리 비앤에스",
    "address": "서울특별시 종로구 자하문로 273 (부암동)",
    "phone": "",
    "latitude": "37.5980502858",
    "longitude": "126.9619494147",
    "image": "http://tong.visitkorea.or.kr/cms/resource/25/682325_image2_1.jpg",
    "category": "미술관화랑"
  },
  {
    "id": "129927",
    "title": "갤러리 서림",
    "address": "서울특별시 강남구 학동로 523",
    "phone": "",
    "latitude": "37.5201388076",
    "longitude": "127.0560652706",
    "image": "http://tong.visitkorea.or.kr/cms/resource/72/3413872_image2_1.jpg",
    "category": "미술관화랑"
  },
  {
    "id": "130571",
    "title": "갤러리 스클로",
    "address": "서울특별시 중구 다산로16길 29",
    "phone": "",
    "latitude": "37.5562477360",
    "longitude": "127.0134459064",
    "image": "http://tong.visitkorea.or.kr/cms/resource/92/1894992_image2_1.jpg",
    "category": "미술관화랑"
  },
  {
    "id": "130190",
    "title": "갤러리 시몬",
    "address": "서울특별시 종로구 자하문로6길 20",
    "phone": "",
    "latitude": "37.5780694778",
    "longitude": "126.9732156208",
    "image": "http://tong.visitkorea.or.kr/cms/resource/42/683542_image2_1.jpg",
    "category": "미술관화랑"
  },
  {
    "id": "130617",
    "title": "갤러리 아트사이드",
    "address": "서울특별시 종로구 자하문로6길 15 갤러리 아트싸이드",
    "phone": "",
    "latitude": "37.5783222216",
    "longitude": "126.9729600813",
    "image": "http://tong.visitkorea.or.kr/cms/resource/67/2833067_image2_1.jpg",
    "category": "미술관화랑"
  },
  {
    "id": "129902",
    "title": "갤러리 우림",
    "address": "서울특별시 종로구 인사동10길 18",
    "phone": "",
    "latitude": "37.5742229305",
    "longitude": "126.9859145721",
    "image": "http://tong.visitkorea.or.kr/cms/resource/59/682259_image2_1.jpg",
    "category": "미술관화랑"
  },
  {
    "id": "130583",
    "title": "갤러리 원",
    "address": "서울특별시 강남구 압구정로71길 14",
    "phone": "",
    "latitude": "37.5275211007",
    "longitude": "127.0458882102",
    "image": "http://tong.visitkorea.or.kr/cms/resource/77/683577_image2_1.jpg",
    "category": "미술관화랑"
  },
  {
    "id": "1005620",
    "title": "갤러리 피치",
    "address": "서울특별시 강남구 도산대로87길 25",
    "phone": "",
    "latitude": "37.5263824203",
    "longitude": "127.0501323005",
    "image": "http://tong.visitkorea.or.kr/cms/resource/98/1865698_image2_1.jpg",
    "category": "미술관화랑"
  },
  {
    "id": "129917",
    "title": "갤러리 현대",
    "address": "서울특별시 종로구 삼청로 14",
    "phone": "",
    "latitude": "37.5773002409",
    "longitude": "126.9798039302",
    "image": "http://tong.visitkorea.or.kr/cms/resource/50/1570450_image2_1.jpg",
    "category": "미술관화랑"
  },
  {
    "id": "2642151",
    "title": "갤러리JJ",
    "address": "서울특별시 강남구 압구정로30길 63 (신사동)",
    "phone": "",
    "latitude": "37.5232962909",
    "longitude": "127.0291676299",
    "image": "http://tong.visitkorea.or.kr/cms/resource/88/3558488_image2_1.jpg",
    "category": "미술관화랑"
  },
  {
    "id": "3012741",
    "title": "갤러리도스",
    "address": "서울특별시 종로구 삼청로7길 37 (팔판동)",
    "phone": "",
    "latitude": "37.5838105948",
    "longitude": "126.9797981916",
    "image": "http://tong.visitkorea.or.kr/cms/resource/09/3499809_image2_1.jpg",
    "category": "미술관화랑"
  },
  {
    "id": "130613",
    "title": "갤러리도올",
    "address": "서울특별시 종로구 삼청로 87 (팔판동)",
    "phone": "",
    "latitude": "37.5832773580",
    "longitude": "126.9816952556",
    "image": "http://tong.visitkorea.or.kr/cms/resource/49/3540849_image2_1.jpg",
    "category": "미술관화랑"
  },
  {
    "id": "129922",
    "title": "갤러리미",
    "address": "서울특별시 강남구 압구정로 461 네이처 포엠",
    "phone": "",
    "latitude": "37.5253102705",
    "longitude": "127.0472464824",
    "image": "",
    "category": "미술관화랑"
  },
  {
    "id": "3056315",
    "title": "갤러리미르",
    "address": "서울특별시 종로구 율곡로1길 40 (사간동)",
    "phone": "",
    "latitude": "37.5776613265",
    "longitude": "126.9807316132",
    "image": "http://tong.visitkorea.or.kr/cms/resource/00/3056300_image2_1.jpg",
    "category": "미술관화랑"
  },
  {
    "id": "749479",
    "title": "갤러리박영",
    "address": "경기도 파주시 회동길 37-9 (문발동)",
    "phone": "",
    "latitude": "37.7057883439",
    "longitude": "126.6843245076",
    "image": "http://tong.visitkorea.or.kr/cms/resource/26/3540626_image2_1.jpg",
    "category": "미술관화랑"
  },
  {
    "id": "2834026",
    "title": "갤러리이알디 부산",
    "address": "부산광역시 해운대구 해운대해변로 302 (중동, 대림맨션)",
    "phone": "070-4115-0419",
    "latitude": "35.1610686425",
    "longitude": "129.1639936365",
    "image": "http://tong.visitkorea.or.kr/cms/resource/60/2836060_image2_1.jpg",
    "category": "미술관화랑"
  },
  {
    "id": "745781",
    "title": "갤러리정",
    "address": "서울특별시 종로구 경희궁2길 12",
    "phone": "",
    "latitude": "37.5728728270",
    "longitude": "126.9713937114",
    "image": "http://tong.visitkorea.or.kr/cms/resource/65/696665_image2_1.jpg",
    "category": "미술관화랑"
  },
  {
    "id": "130587",
    "title": "갤러리조선",
    "address": "서울특별시 종로구 북촌로5길 64 (소격동)",
    "phone": "",
    "latitude": "37.5799860694",
    "longitude": "126.9814787020",
    "image": "http://tong.visitkorea.or.kr/cms/resource/77/3540977_image2_1.jpg",
    "category": "미술관화랑"
  },
  {
    "id": "3334621",
    "title": "갤러리현",
    "address": "충청남도 천안시 동남구 봉정로 17-1 (봉명동)",
    "phone": "",
    "latitude": "36.8038481123",
    "longitude": "127.1390416260",
    "image": "http://tong.visitkorea.or.kr/cms/resource/06/3334606_image2_1.jpg",
    "category": "미술관화랑"
  },
  {
    "id": "774675",
    "title": "겸재정선미술관",
    "address": "서울특별시 강서구 양천로47길 36",
    "phone": "",
    "latitude": "37.5722816289",
    "longitude": "126.8384725160",
    "image": "http://tong.visitkorea.or.kr/cms/resource/83/3526783_image2_1.jpg",
    "category": "미술관화랑"
  },
  {
    "id": "631278",
    "title": "경기도미술관",
    "address": "경기도 안산시 단원구 동산로 268 (초지동)",
    "phone": "",
    "latitude": "37.3260402758",
    "longitude": "126.8101236514",
    "image": "http://tong.visitkorea.or.kr/cms/resource/36/3020536_image2_1.jpg",
    "category": "미술관화랑"
  },
  {
    "id": "130360",
    "title": "경기생활도자미술관",
    "address": "경기도 여주시 신륵사길 7 (천송동)",
    "phone": "",
    "latitude": "37.3001807187",
    "longitude": "127.6545006058",
    "image": "http://tong.visitkorea.or.kr/cms/resource/93/3517293_image2_1.JPG",
    "category": "미술관화랑"
  },
  {
    "id": "1622590",
    "title": "경남도립미술관",
    "address": "경상남도 창원시 의창구 용지로 296 (퇴촌동)",
    "phone": "",
    "latitude": "35.2395039295",
    "longitude": "128.6908827248",
    "image": "http://tong.visitkorea.or.kr/cms/resource/81/3050281_image2_1.JPG",
    "category": "미술관화랑"
  },
  {
    "id": "3089983",
    "title": "경북대학교 미술관",
    "address": "대구광역시 북구 대학로 80 (산격동)",
    "phone": "",
    "latitude": "19.6944274800",
    "longitude": "117.9925662504",
    "image": "http://tong.visitkorea.or.kr/cms/resource/77/3089977_image2_1.JPG",
    "category": "미술관화랑"
  },
  {
    "id": "130278",
    "title": "경인미술관",
    "address": "서울특별시 종로구 인사동10길 11-4 (관훈동)",
    "phone": "",
    "latitude": "37.5743979023",
    "longitude": "126.9854896059",
    "image": "http://tong.visitkorea.or.kr/cms/resource/34/3499034_image2_1.jpg",
    "category": "미술관화랑"
  },
  {
    "id": "2892126",
    "title": "고양아람누리 아람미술관",
    "address": "경기도 고양시 일산동구 중앙로 1286 고양아람누리",
    "phone": "",
    "latitude": "37.6610284652",
    "longitude": "126.7728121221",
    "image": "http://tong.visitkorea.or.kr/cms/resource/17/2892117_image2_1.jpg",
    "category": "미술관화랑"
  },
  {
    "id": "3028653",
    "title": "고은사진미술관",
    "address": "부산광역시 해운대구 해운대로452번길 16 (우동)",
    "phone": "",
    "latitude": "35.1633401888",
    "longitude": "129.1412316641",
    "image": "http://tong.visitkorea.or.kr/cms/resource/86/3492486_image2_1.jpg",
    "category": "미술관화랑"
  },
  {
    "id": "2739448",
    "title": "공근혜갤러리",
    "address": "서울특별시 종로구 삼청로7길 38 (삼청동)",
    "phone": "",
    "latitude": "37.5840827831",
    "longitude": "126.9796815273",
    "image": "http://tong.visitkorea.or.kr/cms/resource/86/3095786_image2_1.jpg",
    "category": "미술관화랑"
  },
  {
    "id": "2773530",
    "title": "공립인제내설악미술관",
    "address": "강원특별자치도 인제군 북면 예술인촌길 66-12",
    "phone": "",
    "latitude": "38.1455549761",
    "longitude": "128.2533294992",
    "image": "http://tong.visitkorea.or.kr/cms/resource/43/3340443_image2_1.jpg",
    "category": "미술관화랑"
  },
  {
    "id": "2034106",
    "title": "광명업사이클아트센터",
    "address": "경기도 광명시 오리로 703 (하안동)",
    "phone": "",
    "latitude": "37.4625588826",
    "longitude": "126.8729446789",
    "image": "http://tong.visitkorea.or.kr/cms/resource/57/3567457_image2_1.jpg",
    "category": "미술관화랑"
  },
  {
    "id": "130497",
    "title": "광주 의재미술관",
    "address": "광주광역시 동구 증심사길 155",
    "phone": "",
    "latitude": "35.1293610269",
    "longitude": "126.9674147855",
    "image": "http://tong.visitkorea.or.kr/cms/resource/18/3401718_image2_1.jpg",
    "category": "미술관화랑"
  },
  {
    "id": "3029365",
    "title": "광주광역시미디어아트플랫폼 GMAP",
    "address": "광주광역시 남구 천변좌로338번길 10 (구동)",
    "phone": "",
    "latitude": "35.1484662215",
    "longitude": "126.9093472161",
    "image": "http://tong.visitkorea.or.kr/cms/resource/38/3029338_image2_1.jpg",
    "category": "미술관화랑"
  },
  {
    "id": "129761",
    "title": "광주시립미술관",
    "address": "광주광역시 북구 하서로 52",
    "phone": "",
    "latitude": "35.1832174547",
    "longitude": "126.8858428681",
    "image": "http://tong.visitkorea.or.kr/cms/resource/11/3368411_image2_1.jpg",
    "category": "미술관화랑"
  },
  {
    "id": "3056560",
    "title": "교동 미술관",
    "address": "전북특별자치도 전주시 완산구 경기전길 89 (풍남동3가)",
    "phone": "",
    "latitude": "35.8155308719",
    "longitude": "127.1511503614",
    "image": "http://tong.visitkorea.or.kr/cms/resource/57/3053757_image2_1.jpg",
    "category": "미술관화랑"
  },
  {
    "id": "2439216",
    "title": "구하우스미술관",
    "address": "경기도 양평군 서종면 무내미길 49-12",
    "phone": "",
    "latitude": "37.6029928700",
    "longitude": "127.3514388065",
    "image": "http://tong.visitkorea.or.kr/cms/resource/25/3505325_image2_1.jpg",
    "category": "미술관화랑"
  },
  {
    "id": "129764",
    "title": "국립현대미술관 과천",
    "address": "경기도 과천시 광명로 313 (막계동)",
    "phone": "",
    "latitude": "37.4310262810",
    "longitude": "127.0199877382",
    "image": "http://tong.visitkorea.or.kr/cms/resource/58/3565358_image2_1.jpg",
    "category": "미술관화랑"
  },
  {
    "id": "130173",
    "title": "국립현대미술관 덕수궁",
    "address": "서울특별시 중구 세종대로 99",
    "phone": "",
    "latitude": "37.5657876002",
    "longitude": "126.9748047119",
    "image": "http://tong.visitkorea.or.kr/cms/resource/04/2991504_image2_1.jpg",
    "category": "미술관화랑"
  },
  {
    "id": "1934593",
    "title": "국립현대미술관 서울",
    "address": "서울특별시 종로구 삼청로 30",
    "phone": "",
    "latitude": "37.5786500878",
    "longitude": "126.9800038741",
    "image": "http://tong.visitkorea.or.kr/cms/resource/02/2991502_image2_1.jpg",
    "category": "미술관화랑"
  },
  {
    "id": "2598367",
    "title": "국립현대미술관 청주",
    "address": "충청북도 청주시 청원구 상당로 314",
    "phone": "",
    "latitude": "36.6555769823",
    "longitude": "127.4902363546",
    "image": "http://tong.visitkorea.or.kr/cms/resource/79/3352579_image2_1.jpg",
    "category": "미술관화랑"
  },
  {
    "id": "129918",
    "title": "국제갤러리",
    "address": "서울특별시 종로구 삼청로 54 (소격동)",
    "phone": "",
    "latitude": "37.5807887397",
    "longitude": "126.9806426439",
    "image": "http://tong.visitkorea.or.kr/cms/resource/32/3384832_image2_1.JPG",
    "category": "미술관화랑"
  },
  {
    "id": "798017",
    "title": "국제현대미술관",
    "address": "강원특별자치도 영월군 영월읍 삼옥길 31",
    "phone": "",
    "latitude": "37.2084849770",
    "longitude": "128.5069487574",
    "image": "http://tong.visitkorea.or.kr/cms/resource/10/3557210_image2_1.JPG",
    "category": "미술관화랑"
  },
  {
    "id": "130905",
    "title": "군립 청송야송미술관",
    "address": "경상북도 청송군 진보면 경동로 5162",
    "phone": "",
    "latitude": "36.5057104332",
    "longitude": "129.1198648846",
    "image": "http://tong.visitkorea.or.kr/cms/resource/78/3407578_image2_1.jpg",
    "category": "미술관화랑"
  },
  {
    "id": "2778062",
    "title": "그림책미술관",
    "address": "전북특별자치도 완주군 삼례읍 삼례역로 48",
    "phone": "",
    "latitude": "35.9082549885",
    "longitude": "127.0681414389",
    "image": "http://tong.visitkorea.or.kr/cms/resource/24/3561824_image2_1.jpg",
    "category": "미술관화랑"
  },
  {
    "id": "3304212",
    "title": "글래드스톤 갤러리",
    "address": "서울특별시 강남구 삼성로 760 (청담동)",
    "phone": "",
    "latitude": "37.5228189148",
    "longitude": "127.0484408888",
    "image": "http://tong.visitkorea.or.kr/cms/resource/00/3304200_image2_1.jpg",
    "category": "미술관화랑"
  },
  {
    "id": "252581",
    "title": "금구원야외조각미술관",
    "address": "전북특별자치도 부안군 변산면 조각공원길 31",
    "phone": "",
    "latitude": "35.6206084081",
    "longitude": "126.4888782492",
    "image": "http://tong.visitkorea.or.kr/cms/resource/26/3375126_image2_1.JPG",
    "category": "미술관화랑"
  },
  {
    "id": "3085035",
    "title": "금보성아트센터",
    "address": "서울특별시 종로구 평창36길 20 (평창동)",
    "phone": "",
    "latitude": "37.6126738756",
    "longitude": "126.9780891951",
    "image": "http://tong.visitkorea.or.kr/cms/resource/53/3084453_image2_1.JPG",
    "category": "미술관화랑"
  },
  {
    "id": "130302",
    "title": "금호미술관",
    "address": "서울특별시 종로구 삼청로 18 (사간동)",
    "phone": "",
    "latitude": "37.5775196623",
    "longitude": "126.9799289128",
    "image": "http://tong.visitkorea.or.kr/cms/resource/12/3493912_image2_1.jpg",
    "category": "미술관화랑"
  },
  {
    "id": "736915",
    "title": "김리아 갤러리",
    "address": "서울특별시 강남구 압구정로75길 5 리아빌딩",
    "phone": "",
    "latitude": "37.5264129138",
    "longitude": "127.0468687076",
    "image": "http://tong.visitkorea.or.kr/cms/resource/01/3565301_image2_1.jpg",
    "category": "미술관화랑"
  },
  {
    "id": "3080721",
    "title": "김세중미술관",
    "address": "서울특별시 용산구 효창원로70길 35 (효창동)",
    "phone": "",
    "latitude": "37.5420707165",
    "longitude": "126.9638980442",
    "image": "http://tong.visitkorea.or.kr/cms/resource/20/3080720_image2_1.JPG",
    "category": "미술관화랑"
  },
  {
    "id": "130723",
    "title": "김영갑갤러리두모악",
    "address": "제주특별자치도 서귀포시 성산읍 삼달로 137",
    "phone": "",
    "latitude": "33.3724080600",
    "longitude": "126.8542667942",
    "image": "http://tong.visitkorea.or.kr/cms/resource/57/3548157_image2_1.jpg",
    "category": "미술관화랑"
  },
  {
    "id": "130623",
    "title": "김종영미술관",
    "address": "서울특별시 종로구 평창32길 30 (평창동)",
    "phone": "",
    "latitude": "37.6130765980",
    "longitude": "126.9776031169",
    "image": "http://tong.visitkorea.or.kr/cms/resource/96/3497596_image2_1.jpg",
    "category": "미술관화랑"
  },
  {
    "id": "2798046",
    "title": "김택화 미술관",
    "address": "제주특별자치도 제주시 조천읍 신흥로 1",
    "phone": "",
    "latitude": "33.5437886593",
    "longitude": "126.6531914254",
    "image": "http://tong.visitkorea.or.kr/cms/resource/71/3552971_image2_1.jpg",
    "category": "미술관화랑"
  },
  {
    "id": "2633971",
    "title": "김포 아트빌리지",
    "address": "경기도 김포시 모담공원로 170 (운양동)",
    "phone": "",
    "latitude": "37.6466871063",
    "longitude": "126.6962278583",
    "image": "http://tong.visitkorea.or.kr/cms/resource/68/3527768_image2_1.jpg",
    "category": "미술관화랑"
  },
  {
    "id": "130585",
    "title": "김현주 갤러리",
    "address": "서울특별시 종로구 삼청로7길 19-9 (팔판동)",
    "phone": "",
    "latitude": "37.5835523128",
    "longitude": "126.9809925343",
    "image": "http://tong.visitkorea.or.kr/cms/resource/68/3526468_image2_1.jpg",
    "category": "미술관화랑"
  },
  {
    "id": "2615563",
    "title": "김홍도미술관",
    "address": "경기도 안산시 상록구 충장로 422 (성포동)",
    "phone": "",
    "latitude": "37.3153172538",
    "longitude": "126.8516007328",
    "image": "http://tong.visitkorea.or.kr/cms/resource/14/3060314_image2_1.jpg",
    "category": "미술관화랑"
  },
  {
    "id": "589639",
    "title": "나절로미술관",
    "address": "전라남도 진도군 임회면 진도대로 3886",
    "phone": "",
    "latitude": "34.3827548713",
    "longitude": "126.2185100254",
    "image": "",
    "category": "미술관화랑"
  },
  {
    "id": "2492782",
    "title": "나폴레옹갤러리",
    "address": "경기도 성남시 분당구 대왕판교로645번길 36 (삼평동)",
    "phone": "",
    "latitude": "37.4004313031",
    "longitude": "127.1021033592",
    "image": "http://tong.visitkorea.or.kr/cms/resource/68/3057668_image2_1.jpg",
    "category": "미술관화랑"
  },
  {
    "id": "129900",
    "title": "나화랑",
    "address": "서울특별시 은평구 연서로29길 34-14 (갈현동)",
    "phone": "",
    "latitude": "37.6205440893",
    "longitude": "126.9171584188",
    "image": "http://tong.visitkorea.or.kr/cms/resource/75/683375_image2_1.jpg",
    "category": "미술관화랑"
  },
  {
    "id": "3081684",
    "title": "남도전통미술관",
    "address": "전라남도 진도군 의신면 운림산방로 315",
    "phone": "",
    "latitude": "34.4659136377",
    "longitude": "126.3068891812",
    "image": "http://tong.visitkorea.or.kr/cms/resource/81/3081681_image2_1.jpg",
    "category": "미술관화랑"
  },
  {
    "id": "1060264",
    "title": "남송미술관",
    "address": "경기도 가평군 북면 백둔로 322",
    "phone": "",
    "latitude": "37.9044989120",
    "longitude": "127.4722273608",
    "image": "http://tong.visitkorea.or.kr/cms/resource/75/3503075_image2_1.jpg",
    "category": "미술관화랑"
  },
  {
    "id": "2559504",
    "title": "남원시립김병종미술관",
    "address": "전북특별자치도 남원시 함파우길 65-14",
    "phone": "",
    "latitude": "35.3986961712",
    "longitude": "127.3895706212",
    "image": "http://tong.visitkorea.or.kr/cms/resource/84/2639784_image2_1.jpg",
    "category": "미술관화랑"
  },
  {
    "id": "130913",
    "title": "남포미술관",
    "address": "전라남도 고흥군 영남면 팔영로 1081",
    "phone": "",
    "latitude": "34.6037034299",
    "longitude": "127.4572293239",
    "image": "http://tong.visitkorea.or.kr/cms/resource/24/3552724_image2_1.jpg",
    "category": "미술관화랑"
  },
  {
    "id": "1835658",
    "title": "내설악 백공미술관",
    "address": "강원특별자치도 인제군 북면 황태길 245",
    "phone": "",
    "latitude": "38.2133102871",
    "longitude": "128.3621480618",
    "image": "http://tong.visitkorea.or.kr/cms/resource/95/3502895_image2_1.jpg",
    "category": "미술관화랑"
  },
  {
    "id": "3035442",
    "title": "네오아트센터",
    "address": "충청북도 청주시 상당구 수암로 37 (수동)",
    "phone": "",
    "latitude": "36.6454976597",
    "longitude": "127.4944779196",
    "image": "http://tong.visitkorea.or.kr/cms/resource/63/3035363_image2_1.jpg",
    "category": "미술관화랑"
  },
  {
    "id": "2791411",
    "title": "노고갤러리(구 가평요)",
    "address": "강원특별자치도 홍천군 서면 길곡길 29",
    "phone": "",
    "latitude": "37.6773469987",
    "longitude": "127.5927813762",
    "image": "http://tong.visitkorea.or.kr/cms/resource/76/2795276_image2_1.jpg",
    "category": "미술관화랑"
  },
  {
    "id": "3006199",
    "title": "노랑다리미술관",
    "address": "경기도 가평군 청평면 양진길 42-12",
    "phone": "",
    "latitude": "37.7177625679",
    "longitude": "127.4865481897",
    "image": "http://tong.visitkorea.or.kr/cms/resource/95/3001795_image2_1.JPG",
    "category": "미술관화랑"
  },
  {
    "id": "2740014",
    "title": "노형수퍼마켙",
    "address": "제주특별자치도 제주시 노형로 89",
    "phone": "",
    "latitude": "33.4650081095",
    "longitude": "126.4552187560",
    "image": "http://tong.visitkorea.or.kr/cms/resource/82/3350682_image2_1.jpg",
    "category": "미술관화랑"
  },
  {
    "id": "129906",
    "title": "노화랑",
    "address": "서울특별시 종로구 인사동길 54 (관훈동)",
    "phone": "",
    "latitude": "37.5749144842",
    "longitude": "126.9841008290",
    "image": "http://tong.visitkorea.or.kr/cms/resource/00/3505700_image2_1.jpg",
    "category": "미술관화랑"
  },
  {
    "id": "130624",
    "title": "다보성 갤러리",
    "address": "서울특별시 종로구 삼일대로 457 (경운동)",
    "phone": "",
    "latitude": "37.5752617096",
    "longitude": "126.9865255983",
    "image": "http://tong.visitkorea.or.kr/cms/resource/61/3334161_image2_1.jpg",
    "category": "미술관화랑"
  },
  {
    "id": "130268",
    "title": "당림미술관",
    "address": "충청남도 아산시 송악면 외암로1182번길 34-19",
    "phone": "",
    "latitude": "36.7427780122",
    "longitude": "127.0186791433",
    "image": "http://tong.visitkorea.or.kr/cms/resource/97/3567397_image2_1.jpg",
    "category": "미술관화랑"
  },
  {
    "id": "2737289",
    "title": "닻미술관",
    "address": "경기도 광주시 초월읍 진새골길 184",
    "phone": "",
    "latitude": "37.3801728089",
    "longitude": "127.2710330408",
    "image": "http://tong.visitkorea.or.kr/cms/resource/73/2973673_image2_1.jpg",
    "category": "미술관화랑"
  },
  {
    "id": "3397707",
    "title": "대구간송미술관",
    "address": "대구광역시 수성구 미술관로 70 (삼덕동)",
    "phone": "",
    "latitude": "35.8281317695",
    "longitude": "128.6762067295",
    "image": "http://tong.visitkorea.or.kr/cms/resource/05/3401505_image2_1.jpg",
    "category": "미술관화랑"
  },
  {
    "id": "1856967",
    "title": "대구미술관",
    "address": "대구광역시 수성구 미술관로 40 대구미술관",
    "phone": "",
    "latitude": "35.8270707445",
    "longitude": "128.6743652541",
    "image": "http://tong.visitkorea.or.kr/cms/resource/83/3081383_image2_1.jpg",
    "category": "미술관화랑"
  },
  {
    "id": "130459",
    "title": "대림미술관",
    "address": "서울특별시 종로구 자하문로4길 21 (통의동)",
    "phone": "",
    "latitude": "37.5775417643",
    "longitude": "126.9733711769",
    "image": "http://tong.visitkorea.or.kr/cms/resource/57/3571557_image2_1.jpg",
    "category": "미술관화랑"
  },
  {
    "id": "130625",
    "title": "대백프라자갤러리",
    "address": "대구광역시 중구 명덕로 333",
    "phone": "",
    "latitude": "35.8558412344",
    "longitude": "128.6063954369",
    "image": "http://tong.visitkorea.or.kr/cms/resource/63/3376063_image2_1.jpg",
    "category": "미술관화랑"
  },
  {
    "id": "130626",
    "title": "대산미술관",
    "address": "경상남도 창원시 의창구 대산면 유등로369번길 14-8",
    "phone": "",
    "latitude": "35.3451430350",
    "longitude": "128.7440974261",
    "image": "http://tong.visitkorea.or.kr/cms/resource/83/3077383_image2_1.jpg",
    "category": "미술관화랑"
  },
  {
    "id": "130348",
    "title": "대안공간 루프",
    "address": "서울특별시 마포구 와우산로29나길 20",
    "phone": "",
    "latitude": "37.5544630750",
    "longitude": "126.9278315359",
    "image": "http://tong.visitkorea.or.kr/cms/resource/81/3542581_image2_1.jpg",
    "category": "미술관화랑"
  },
  {
    "id": "130551",
    "title": "대전시립미술관",
    "address": "대전광역시 서구 둔산대로 155",
    "phone": "",
    "latitude": "36.3670359598",
    "longitude": "127.3857230693",
    "image": "",
    "category": "미술관화랑"
  },
  {
    "id": "736766",
    "title": "더페이지갤러리",
    "address": "서울특별시 성동구 서울숲2길 32-14 (성수동1가, 갤러리아 포레)",
    "phone": "",
    "latitude": "37.5455245178",
    "longitude": "127.0432601616",
    "image": "http://tong.visitkorea.or.kr/cms/resource/89/2368189_image2_1.JPG",
    "category": "미술관화랑"
  },
  {
    "id": "3083369",
    "title": "도시파빌리온",
    "address": "부산광역시 수영구 광남로94번길 6 (광안동)",
    "phone": "",
    "latitude": "35.1501411786",
    "longitude": "129.1148759853",
    "image": "http://tong.visitkorea.or.kr/cms/resource/61/3083361_image2_1.jpg",
    "category": "미술관화랑"
  },
  {
    "id": "1944709",
    "title": "도자기체험미술관 비즘",
    "address": "경기도 양평군 서종면 황순원로 165",
    "phone": "",
    "latitude": "37.5954943217",
    "longitude": "127.3832777945",
    "image": "http://tong.visitkorea.or.kr/cms/resource/41/3392241_image2_1.jpg",
    "category": "미술관화랑"
  },
  {
    "id": "130582",
    "title": "도화헌미술관",
    "address": "전라남도 고흥군 도화면 땅끝로 860-5",
    "phone": "",
    "latitude": "34.4490462833",
    "longitude": "127.3266001359",
    "image": "http://tong.visitkorea.or.kr/cms/resource/45/3552745_image2_1.jpg",
    "category": "미술관화랑"
  },
  {
    "id": "3442492",
    "title": "동곡미술관",
    "address": "광주광역시 광산구 어등대로529번길 37 (운수동)",
    "phone": "",
    "latitude": "35.1551354744",
    "longitude": "126.7778586788",
    "image": "http://tong.visitkorea.or.kr/cms/resource/30/3442530_image2_1.JPG",
    "category": "미술관화랑"
  },
  {
    "id": "130155",
    "title": "동덕아트갤러리",
    "address": "서울특별시 종로구 우정국로 68 동덕빌딩",
    "phone": "",
    "latitude": "37.5749894618",
    "longitude": "126.9833314524",
    "image": "http://tong.visitkorea.or.kr/cms/resource/69/3048969_image2_1.JPG",
    "category": "미술관화랑"
  },
  {
    "id": "129903",
    "title": "동산방화랑",
    "address": "서울특별시 종로구 인사동9길 35 (견지동)",
    "phone": "",
    "latitude": "37.5729813628",
    "longitude": "126.9833898373",
    "image": "http://tong.visitkorea.or.kr/cms/resource/70/3478570_image2_1.jpg",
    "category": "미술관화랑"
  },
  {
    "id": "2554094",
    "title": "동아방송예술대학교 DIMA아트센터",
    "address": "경기도 안성시 삼죽면 동아예대길 47",
    "phone": "",
    "latitude": "37.0599974995",
    "longitude": "127.3575620273",
    "image": "http://tong.visitkorea.or.kr/cms/resource/39/3382939_image2_1.jpg",
    "category": "미술관화랑"
  },
  {
    "id": "129932",
    "title": "동원화랑",
    "address": "대구광역시 중구 봉산문화길 42",
    "phone": "",
    "latitude": "35.8620126066",
    "longitude": "128.5981626570",
    "image": "http://tong.visitkorea.or.kr/cms/resource/56/3573356_image2_1.jpg",
    "category": "미술관화랑"
  },
  {
    "id": "509267",
    "title": "두산갤러리",
    "address": "서울특별시 종로구 종로33길 15 (연지동)",
    "phone": "",
    "latitude": "37.5718651424",
    "longitude": "127.0010160404",
    "image": "http://tong.visitkorea.or.kr/cms/resource/25/3481925_image2_1.jpg",
    "category": "미술관화랑"
  },
  {
    "id": "2751586",
    "title": "드림아트스페이스",
    "address": "경기도 화성시 매송면 어사로 279",
    "phone": "",
    "latitude": "37.2744954503",
    "longitude": "126.9215705108",
    "image": "http://tong.visitkorea.or.kr/cms/resource/44/3566844_image2_1.jpg",
    "category": "미술관화랑"
  },
  {
    "id": "3380328",
    "title": "드영미술관",
    "address": "광주광역시 동구 성촌길 6 (운림동)",
    "phone": "",
    "latitude": "35.1344824286",
    "longitude": "126.9531186981",
    "image": "http://tong.visitkorea.or.kr/cms/resource/61/3510761_image2_1.jpg",
    "category": "미술관화랑"
  },
  {
    "id": "3084400",
    "title": "뚝섬미술관",
    "address": "서울특별시 성동구 아차산로 33 (성수동1가)",
    "phone": "",
    "latitude": "37.5472605187",
    "longitude": "127.0483485375",
    "image": "http://tong.visitkorea.or.kr/cms/resource/15/3084115_image2_1.JPG",
    "category": "미술관화랑"
  },
  {
    "id": "1845434",
    "title": "래미안 갤러리",
    "address": "서울특별시 송파구 충민로 17 (문정동)",
    "phone": "",
    "latitude": "37.4793058119",
    "longitude": "127.1201550417",
    "image": "http://tong.visitkorea.or.kr/cms/resource/37/3384437_image2_1.JPG",
    "category": "미술관화랑"
  },
  {
    "id": "2553395",
    "title": "리각미술관",
    "address": "충청남도 천안시 동남구 태조산길 245 (유량동)",
    "phone": "",
    "latitude": "36.8203970571",
    "longitude": "127.1868618617",
    "image": "http://tong.visitkorea.or.kr/cms/resource/22/3337022_image2_1.JPG",
    "category": "미술관화랑"
  },
  {
    "id": "130525",
    "title": "리움미술관",
    "address": "서울특별시 용산구 이태원로55길 60-16 (한남동)",
    "phone": "",
    "latitude": "37.5386022957",
    "longitude": "126.9985088777",
    "image": "",
    "category": "미술관화랑"
  },
  {
    "id": "631478",
    "title": "마나스아트센터",
    "address": "경기도 양평군 강상면 강남로 743",
    "phone": "",
    "latitude": "37.4937131032",
    "longitude": "127.4608736804",
    "image": "http://tong.visitkorea.or.kr/cms/resource/48/3392248_image2_1.jpg",
    "category": "미술관화랑"
  },
  {
    "id": "2659216",
    "title": "마산현대미술관",
    "address": "경상남도 창원시 마산합포구 진전면 팔의사로 361",
    "phone": "",
    "latitude": "35.1269971188",
    "longitude": "128.3840431148",
    "image": "http://tong.visitkorea.or.kr/cms/resource/29/3510429_image2_1.jpg",
    "category": "미술관화랑"
  },
  {
    "id": "3085045",
    "title": "매직플로우",
    "address": "경기도 고양시 덕양구 고양대로 1955 (동산동)",
    "phone": "",
    "latitude": "37.6470294966",
    "longitude": "126.8947930433",
    "image": "http://tong.visitkorea.or.kr/cms/resource/37/3085037_image2_1.JPG",
    "category": "미술관화랑"
  },
  {
    "id": "129909",
    "title": "모던화랑",
    "address": "서울특별시 종로구 인사동10길 4 (관훈동)",
    "phone": "",
    "latitude": "37.5740368313",
    "longitude": "126.9853729601",
    "image": "http://tong.visitkorea.or.kr/cms/resource/74/3526774_image2_1.jpg",
    "category": "미술관화랑"
  },
  {
    "id": "129770",
    "title": "모란미술관",
    "address": "경기도 남양주시 화도읍 경춘로2110번길 8",
    "phone": "",
    "latitude": "37.6504063015",
    "longitude": "127.3237482921",
    "image": "http://tong.visitkorea.or.kr/cms/resource/21/1589421_image2_1.jpg",
    "category": "미술관화랑"
  },
  {
    "id": "130279",
    "title": "모인화랑",
    "address": "서울특별시 종로구 인사동10길 13 (관훈동)",
    "phone": "",
    "latitude": "37.5743951298",
    "longitude": "126.9857368058",
    "image": "http://tong.visitkorea.or.kr/cms/resource/28/3529828_image2_1.jpg",
    "category": "미술관화랑"
  },
  {
    "id": "2773563",
    "title": "목공예 갤러리",
    "address": "강원특별자치도 인제군 인제읍 비봉로 52",
    "phone": "",
    "latitude": "38.0645156780",
    "longitude": "128.1742891709",
    "image": "http://tong.visitkorea.or.kr/cms/resource/04/3502904_image2_1.jpg",
    "category": "미술관화랑"
  },
  {
    "id": "2754453",
    "title": "못난이미술관",
    "address": "전라남도 무안군 일로읍 상사바위길 125",
    "phone": "",
    "latitude": "34.7835062881",
    "longitude": "126.5115663325",
    "image": "http://tong.visitkorea.or.kr/cms/resource/14/3535514_image2_1.jpg",
    "category": "미술관화랑"
  },
  {
    "id": "130117",
    "title": "무등갤러리",
    "address": "광주광역시 동구 예술길 18-1 (궁동)",
    "phone": "",
    "latitude": "35.1501300710",
    "longitude": "126.9181713943",
    "image": "http://tong.visitkorea.or.kr/cms/resource/87/3542587_image2_1.jpg",
    "category": "미술관화랑"
  },
  {
    "id": "2555853",
    "title": "무등현대미술관",
    "address": "광주광역시 동구 증심사길 9",
    "phone": "",
    "latitude": "35.1341630308",
    "longitude": "126.9537047651",
    "image": "http://tong.visitkorea.or.kr/cms/resource/77/3366777_image2_1.jpg",
    "category": "미술관화랑"
  },
  {
    "id": "2996607",
    "title": "무안군 오승우미술관",
    "address": "전라남도 무안군 초의길 7 무안군오승우미술관",
    "phone": "",
    "latitude": "34.8526302522",
    "longitude": "126.4152537245",
    "image": "http://tong.visitkorea.or.kr/cms/resource/75/3533775_image2_1.jpg",
    "category": "미술관화랑"
  },
  {
    "id": "129937",
    "title": "미술관 솔",
    "address": "전북특별자치도 전주시 완산구 팔달로 212-6 (경원동3가)",
    "phone": "",
    "latitude": "35.8211579287",
    "longitude": "127.1464784084",
    "image": "http://tong.visitkorea.or.kr/cms/resource/86/3541786_image2_1.jpg",
    "category": "미술관화랑"
  },
  {
    "id": "2613675",
    "title": "미술관 자작나무숲",
    "address": "강원특별자치도 횡성군 우천면 한우로두곡5길 186",
    "phone": "",
    "latitude": "37.4928157794",
    "longitude": "128.0500759185",
    "image": "",
    "category": "미술관화랑"
  },
  {
    "id": "130627",
    "title": "밀알미술관",
    "address": "서울특별시 강남구 일원로 90",
    "phone": "",
    "latitude": "37.4860793454",
    "longitude": "127.0823082922",
    "image": "",
    "category": "미술관화랑"
  },
  {
    "id": "2835583",
    "title": "바라캇 서울",
    "address": "서울특별시 종로구 삼청로 58-4",
    "phone": "",
    "latitude": "37.5809165029",
    "longitude": "126.9806676381",
    "image": "http://tong.visitkorea.or.kr/cms/resource/68/2835568_image2_1.jpg",
    "category": "미술관화랑"
  },
  {
    "id": "130510",
    "title": "바람흔적미술관",
    "address": "경상남도 남해군 삼동면 금암로 519-4",
    "phone": "",
    "latitude": "34.7623230578",
    "longitude": "128.0122101408",
    "image": "http://tong.visitkorea.or.kr/cms/resource/14/3558614_image2_1.jpg",
    "category": "미술관화랑"
  },
  {
    "id": "2739454",
    "title": "박노수미술관",
    "address": "서울특별시 종로구 옥인1길 34 (옥인동)",
    "phone": "",
    "latitude": "37.5813717571",
    "longitude": "126.9668327756",
    "image": "http://tong.visitkorea.or.kr/cms/resource/02/3350702_image2_1.jpg",
    "category": "미술관화랑"
  },
  {
    "id": "130493",
    "title": "박수근미술관",
    "address": "강원특별자치도 양구군 양구읍 박수근로 265-15",
    "phone": "",
    "latitude": "38.0962972045",
    "longitude": "127.9815974137",
    "image": "http://tong.visitkorea.or.kr/cms/resource/78/3533378_image2_1.jpg",
    "category": "미술관화랑"
  },
  {
    "id": "130628",
    "title": "박여숙화랑",
    "address": "서울특별시 용산구 소월로38길 30-34",
    "phone": "",
    "latitude": "37.5441515030",
    "longitude": "126.9902678047",
    "image": "http://tong.visitkorea.or.kr/cms/resource/08/3542608_image2_1.jpg",
    "category": "미술관화랑"
  },
  {
    "id": "631003",
    "title": "백남준아트센터",
    "address": "경기도 용인시 기흥구 백남준로 10",
    "phone": "",
    "latitude": "37.2691966555",
    "longitude": "127.1103451939",
    "image": "http://tong.visitkorea.or.kr/cms/resource/70/3020970_image2_1.jpg",
    "category": "미술관화랑"
  },
  {
    "id": "130629",
    "title": "백악미술관",
    "address": "서울특별시 종로구 인사동9길 16",
    "phone": "",
    "latitude": "37.5736340780",
    "longitude": "126.9841258628",
    "image": "http://tong.visitkorea.or.kr/cms/resource/44/682344_image2_1.jpg",
    "category": "미술관화랑"
  },
  {
    "id": "130630",
    "title": "백해영갤러리",
    "address": "서울특별시 용산구 이태원로27길 77",
    "phone": "",
    "latitude": "37.5365108065",
    "longitude": "126.9948592690",
    "image": "http://tong.visitkorea.or.kr/cms/resource/39/1865339_image2_1.jpg",
    "category": "미술관화랑"
  },
  {
    "id": "2398146",
    "title": "백향꽃누르미갤러리",
    "address": "경기도 광주시 도척면 얼음골길19번길 33",
    "phone": "",
    "latitude": "37.3271184925",
    "longitude": "127.3070257279",
    "image": "http://tong.visitkorea.or.kr/cms/resource/51/2398151_image2_1.JPG",
    "category": "미술관화랑"
  },
  {
    "id": "2666913",
    "title": "벗이미술관",
    "address": "경기도 용인시 처인구 양지면 학촌로53번길 4",
    "phone": "",
    "latitude": "37.2414644274",
    "longitude": "127.3022008122",
    "image": "http://tong.visitkorea.or.kr/cms/resource/11/3582611_image2_1.jpg",
    "category": "미술관화랑"
  },
  {
    "id": "2550763",
    "title": "보름산미술관",
    "address": "경기도 김포시 고촌읍 수기로 100-78",
    "phone": "",
    "latitude": "37.5961913473",
    "longitude": "126.7604734067",
    "image": "http://tong.visitkorea.or.kr/cms/resource/64/3467364_image2_1.JPG",
    "category": "미술관화랑"
  },
  {
    "id": "130113",
    "title": "보성군립 백민미술관",
    "address": "전라남도 보성군 문덕면 죽산길 168-14",
    "phone": "061-853-0003",
    "latitude": "34.9669326036",
    "longitude": "127.1601129765",
    "image": "http://tong.visitkorea.or.kr/cms/resource/16/3553116_image2_1.jpg",
    "category": "미술관화랑"
  },
  {
    "id": "2832753",
    "title": "보이드 갤러리",
    "address": "대구광역시 중구 명륜로26길 79-2",
    "phone": "",
    "latitude": "35.8565354411",
    "longitude": "128.5977656222",
    "image": "http://tong.visitkorea.or.kr/cms/resource/51/2832751_image2_1.jpg",
    "category": "미술관화랑"
  },
  {
    "id": "747530",
    "title": "본화랑",
    "address": "서울특별시 종로구 자하문로 299",
    "phone": "",
    "latitude": "37.5991473396",
    "longitude": "126.9596579259",
    "image": "http://tong.visitkorea.or.kr/cms/resource/70/2759570_image2_1.jpg",
    "category": "미술관화랑"
  },
  {
    "id": "130622",
    "title": "부산공간화랑",
    "address": "부산광역시 해운대구 마린시티1로 167",
    "phone": "",
    "latitude": "35.1576770997",
    "longitude": "129.1502004847",
    "image": "http://tong.visitkorea.or.kr/cms/resource/93/1859093_image2_1.jpg",
    "category": "미술관화랑"
  },
  {
    "id": "130166",
    "title": "부산시립미술관",
    "address": "부산광역시 해운대구 APEC로 58",
    "phone": "",
    "latitude": "35.1666980687",
    "longitude": "129.1370458254",
    "image": "http://tong.visitkorea.or.kr/cms/resource/62/2712662_image2_1.jpg",
    "category": "미술관화랑"
  },
  {
    "id": "2605688",
    "title": "부산현대미술관",
    "address": "부산광역시 사하구 낙동남로 1191 부산현대미술관",
    "phone": "",
    "latitude": "35.1093703494",
    "longitude": "128.9427198532",
    "image": "http://tong.visitkorea.or.kr/cms/resource/95/3506195_image2_1.jpg",
    "category": "미술관화랑"
  },
  {
    "id": "2633911",
    "title": "부천아트벙커B39",
    "address": "경기도 부천시 오정구 삼작로 53 (삼정동)",
    "phone": "",
    "latitude": "37.5205780379",
    "longitude": "126.7671665834",
    "image": "http://tong.visitkorea.or.kr/cms/resource/55/3508355_image2_1.jpg",
    "category": "미술관화랑"
  },
  {
    "id": "2569502",
    "title": "블루메 미술관",
    "address": "경기도 파주시 탄현면 헤이리마을길 59-30",
    "phone": "",
    "latitude": "37.7892843836",
    "longitude": "126.6965793637",
    "image": "http://tong.visitkorea.or.kr/cms/resource/15/3531015_image2_1.jpg",
    "category": "미술관화랑"
  },
  {
    "id": "130416",
    "title": "사비나미술관",
    "address": "서울특별시 은평구 진관1로 93 (진관동)",
    "phone": "",
    "latitude": "37.6301820750",
    "longitude": "126.9292903725",
    "image": "http://tong.visitkorea.or.kr/cms/resource/13/3527813_image2_1.jpg",
    "category": "미술관화랑"
  },
  {
    "id": "2784182",
    "title": "사천미술관",
    "address": "경상남도 사천시 사천대로 17",
    "phone": "",
    "latitude": "34.9324463710",
    "longitude": "128.0521300303",
    "image": "http://tong.visitkorea.or.kr/cms/resource/88/3510288_image2_1.jpg",
    "category": "미술관화랑"
  },
  {
    "id": "2833763",
    "title": "산지천갤러리",
    "address": "제주특별자치도 제주시 중앙로3길 36",
    "phone": "",
    "latitude": "33.5151787191",
    "longitude": "126.5283445957",
    "image": "http://tong.visitkorea.or.kr/cms/resource/98/2833698_image2_1.jpg",
    "category": "미술관화랑"
  },
  {
    "id": "1106194",
    "title": "상상톡톡 미술관",
    "address": "서울특별시 강북구 월계로 173 (번동)",
    "phone": "",
    "latitude": "37.6197242510",
    "longitude": "127.0445440464",
    "image": "http://tong.visitkorea.or.kr/cms/resource/70/3366370_image2_1.jpg",
    "category": "미술관화랑"
  },
  {
    "id": "130498",
    "title": "상원미술관",
    "address": "서울특별시 종로구 평창31길 27",
    "phone": "",
    "latitude": "37.6116267475",
    "longitude": "126.9765588093",
    "image": "http://tong.visitkorea.or.kr/cms/resource/22/1865322_image2_1.jpg",
    "category": "미술관화랑"
  },
  {
    "id": "736807",
    "title": "샘터화랑",
    "address": "서울특별시 서초구 고무래로8길 4 (반포동)",
    "phone": "",
    "latitude": "37.5027122320",
    "longitude": "127.0103199280",
    "image": "http://tong.visitkorea.or.kr/cms/resource/70/3554670_image2_1.jpg",
    "category": "미술관화랑"
  },
  {
    "id": "129767",
    "title": "서귀포시립기당미술관",
    "address": "제주특별자치도 서귀포시 남성중로153번길 15",
    "phone": "",
    "latitude": "33.2447978549",
    "longitude": "126.5512403807",
    "image": "http://tong.visitkorea.or.kr/cms/resource/41/3548141_image2_1.jpg",
    "category": "미술관화랑"
  },
  {
    "id": "2782759",
    "title": "서면미술관",
    "address": "부산광역시 부산진구 동천로 58",
    "phone": "",
    "latitude": "35.1539758945",
    "longitude": "129.0626026488",
    "image": "http://tong.visitkorea.or.kr/cms/resource/10/3508710_image2_1.jpg",
    "category": "미술관화랑"
  },
  {
    "id": "130881",
    "title": "서울대학교 미술관",
    "address": "서울특별시 관악구 관악로 1 (신림동)",
    "phone": "",
    "latitude": "37.4663514558",
    "longitude": "126.9483849253",
    "image": "http://tong.visitkorea.or.kr/cms/resource/85/3540185_image2_1.jpg",
    "category": "미술관화랑"
  },
  {
    "id": "2998547",
    "title": "서울시립 미술아카이브",
    "address": "서울특별시 종로구 평창문화로 101 (평창동)",
    "phone": "02-2124-7407",
    "latitude": "37.6079493200",
    "longitude": "126.9722481949",
    "image": "http://tong.visitkorea.or.kr/cms/resource/15/2998515_image2_1.jpg",
    "category": "미술관화랑"
  },
  {
    "id": "1866427",
    "title": "서울시립 북서울미술관",
    "address": "서울특별시 노원구 동일로 1238 (중계동)",
    "phone": "",
    "latitude": "37.6407111019",
    "longitude": "127.0668719687",
    "image": "http://tong.visitkorea.or.kr/cms/resource/02/3332402_image2_1.jpg",
    "category": "미술관화랑"
  },
  {
    "id": "3499568",
    "title": "서울시립 사진미술관",
    "address": "서울특별시 도봉구 마들로13길 68 (창동)",
    "phone": "",
    "latitude": "37.6555673847",
    "longitude": "127.0489620670",
    "image": "http://tong.visitkorea.or.kr/cms/resource/67/3499567_image2_1.jpg",
    "category": "미술관화랑"
  },
  {
    "id": "130071",
    "title": "서울시립미술관 서소문본관",
    "address": "서울특별시 중구 덕수궁길 61",
    "phone": "",
    "latitude": "37.5641627695",
    "longitude": "126.9736937480",
    "image": "http://tong.visitkorea.or.kr/cms/resource/90/3510490_image2_1.jpg",
    "category": "미술관화랑"
  },
  {
    "id": "3384166",
    "title": "서울아트나우 갤러리",
    "address": "서울특별시 서초구 반포대로24길 41-14 (서초동)",
    "phone": "",
    "latitude": "37.4898220877",
    "longitude": "127.0117618283",
    "image": "http://tong.visitkorea.or.kr/cms/resource/67/3384167_image2_1.jpg",
    "category": "미술관화랑"
  },
  {
    "id": "2791398",
    "title": "서울옥션 강남센터",
    "address": "서울특별시 강남구 언주로 864 (신사동)",
    "phone": "",
    "latitude": "37.5274847788",
    "longitude": "127.0339392991",
    "image": "http://tong.visitkorea.or.kr/cms/resource/01/2791401_image2_1.JPG",
    "category": "미술관화랑"
  },
  {
    "id": "130709",
    "title": "서호미술관",
    "address": "경기도 남양주시 화도읍 북한강로 1344",
    "phone": "",
    "latitude": "37.6327671912",
    "longitude": "127.3515129409",
    "image": "http://tong.visitkorea.or.kr/cms/resource/44/3565444_image2_1.JPG",
    "category": "미술관화랑"
  },
  {
    "id": "130466",
    "title": "석봉도자기미술관",
    "address": "강원특별자치도 속초시 엑스포로 156",
    "phone": "",
    "latitude": "38.1979691187",
    "longitude": "128.5825396111",
    "image": "http://tong.visitkorea.or.kr/cms/resource/69/3351269_image2_1.jpg",
    "category": "미술관화랑"
  },
  {
    "id": "2783512",
    "title": "석파정 서울미술관",
    "address": "서울특별시 종로구 창의문로11길 4-1 (부암동)",
    "phone": "",
    "latitude": "37.5948701151",
    "longitude": "126.9627744300",
    "image": "",
    "category": "미술관화랑"
  },
  {
    "id": "129905",
    "title": "선화랑",
    "address": "서울특별시 종로구 인사동5길 8 (인사동)",
    "phone": "",
    "latitude": "37.5729758501",
    "longitude": "126.9857368460",
    "image": "http://tong.visitkorea.or.kr/cms/resource/07/3527907_image2_1.jpg",
    "category": "미술관화랑"
  },
  {
    "id": "2554994",
    "title": "설미재미술관",
    "address": "경기도 가평군 설악면 유명로 1454-38",
    "phone": "",
    "latitude": "37.6610274133",
    "longitude": "127.4822113469",
    "image": "http://tong.visitkorea.or.kr/cms/resource/74/3499774_image2_1.JPG",
    "category": "미술관화랑"
  },
  {
    "id": "130154",
    "title": "성곡미술관",
    "address": "서울특별시 종로구 경희궁길 42",
    "phone": "",
    "latitude": "37.5735143878",
    "longitude": "126.9696605179",
    "image": "http://tong.visitkorea.or.kr/cms/resource/31/3487031_image2_1.png",
    "category": "미술관화랑"
  },
  {
    "id": "2784050",
    "title": "성남큐브미술관",
    "address": "경기도 성남시 분당구 성남대로 808 (야탑동)",
    "phone": "",
    "latitude": "37.4025232047",
    "longitude": "127.1286175581",
    "image": "http://tong.visitkorea.or.kr/cms/resource/13/3336413_image2_1.jpg",
    "category": "미술관화랑"
  },
  {
    "id": "1687304",
    "title": "성마루미술관",
    "address": "충청북도 충주시 대소원면 장성길 38-1",
    "phone": "",
    "latitude": "36.9613898362",
    "longitude": "127.8388436921",
    "image": "",
    "category": "미술관화랑"
  },
  {
    "id": "3076682",
    "title": "성북구립 최만린미술관",
    "address": "서울특별시 성북구 솔샘로7길 23 (정릉동)",
    "phone": "",
    "latitude": "37.6107134631",
    "longitude": "127.0043035269",
    "image": "",
    "category": "미술관화랑"
  },
  {
    "id": "3058449",
    "title": "성북구립미술관",
    "address": "서울특별시 성북구 성북로 134 (성북동)",
    "phone": "",
    "latitude": "37.5948901340",
    "longitude": "126.9949020554",
    "image": "http://tong.visitkorea.or.kr/cms/resource/86/3417686_image2_1.jpg",
    "category": "미술관화랑"
  },
  {
    "id": "129912",
    "title": "세종호텔 세종갤러리",
    "address": "서울특별시 중구 퇴계로 145 (충무로2가)",
    "phone": "",
    "latitude": "37.5613355768",
    "longitude": "126.9879953030",
    "image": "http://tong.visitkorea.or.kr/cms/resource/64/3384964_image2_1.JPG",
    "category": "미술관화랑"
  },
  {
    "id": "130640",
    "title": "세화미술관",
    "address": "서울특별시 종로구 새문안로 68 (신문로1가)",
    "phone": "",
    "latitude": "37.5697009867",
    "longitude": "126.9721437331",
    "image": "http://tong.visitkorea.or.kr/cms/resource/40/3505640_image2_1.jpg",
    "category": "미술관화랑"
  },
  {
    "id": "3012733",
    "title": "센티드뮤제",
    "address": "경기도 파주시 탄현면 헤이리마을길 59-58",
    "phone": "",
    "latitude": "37.7898232050",
    "longitude": "126.6963238158",
    "image": "http://tong.visitkorea.or.kr/cms/resource/32/3003232_image2_1.jpg",
    "category": "미술관화랑"
  },
  {
    "id": "2756728",
    "title": "소다미술관",
    "address": "경기도 화성시 효행로707번길 30",
    "phone": "",
    "latitude": "37.2016720536",
    "longitude": "127.0061037560",
    "image": "http://tong.visitkorea.or.kr/cms/resource/77/3563177_image2_1.jpg",
    "category": "미술관화랑"
  },
  {
    "id": "130823",
    "title": "소마미술관",
    "address": "서울특별시 송파구 올림픽로 424 (방이동)",
    "phone": "",
    "latitude": "37.5206092598",
    "longitude": "127.1150682209",
    "image": "http://tong.visitkorea.or.kr/cms/resource/99/3500499_image2_1.jpg",
    "category": "미술관화랑"
  },
  {
    "id": "1623916",
    "title": "소전미술관",
    "address": "전라남도 진도군 진도읍 철마길 29",
    "phone": "",
    "latitude": "34.4869717027",
    "longitude": "126.2646479604",
    "image": "http://tong.visitkorea.or.kr/cms/resource/93/1608093_image2_1.jpg",
    "category": "미술관화랑"
  },
  {
    "id": "2758549",
    "title": "소피아갤러리",
    "address": "세종특별자치시 금남면 도남2길 50-5",
    "phone": "",
    "latitude": "36.4381335591",
    "longitude": "127.2393620249",
    "image": "http://tong.visitkorea.or.kr/cms/resource/14/2758514_image2_1.jpg",
    "category": "미술관화랑"
  },
  {
    "id": "2752134",
    "title": "솔거미술관",
    "address": "경상북도 경주시 경감로 614 (천군동)",
    "phone": "",
    "latitude": "35.8340564631",
    "longitude": "129.2895443842",
    "image": "http://tong.visitkorea.or.kr/cms/resource/42/3537842_image2_1.jpg",
    "category": "미술관화랑"
  },
  {
    "id": "3407174",
    "title": "송강미술관",
    "address": "경상북도 안동시 서후면 이송천길 240-10",
    "phone": "",
    "latitude": "36.6122180142",
    "longitude": "128.6955799507",
    "image": "http://tong.visitkorea.or.kr/cms/resource/62/3405162_image2_1.jpg",
    "category": "미술관화랑"
  },
  {
    "id": "130076",
    "title": "송암미술관",
    "address": "인천광역시 미추홀구 비류대로55번길 68 (학익동)",
    "phone": "",
    "latitude": "37.4346135777",
    "longitude": "126.6412304639",
    "image": "http://tong.visitkorea.or.kr/cms/resource/72/3490572_image2_1.jpg",
    "category": "미술관화랑"
  },
  {
    "id": "2782156",
    "title": "송은",
    "address": "서울특별시 강남구 도산대로 441",
    "phone": "",
    "latitude": "37.5242158976",
    "longitude": "127.0441356853",
    "image": "http://tong.visitkorea.or.kr/cms/resource/10/2833710_image2_1.jpg",
    "category": "미술관화랑"
  },
  {
    "id": "3013431",
    "title": "송파구립 예송미술관",
    "address": "서울특별시 송파구 백제고분로 242 (삼전동)",
    "phone": "",
    "latitude": "37.5026998343",
    "longitude": "127.0931984965",
    "image": "http://tong.visitkorea.or.kr/cms/resource/24/3013424_image2_1.jpg",
    "category": "미술관화랑"
  },
  {
    "id": "2033483",
    "title": "수원시립미술관",
    "address": "경기도 수원시 팔달구 정조로 833 (신풍동)",
    "phone": "",
    "latitude": "37.2827572840",
    "longitude": "127.0158394993",
    "image": "http://tong.visitkorea.or.kr/cms/resource/96/3020696_image2_1.jpeg",
    "category": "미술관화랑"
  },
  {
    "id": "3029071",
    "title": "수원시립아트스페이스광교",
    "address": "경기도 수원시 영통구 광교중앙로 140 (하동)",
    "phone": "",
    "latitude": "37.2858799237",
    "longitude": "127.0594632301",
    "image": "http://tong.visitkorea.or.kr/cms/resource/22/3001422_image2_1.jpg",
    "category": "미술관화랑"
  },
  {
    "id": "3343016",
    "title": "슬도아트",
    "address": "울산광역시 동구 성끝길 103 (방어동)",
    "phone": "",
    "latitude": "35.4809461402",
    "longitude": "129.4327974497",
    "image": "http://tong.visitkorea.or.kr/cms/resource/41/3342941_image2_1.png",
    "category": "미술관화랑"
  },
  {
    "id": "615222",
    "title": "시안미술관",
    "address": "경상북도 영천시 화산면 가래실로 364",
    "phone": "",
    "latitude": "36.0328070074",
    "longitude": "128.8892738816",
    "image": "",
    "category": "미술관화랑"
  },
  {
    "id": "3441618",
    "title": "시화문화마을 금봉미술관",
    "address": "광주광역시 북구 각화대로 91 (각화동)",
    "phone": "",
    "latitude": "35.1796048975",
    "longitude": "126.9404214659",
    "image": "http://tong.visitkorea.or.kr/cms/resource/27/3441627_image2_1.jpg",
    "category": "미술관화랑"
  },
  {
    "id": "130335",
    "title": "신미화랑",
    "address": "대구광역시 중구 봉산문화길 34 (봉산동)",
    "phone": "",
    "latitude": "35.8616737544",
    "longitude": "128.5980932281",
    "image": "http://tong.visitkorea.or.kr/cms/resource/25/3476625_image2_1.jpg",
    "category": "미술관화랑"
  },
  {
    "id": "130842",
    "title": "아라리오 갤러리 서울",
    "address": "서울특별시 종로구 율곡로 85 (원서동)",
    "phone": "",
    "latitude": "37.5779253248",
    "longitude": "126.9885253402",
    "image": "http://tong.visitkorea.or.kr/cms/resource/21/3465421_image2_1.JPG",
    "category": "미술관화랑"
  },
  {
    "id": "130635",
    "title": "아라리오갤러리 천안",
    "address": "충청남도 천안시 동남구 만남로 43",
    "phone": "",
    "latitude": "36.8202854232",
    "longitude": "127.1567423568",
    "image": "http://tong.visitkorea.or.kr/cms/resource/52/3570452_image2_1.jpg",
    "category": "미술관화랑"
  },
  {
    "id": "130403",
    "title": "아르코미술관",
    "address": "서울특별시 종로구 동숭길 3 아르코 미술관",
    "phone": "",
    "latitude": "37.5797531420",
    "longitude": "127.0025212349",
    "image": "http://tong.visitkorea.or.kr/cms/resource/28/2993428_image2_1.jpg",
    "category": "미술관화랑"
  },
  {
    "id": "2773303",
    "title": "아모레퍼시픽미술관",
    "address": "서울특별시 용산구 한강대로 100 (한강로2가)",
    "phone": "",
    "latitude": "37.5288445615",
    "longitude": "126.9686896475",
    "image": "http://tong.visitkorea.or.kr/cms/resource/57/2780457_image2_1.jpg",
    "category": "미술관화랑"
  },
  {
    "id": "2704339",
    "title": "아미미술관",
    "address": "충청남도 당진시 순성면 남부로 753-4",
    "phone": "",
    "latitude": "36.8621888743",
    "longitude": "126.6803314603",
    "image": "http://tong.visitkorea.or.kr/cms/resource/31/2704331_image2_1.jpg",
    "category": "미술관화랑"
  },
  {
    "id": "3005374",
    "title": "아이바가든",
    "address": "제주특별자치도 제주시 애월읍 고성남서길 10",
    "phone": "",
    "latitude": "33.4336471658",
    "longitude": "126.4220751222",
    "image": "http://tong.visitkorea.or.kr/cms/resource/43/3552843_image2_1.jpg",
    "category": "미술관화랑"
  },
  {
    "id": "130072",
    "title": "아트선재센터",
    "address": "서울특별시 종로구 율곡로3길 87",
    "phone": "",
    "latitude": "37.5795166861",
    "longitude": "126.9818259058",
    "image": "",
    "category": "미술관화랑"
  },
  {
    "id": "2611162",
    "title": "아트센터 대담",
    "address": "전라남도 담양군 담양읍 언골길 5-4",
    "phone": "",
    "latitude": "35.3253724846",
    "longitude": "126.9835306396",
    "image": "http://tong.visitkorea.or.kr/cms/resource/84/3571484_image2_1.jpg",
    "category": "미술관화랑"
  },
  {
    "id": "3572470",
    "title": "아트센터 예술의 시간",
    "address": "서울특별시 금천구 범안로9길 23 (독산동)",
    "phone": "",
    "latitude": "37.4677308097",
    "longitude": "126.8900957495",
    "image": "http://tong.visitkorea.or.kr/cms/resource/25/3572525_image2_1.jpg",
    "category": "미술관화랑"
  },
  {
    "id": "2709707",
    "title": "아트센터 화이트블럭",
    "address": "경기도 파주시 탄현면 헤이리마을길 72",
    "phone": "",
    "latitude": "37.7889483622",
    "longitude": "126.6994152241",
    "image": "http://tong.visitkorea.or.kr/cms/resource/97/3080197_image2_1.jpg",
    "category": "미술관화랑"
  },
  {
    "id": "2758880",
    "title": "아트센터고마",
    "address": "충청남도 공주시 고마나루길 90",
    "phone": "",
    "latitude": "36.4666363013",
    "longitude": "127.1075869625",
    "image": "http://tong.visitkorea.or.kr/cms/resource/49/3565049_image2_1.jpg",
    "category": "미술관화랑"
  },
  {
    "id": "2993324",
    "title": "아트스페이스3",
    "address": "서울특별시 종로구 효자로7길 23 (통의동)",
    "phone": "",
    "latitude": "37.5785138723",
    "longitude": "126.9733322642",
    "image": "http://tong.visitkorea.or.kr/cms/resource/43/3569443_image2_1.jpg",
    "category": "미술관화랑"
  },
  {
    "id": "129768",
    "title": "아트조선스페이스",
    "address": "서울특별시 중구 세종대로21길 30 (태평로1가)",
    "phone": "",
    "latitude": "37.5680901321",
    "longitude": "126.9760017602",
    "image": "http://tong.visitkorea.or.kr/cms/resource/65/3557365_image2_1.jpg",
    "category": "미술관화랑"
  },
  {
    "id": "130636",
    "title": "아트파크",
    "address": "서울특별시 종로구 삼청로7길 25 (팔판동)",
    "phone": "",
    "latitude": "37.5838161613",
    "longitude": "126.9804397990",
    "image": "http://tong.visitkorea.or.kr/cms/resource/59/3414059_image2_1.jpg",
    "category": "미술관화랑"
  },
  {
    "id": "2783540",
    "title": "알부스갤러리",
    "address": "서울특별시 용산구 한남대로28길 26 (한남동)",
    "phone": "",
    "latitude": "37.5382524693",
    "longitude": "127.0059193239",
    "image": "http://tong.visitkorea.or.kr/cms/resource/97/3562097_image2_1.jpg",
    "category": "미술관화랑"
  },
  {
    "id": "2734962",
    "title": "알토이미술관",
    "address": "경기도 용인시 기흥구 동백3로11번길 9",
    "phone": "",
    "latitude": "37.2697334689",
    "longitude": "127.1529385384",
    "image": "",
    "category": "미술관화랑"
  },
  {
    "id": "2551925",
    "title": "앤갤러리",
    "address": "경기도 성남시 분당구 새마을로 95 (서현동)",
    "phone": "",
    "latitude": "37.3836895035",
    "longitude": "127.1412336107",
    "image": "http://tong.visitkorea.or.kr/cms/resource/30/3581230_image2_1.jpg",
    "category": "미술관화랑"
  },
  {
    "id": "3412973",
    "title": "양림미술관",
    "address": "광주광역시 남구 제중로 70 (양림동)",
    "phone": "",
    "latitude": "35.1404866233",
    "longitude": "126.9126971202",
    "image": "http://tong.visitkorea.or.kr/cms/resource/16/3412416_image2_1.JPG",
    "category": "미술관화랑"
  },
  {
    "id": "3395136",
    "title": "양주시립민복진미술관",
    "address": "경기도 양주시 장흥면 권율로 192",
    "phone": "",
    "latitude": "37.7312095648",
    "longitude": "126.9493440025",
    "image": "http://tong.visitkorea.or.kr/cms/resource/29/3406829_image2_1.JPG",
    "category": "미술관화랑"
  },
  {
    "id": "1926610",
    "title": "양평군립미술관",
    "address": "경기도 양평군 양평읍 문화복지길 2",
    "phone": "",
    "latitude": "37.4971520171",
    "longitude": "127.4840159266",
    "image": "http://tong.visitkorea.or.kr/cms/resource/07/3038307_image2_1.jpg",
    "category": "미술관화랑"
  },
  {
    "id": "2764949",
    "title": "어린이미술관자란다",
    "address": "경기도 파주시 탄현면 새오리로427번길 38-6",
    "phone": "",
    "latitude": "37.8179060871",
    "longitude": "126.6989644458",
    "image": "http://tong.visitkorea.or.kr/cms/resource/99/3336999_image2_1.jpg",
    "category": "미술관화랑"
  },
  {
    "id": "130637",
    "title": "어반아트",
    "address": "서울특별시 용산구 소월로44길 7 어반아트",
    "phone": "",
    "latitude": "37.5424878528",
    "longitude": "126.9927953989",
    "image": "http://tong.visitkorea.or.kr/cms/resource/24/3542624_image2_1.jpg",
    "category": "미술관화랑"
  },
  {
    "id": "3081851",
    "title": "엄미술관",
    "address": "경기도 화성시 봉담읍 오궁길 37",
    "phone": "",
    "latitude": "37.2056794473",
    "longitude": "126.9794032878",
    "image": "",
    "category": "미술관화랑"
  },
  {
    "id": "3080501",
    "title": "에스파스 루이비통 서울",
    "address": "서울특별시 강남구 압구정로 454 (청담동)",
    "phone": "",
    "latitude": "37.5256657669",
    "longitude": "127.0462410086",
    "image": "http://tong.visitkorea.or.kr/cms/resource/88/3080488_image2_1.JPG",
    "category": "미술관화랑"
  },
  {
    "id": "2615316",
    "title": "여미갤러리",
    "address": "충청남도 서산시 운산면 운정로 112",
    "phone": "",
    "latitude": "36.8206919167",
    "longitude": "126.5799055531",
    "image": "http://tong.visitkorea.or.kr/cms/resource/49/3566949_image2_1.jpg",
    "category": "미술관화랑"
  },
  {
    "id": "2806218",
    "title": "여수 녹테마레",
    "address": "전라남도 여수시 만성로 294 (만흥동)",
    "phone": "",
    "latitude": "34.7744139385",
    "longitude": "127.7260709473",
    "image": "http://tong.visitkorea.or.kr/cms/resource/42/2806242_image2_1.JPG",
    "category": "미술관화랑"
  },
  {
    "id": "3008371",
    "title": "여수미술관",
    "address": "전라남도 여수시 도원로 263-1",
    "phone": "",
    "latitude": "34.7613614826",
    "longitude": "127.6601548244",
    "image": "http://tong.visitkorea.or.kr/cms/resource/57/3008357_image2_1.jpg",
    "category": "미술관화랑"
  },
  {
    "id": "2766513",
    "title": "여주미술관",
    "address": "경기도 여주시 세종로 394-36",
    "phone": "",
    "latitude": "37.2648455970",
    "longitude": "127.6372142937",
    "image": "http://tong.visitkorea.or.kr/cms/resource/84/2765684_image2_1.jpeg",
    "category": "미술관화랑"
  },
  {
    "id": "1066785",
    "title": "여진불교미술관",
    "address": "대전광역시 유성구 엑스포로 624",
    "phone": "",
    "latitude": "36.4107618735",
    "longitude": "127.4061089452",
    "image": "http://tong.visitkorea.or.kr/cms/resource/83/3032083_image2_1.JPG",
    "category": "미술관화랑"
  },
  {
    "id": "129931",
    "title": "영동 예맥화랑",
    "address": "서울특별시 강남구 강남대로 546 (논현동)",
    "phone": "",
    "latitude": "37.5109170425",
    "longitude": "127.0219103079",
    "image": "http://tong.visitkorea.or.kr/cms/resource/63/1837263_image2_1.jpg",
    "category": "미술관화랑"
  },
  {
    "id": "2732538",
    "title": "영암군립하정웅미술관",
    "address": "전라남도 영암군 군서면 구림로 96",
    "phone": "",
    "latitude": "34.7606856731",
    "longitude": "126.6217821635",
    "image": "http://tong.visitkorea.or.kr/cms/resource/56/3380256_image2_1.JPG",
    "category": "미술관화랑"
  },
  {
    "id": "130412",
    "title": "영은미술관",
    "address": "경기도 광주시 청석로 300",
    "phone": "",
    "latitude": "37.4135438997",
    "longitude": "127.2687267457",
    "image": "",
    "category": "미술관화랑"
  },
  {
    "id": "130128",
    "title": "예송갤러리",
    "address": "대구광역시 중구 봉산문화길 56",
    "phone": "",
    "latitude": "35.8625736428",
    "longitude": "128.5975960246",
    "image": "http://tong.visitkorea.or.kr/cms/resource/05/3342605_image2_1.jpg",
    "category": "미술관화랑"
  },
  {
    "id": "1116733",
    "title": "오대호 아트팩토리",
    "address": "충청북도 충주시 앙성면 가곡로 1434",
    "phone": "",
    "latitude": "37.0944459236",
    "longitude": "127.7945188787",
    "image": "http://tong.visitkorea.or.kr/cms/resource/06/3064306_image2_1.jpg",
    "category": "미술관화랑"
  },
  {
    "id": "2605828",
    "title": "오대호아트팩토리",
    "address": "충청북도 충주시 앙성면 가곡로 1434",
    "phone": "",
    "latitude": "37.0944459236",
    "longitude": "127.7945188787",
    "image": "",
    "category": "미술관화랑"
  },
  {
    "id": "2639878",
    "title": "오마이갤러리",
    "address": "충청남도 태안군 안면읍 안면대로 3171-6",
    "phone": "",
    "latitude": "36.4987474112",
    "longitude": "126.3579563576",
    "image": "http://tong.visitkorea.or.kr/cms/resource/66/3336266_image2_1.jpg",
    "category": "미술관화랑"
  },
  {
    "id": "2753057",
    "title": "오산시립미술관",
    "address": "경기도 오산시 현충로 100 (은계동)",
    "phone": "",
    "latitude": "37.1603892052",
    "longitude": "127.0770568090",
    "image": "http://tong.visitkorea.or.kr/cms/resource/47/2753447_image2_1.jpeg",
    "category": "미술관화랑"
  },
  {
    "id": "2606148",
    "title": "오스갤러리",
    "address": "전북특별자치도 완주군 소양면 오도길 24",
    "phone": "",
    "latitude": "35.9048083655",
    "longitude": "127.2397234665",
    "image": "http://tong.visitkorea.or.kr/cms/resource/62/3561462_image2_1.jpg",
    "category": "미술관화랑"
  },
  {
    "id": "3486762",
    "title": "오아르미술관",
    "address": "경상북도 경주시 금성로 260-6 (노서동)",
    "phone": "",
    "latitude": "35.8405902886",
    "longitude": "129.2076652603",
    "image": "http://tong.visitkorea.or.kr/cms/resource/66/3488066_image2_1.jpg",
    "category": "미술관화랑"
  },
  {
    "id": "2623675",
    "title": "와인갤러리",
    "address": "경상남도 사천시 곤명면 경서대로 3552",
    "phone": "",
    "latitude": "35.1390026068",
    "longitude": "127.9882496782",
    "image": "http://tong.visitkorea.or.kr/cms/resource/69/2623669_image2_1.bmp",
    "category": "미술관화랑"
  },
  {
    "id": "2606690",
    "title": "왈종미술관",
    "address": "제주특별자치도 서귀포시 칠십리로214번길 30",
    "phone": "",
    "latitude": "33.2453287076",
    "longitude": "126.5736773135",
    "image": "http://tong.visitkorea.or.kr/cms/resource/93/3548093_image2_1.jpg",
    "category": "미술관화랑"
  },
  {
    "id": "130509",
    "title": "우양미술관",
    "address": "경상북도 경주시 보문로 484-7",
    "phone": "",
    "latitude": "35.8416444278",
    "longitude": "129.2859611482",
    "image": "http://tong.visitkorea.or.kr/cms/resource/03/3556803_image2_1.jpg",
    "category": "미술관화랑"
  },
  {
    "id": "130639",
    "title": "우제길미술관",
    "address": "광주광역시 동구 의재로 140-6",
    "phone": "",
    "latitude": "35.1317742306",
    "longitude": "126.9430502112",
    "image": "http://tong.visitkorea.or.kr/cms/resource/53/3510753_image2_1.jpg",
    "category": "미술관화랑"
  },
  {
    "id": "3401161",
    "title": "우주미술관",
    "address": "경상남도 사천시 정동면 사천강1길 3 (수양빌라)",
    "phone": "",
    "latitude": "35.0737060691",
    "longitude": "128.0831930688",
    "image": "http://tong.visitkorea.or.kr/cms/resource/07/3401107_image2_1.png",
    "category": "미술관화랑"
  },
  {
    "id": "3066245",
    "title": "우진 문화 공간",
    "address": "전북특별자치도 전주시 덕진구 전주천동로 376 (진북동)",
    "phone": "",
    "latitude": "35.8275569222",
    "longitude": "127.1304157812",
    "image": "http://tong.visitkorea.or.kr/cms/resource/24/3066224_image2_1.jpg",
    "category": "미술관화랑"
  },
  {
    "id": "130080",
    "title": "운보의 집",
    "address": "충청북도 청주시 청원구 내수읍 형동2길 92-41",
    "phone": "",
    "latitude": "36.6919213789",
    "longitude": "127.5650536346",
    "image": "http://tong.visitkorea.or.kr/cms/resource/71/3504571_image2_1.jpg",
    "category": "미술관화랑"
  },
  {
    "id": "3043602",
    "title": "울산시립미술관",
    "address": "울산광역시 중구 미술관길 72 (북정동)",
    "phone": "",
    "latitude": "35.5577104058",
    "longitude": "129.3209022617",
    "image": "http://tong.visitkorea.or.kr/cms/resource/00/3084300_image2_1.jpg",
    "category": "미술관화랑"
  },
  {
    "id": "130306",
    "title": "유 아트 스페이스",
    "address": "서울특별시 강남구 압구정로71길 10 (청담동)",
    "phone": "",
    "latitude": "37.5274349990",
    "longitude": "127.0458771023",
    "image": "http://tong.visitkorea.or.kr/cms/resource/90/3438890_image2_1.png",
    "category": "미술관화랑"
  },
  {
    "id": "2751869",
    "title": "유나이티드갤러리",
    "address": "서울특별시 강남구 강남대로102길 41 (역삼동)",
    "phone": "",
    "latitude": "37.5036346652",
    "longitude": "127.0280571763",
    "image": "http://tong.visitkorea.or.kr/cms/resource/08/3507808_image2_1.jpg",
    "category": "미술관화랑"
  },
  {
    "id": "2933508",
    "title": "유동룡미술관",
    "address": "제주특별자치도 제주시 용금로 906-10",
    "phone": "",
    "latitude": "33.3406161830",
    "longitude": "126.2707903551",
    "image": "http://tong.visitkorea.or.kr/cms/resource/91/2933491_image2_1.jpg",
    "category": "미술관화랑"
  },
  {
    "id": "130424",
    "title": "유엠갤러리",
    "address": "서울특별시 강남구 도산대로25길 35 (신사동)",
    "phone": "",
    "latitude": "37.5218602947",
    "longitude": "127.0262818223",
    "image": "http://tong.visitkorea.or.kr/cms/resource/02/3565302_image2_1.jpg",
    "category": "미술관화랑"
  },
  {
    "id": "2778070",
    "title": "유휴열미술관",
    "address": "전북특별자치도 완주군 구이면 신뱅이길 55",
    "phone": "",
    "latitude": "35.7251349088",
    "longitude": "127.1115673508",
    "image": "http://tong.visitkorea.or.kr/cms/resource/33/3564533_image2_1.jpg",
    "category": "미술관화랑"
  },
  {
    "id": "3402620",
    "title": "은암미술관",
    "address": "광주광역시 동구 서석로85번길 8-12 (대의동)",
    "phone": "",
    "latitude": "35.1500523446",
    "longitude": "126.9206683979",
    "image": "http://tong.visitkorea.or.kr/cms/resource/43/3402643_image2_1.jpg",
    "category": "미술관화랑"
  },
  {
    "id": "3401691",
    "title": "이강하미술관",
    "address": "광주광역시 남구 3·1만세운동길 6 (양림동)",
    "phone": "",
    "latitude": "35.1369454068",
    "longitude": "126.9156775005",
    "image": "http://tong.visitkorea.or.kr/cms/resource/83/3442983_image2_1.JPG",
    "category": "미술관화랑"
  },
  {
    "id": "3012713",
    "title": "이랜드갤러리",
    "address": "경기도 파주시 탄현면 헤이리마을길 55-50",
    "phone": "",
    "latitude": "37.7891899270",
    "longitude": "126.6952794854",
    "image": "http://tong.visitkorea.or.kr/cms/resource/13/3003213_image2_1.jpg",
    "category": "미술관화랑"
  },
  {
    "id": "129928",
    "title": "이목화랑",
    "address": "서울특별시 종로구 북촌로 94",
    "phone": "",
    "latitude": "37.5851855362",
    "longitude": "126.9854254170",
    "image": "http://tong.visitkorea.or.kr/cms/resource/46/684046_image2_1.jpg",
    "category": "미술관화랑"
  },
  {
    "id": "2648390",
    "title": "이상원미술관",
    "address": "강원특별자치도 춘천시 사북면 화악지암길 99",
    "phone": "",
    "latitude": "37.9681684648",
    "longitude": "127.5786129977",
    "image": "http://tong.visitkorea.or.kr/cms/resource/30/3561530_image2_1.jpg",
    "category": "미술관화랑"
  },
  {
    "id": "590097",
    "title": "이응노 미술관",
    "address": "대전광역시 서구 둔산대로 157",
    "phone": "",
    "latitude": "36.3668637804",
    "longitude": "127.3870118474",
    "image": "http://tong.visitkorea.or.kr/cms/resource/29/2834129_image2_1.jpg",
    "category": "미술관화랑"
  },
  {
    "id": "2755486",
    "title": "이재효갤러리",
    "address": "경기도 양평군 지평면 초천길 83-22",
    "phone": "",
    "latitude": "37.4595153088",
    "longitude": "127.6678531300",
    "image": "http://tong.visitkorea.or.kr/cms/resource/42/3505342_image2_1.jpg",
    "category": "미술관화랑"
  },
  {
    "id": "129762",
    "title": "이천시립월전미술관",
    "address": "경기도 이천시 경충대로2709번길 185 (관고동)",
    "phone": "",
    "latitude": "37.2798094306",
    "longitude": "127.4245108763",
    "image": "http://tong.visitkorea.or.kr/cms/resource/45/3060445_image2_1.jpg",
    "category": "미술관화랑"
  },
  {
    "id": "2948028",
    "title": "이함캠퍼스",
    "address": "경기도 양평군 강하면 강남로 370-10",
    "phone": "",
    "latitude": "37.5028252925",
    "longitude": "127.4256821682",
    "image": "http://tong.visitkorea.or.kr/cms/resource/68/2948068_image2_1.jpg",
    "category": "미술관화랑"
  },
  {
    "id": "130621",
    "title": "인영아트센터",
    "address": "서울특별시 종로구 인사동10길 23-4",
    "phone": "",
    "latitude": "37.5746312220",
    "longitude": "126.9862367533",
    "image": "http://tong.visitkorea.or.kr/cms/resource/02/1895002_image2_1.jpg",
    "category": "미술관화랑"
  },
  {
    "id": "130227",
    "title": "일민미술관",
    "address": "서울특별시 종로구 세종대로 152 (세종로)",
    "phone": "",
    "latitude": "37.5699121725",
    "longitude": "126.9776737786",
    "image": "http://tong.visitkorea.or.kr/cms/resource/25/3412025_image2_1.JPG",
    "category": "미술관화랑"
  },
  {
    "id": "130270",
    "title": "임립미술관",
    "address": "충청남도 공주시 계룡면 봉곡길 77-13",
    "phone": "",
    "latitude": "36.3964282617",
    "longitude": "127.1405442311",
    "image": "http://tong.visitkorea.or.kr/cms/resource/70/3334170_image2_1.jpg",
    "category": "미술관화랑"
  },
  {
    "id": "2850345",
    "title": "잇다스페이스",
    "address": "인천광역시 중구 참외전로 172-41 (경동)",
    "phone": "",
    "latitude": "37.4724035108",
    "longitude": "126.6344383681",
    "image": "http://tong.visitkorea.or.kr/cms/resource/41/2850241_image2_1.jpg",
    "category": "미술관화랑"
  },
  {
    "id": "2606611",
    "title": "자연사랑미술관",
    "address": "제주특별자치도 서귀포시 표선면 가시로613번길 46",
    "phone": "",
    "latitude": "33.3556696951",
    "longitude": "126.7719520840",
    "image": "http://tong.visitkorea.or.kr/cms/resource/93/3547993_image2_1.jpg",
    "category": "미술관화랑"
  },
  {
    "id": "1202753",
    "title": "자하미술관",
    "address": "서울특별시 종로구 창의문로5가길 46 (부암동)",
    "phone": "",
    "latitude": "37.5894290369",
    "longitude": "126.9603164743",
    "image": "http://tong.visitkorea.or.kr/cms/resource/60/3496560_image2_1.jpg",
    "category": "미술관화랑"
  },
  {
    "id": "2676018",
    "title": "작은미술관 보구곶",
    "address": "경기도 김포시 월곶면 문수산로 375",
    "phone": "",
    "latitude": "37.7578156518",
    "longitude": "126.5298705234",
    "image": "http://tong.visitkorea.or.kr/cms/resource/74/3467374_image2_1.JPG",
    "category": "미술관화랑"
  },
  {
    "id": "3081731",
    "title": "잠월미술관",
    "address": "전라남도 함평군 해보면 산내길 60",
    "phone": "",
    "latitude": "35.1725214130",
    "longitude": "126.5528865068",
    "image": "http://tong.visitkorea.or.kr/cms/resource/22/3081722_image2_1.jpg",
    "category": "미술관화랑"
  },
  {
    "id": "2606124",
    "title": "장미갤러리",
    "address": "전북특별자치도 군산시 해망로 232",
    "phone": "",
    "latitude": "35.9902089642",
    "longitude": "126.7125155054",
    "image": "http://tong.visitkorea.or.kr/cms/resource/43/3351243_image2_1.jpg",
    "category": "미술관화랑"
  },
  {
    "id": "129769",
    "title": "장전미술관",
    "address": "전라남도 진도군 임회면 하미길 39",
    "phone": "",
    "latitude": "34.4297388051",
    "longitude": "126.2379960977",
    "image": "http://tong.visitkorea.or.kr/cms/resource/98/3060998_image2_1.jpg",
    "category": "미술관화랑"
  },
  {
    "id": "2705310",
    "title": "저녁노을미술관",
    "address": "전라남도 신안군 압해읍 무지개길 350",
    "phone": "",
    "latitude": "34.8445673440",
    "longitude": "126.2497685530",
    "image": "http://tong.visitkorea.or.kr/cms/resource/49/3562349_image2_1.jpg",
    "category": "미술관화랑"
  },
  {
    "id": "2778026",
    "title": "전남도립미술관",
    "address": "전라남도 광양시 광양읍 순광로 660",
    "phone": "",
    "latitude": "34.9678148620",
    "longitude": "127.5888613720",
    "image": "http://tong.visitkorea.or.kr/cms/resource/68/3552368_image2_1.JPG",
    "category": "미술관화랑"
  },
  {
    "id": "2037231",
    "title": "전북도립미술관",
    "address": "전북특별자치도 완주군 모악산길 111-6 전북도립미술관",
    "phone": "",
    "latitude": "35.7277484206",
    "longitude": "127.1069399166",
    "image": "http://tong.visitkorea.or.kr/cms/resource/89/3560989_image2_1.jpg",
    "category": "미술관화랑"
  },
  {
    "id": "1615946",
    "title": "전원미술관",
    "address": "인천광역시 강화군 송해면 강화대로766번길 27",
    "phone": "",
    "latitude": "37.7666300305",
    "longitude": "126.4584573795",
    "image": "http://tong.visitkorea.or.kr/cms/resource/53/1577253_image2_1.jpg",
    "category": "미술관화랑"
  },
  {
    "id": "2798027",
    "title": "전이수갤러리 걸어가는늑대들",
    "address": "제주특별자치도 제주시 조천읍 조함해안로 556",
    "phone": "",
    "latitude": "33.5426585380",
    "longitude": "126.6724508891",
    "image": "http://tong.visitkorea.or.kr/cms/resource/53/3553053_image2_1.jpg",
    "category": "미술관화랑"
  },
  {
    "id": "130692",
    "title": "전혁림 미술관",
    "address": "경상남도 통영시 봉수1길 10",
    "phone": "",
    "latitude": "34.8265230043",
    "longitude": "128.4151511180",
    "image": "http://tong.visitkorea.or.kr/cms/resource/63/3556763_image2_1.jpg",
    "category": "미술관화랑"
  },
  {
    "id": "2633903",
    "title": "젊은달 와이파크",
    "address": "강원특별자치도 영월군 주천면 송학주천로 1467-9",
    "phone": "",
    "latitude": "37.2740146038",
    "longitude": "128.2691404013",
    "image": "http://tong.visitkorea.or.kr/cms/resource/66/2922066_image2_1.jpg",
    "category": "미술관화랑"
  },
  {
    "id": "2762858",
    "title": "정동1928 아트센터",
    "address": "서울특별시 중구 덕수궁길 130 (정동)",
    "phone": "",
    "latitude": "37.5681039809",
    "longitude": "126.9738713989",
    "image": "http://tong.visitkorea.or.kr/cms/resource/85/3510485_image2_1.jpg",
    "category": "미술관화랑"
  },
  {
    "id": "2742247",
    "title": "정읍시립미술관",
    "address": "전북특별자치도 정읍시 시기4길 7",
    "phone": "",
    "latitude": "35.5523641321",
    "longitude": "126.8616579023",
    "image": "http://tong.visitkorea.or.kr/cms/resource/18/2742618_image2_1.JPG",
    "category": "미술관화랑"
  },
  {
    "id": "2719984",
    "title": "제이큐브미술관",
    "address": "강원특별자치도 영월군 영월읍 사지막길 56",
    "phone": "",
    "latitude": "37.2124373015",
    "longitude": "128.5070125243",
    "image": "http://tong.visitkorea.or.kr/cms/resource/09/3394609_image2_1.JPG",
    "category": "미술관화랑"
  },
  {
    "id": "2713583",
    "title": "제주도립김창열미술관",
    "address": "제주특별자치도 제주시 용금로 883-5 김창열미술관",
    "phone": "",
    "latitude": "33.3390996509",
    "longitude": "126.2686822387",
    "image": "http://tong.visitkorea.or.kr/cms/resource/99/3553099_image2_1.jpg",
    "category": "미술관화랑"
  },
  {
    "id": "759595",
    "title": "제주특별자치도립미술관",
    "address": "제주특별자치도 제주시 1100로 2894-78",
    "phone": "",
    "latitude": "33.4525489265",
    "longitude": "126.4897521473",
    "image": "http://tong.visitkorea.or.kr/cms/resource/70/3053670_image2_1.jpg",
    "category": "미술관화랑"
  },
  {
    "id": "597562",
    "title": "제주현대미술관",
    "address": "제주특별자치도 제주시 한경면 저지14길 35",
    "phone": "",
    "latitude": "33.3398745180",
    "longitude": "126.2656713719",
    "image": "http://tong.visitkorea.or.kr/cms/resource/50/3553250_image2_1.jpg",
    "category": "미술관화랑"
  },
  {
    "id": "130714",
    "title": "조각가 박시동 미술관",
    "address": "경기도 연천군 백학면 백왕로225번길 240",
    "phone": "",
    "latitude": "38.0539491147",
    "longitude": "126.9176070834",
    "image": "http://tong.visitkorea.or.kr/cms/resource/65/3382265_image2_1.JPG",
    "category": "미술관화랑"
  },
  {
    "id": "2514838",
    "title": "조각미술관 바우지움",
    "address": "강원특별자치도 고성군 토성면 원암온천3길 37",
    "phone": "",
    "latitude": "38.2124022405",
    "longitude": "128.5151758377",
    "image": "",
    "category": "미술관화랑"
  },
  {
    "id": "3401583",
    "title": "조선대학교 미술관",
    "address": "광주광역시 동구 서석동 375 솔마루",
    "phone": "",
    "latitude": "35.1418840356",
    "longitude": "126.9332730438",
    "image": "http://tong.visitkorea.or.kr/cms/resource/04/3401604_image2_1.jpeg",
    "category": "미술관화랑"
  },
  {
    "id": "1802663",
    "title": "조수정 한지그림 갤러리",
    "address": "서울특별시 강남구 테헤란로92길 14",
    "phone": "",
    "latitude": "37.5070904146",
    "longitude": "127.0611762867",
    "image": "http://tong.visitkorea.or.kr/cms/resource/43/2024243_image2_1.jpg",
    "category": "미술관화랑"
  },
  {
    "id": "3076665",
    "title": "조은숙아트앤라이프스타일",
    "address": "서울특별시 강남구 압구정로80길 37 (청담동)",
    "phone": "",
    "latitude": "37.5244297515",
    "longitude": "127.0435940627",
    "image": "",
    "category": "미술관화랑"
  },
  {
    "id": "130642",
    "title": "조현화랑",
    "address": "부산광역시 해운대구 달맞이길65번길 171",
    "phone": "",
    "latitude": "35.1568860663",
    "longitude": "129.1795840631",
    "image": "http://tong.visitkorea.or.kr/cms/resource/85/3568585_image2_1.jpg",
    "category": "미술관화랑"
  },
  {
    "id": "129907",
    "title": "조형갤러리",
    "address": "서울특별시 종로구 인사동5길 29 (인사동)",
    "phone": "",
    "latitude": "37.5720398320",
    "longitude": "126.9848563969",
    "image": "http://tong.visitkorea.or.kr/cms/resource/33/3540833_image2_1.jpg",
    "category": "미술관화랑"
  },
  {
    "id": "2684972",
    "title": "종이미술관",
    "address": "경기도 안산시 단원구 대남로 233 (대부남동)",
    "phone": "",
    "latitude": "37.2245756923",
    "longitude": "126.5758033180",
    "image": "http://tong.visitkorea.or.kr/cms/resource/64/3563464_image2_1.jpg",
    "category": "미술관화랑"
  },
  {
    "id": "2795833",
    "title": "주남아트갤러리",
    "address": "경상남도 창원시 의창구 동읍 주남로71번길 43-1",
    "phone": "",
    "latitude": "35.3068516168",
    "longitude": "128.6742434642",
    "image": "http://tong.visitkorea.or.kr/cms/resource/66/2796666_image2_1.JPG",
    "category": "미술관화랑"
  },
  {
    "id": "3066000",
    "title": "중랑아트센터",
    "address": "서울특별시 중랑구 망우로 353 (상봉동, 상봉 프레미어스 엠코)",
    "phone": "",
    "latitude": "37.5981387149",
    "longitude": "127.0913376195",
    "image": "http://tong.visitkorea.or.kr/cms/resource/82/3065982_image2_1.jpg",
    "category": "미술관화랑"
  },
  {
    "id": "129933",
    "title": "중앙갤러리",
    "address": "대구광역시 중구 봉산문화길 34",
    "phone": "",
    "latitude": "35.8616320928",
    "longitude": "128.5981071169",
    "image": "http://tong.visitkorea.or.kr/cms/resource/95/1888895_image2_1.jpg",
    "category": "미술관화랑"
  },
  {
    "id": "790195",
    "title": "지앤아트스페이스",
    "address": "경기도 용인시 기흥구 백남준로 7",
    "phone": "",
    "latitude": "37.2698993483",
    "longitude": "127.1101229723",
    "image": "http://tong.visitkorea.or.kr/cms/resource/69/2364469_image2_1.jpg",
    "category": "미술관화랑"
  },
  {
    "id": "3081691",
    "title": "진도 현대미술관",
    "address": "전라남도 진도군 진도읍 교동5길 30",
    "phone": "",
    "latitude": "34.4848912935",
    "longitude": "126.2592790374",
    "image": "http://tong.visitkorea.or.kr/cms/resource/85/3081685_image2_1.jpg",
    "category": "미술관화랑"
  },
  {
    "id": "2514804",
    "title": "진부령미술관",
    "address": "강원특별자치도 인제군 북면 진부령로 663",
    "phone": "",
    "latitude": "38.2654124845",
    "longitude": "128.3588495234",
    "image": "http://tong.visitkorea.or.kr/cms/resource/70/3353370_image2_1.jpg",
    "category": "미술관화랑"
  },
  {
    "id": "3351239",
    "title": "진부문화예술창작스튜디오",
    "address": "강원특별자치도 평창군 진부면 석두로 12-6",
    "phone": "",
    "latitude": "37.6355865979",
    "longitude": "128.5540678272",
    "image": "http://tong.visitkorea.or.kr/cms/resource/08/3380908_image2_1.jpg",
    "category": "미술관화랑"
  },
  {
    "id": "2620588",
    "title": "진주시립이성자미술관",
    "address": "경상남도 진주시 에나로128번길 14 (충무공동)",
    "phone": "",
    "latitude": "35.1758484273",
    "longitude": "128.1427629401",
    "image": "http://tong.visitkorea.or.kr/cms/resource/65/3540965_image2_1.jpg",
    "category": "미술관화랑"
  },
  {
    "id": "130436",
    "title": "진화랑",
    "address": "서울특별시 종로구 효자로 25",
    "phone": "",
    "latitude": "37.5783166791",
    "longitude": "126.9736600173",
    "image": "http://tong.visitkorea.or.kr/cms/resource/36/1837736_image2_1.jpg",
    "category": "미술관화랑"
  },
  {
    "id": "130086",
    "title": "창원시립마산문신미술관",
    "address": "경상남도 창원시 마산합포구 문신길 147",
    "phone": "",
    "latitude": "35.2067609510",
    "longitude": "128.5692942322",
    "image": "http://tong.visitkorea.or.kr/cms/resource/61/3569161_image2_1.jpg",
    "category": "미술관화랑"
  },
  {
    "id": "2763024",
    "title": "천안시립미술관",
    "address": "충청남도 천안시 동남구 성남면 종합휴양지로 185",
    "phone": "",
    "latitude": "36.7561773466",
    "longitude": "127.2249046465",
    "image": "http://tong.visitkorea.or.kr/cms/resource/90/3503390_image2_1.jpg",
    "category": "미술관화랑"
  },
  {
    "id": "1947163",
    "title": "청목화랑 전통낙화연구소",
    "address": "충청북도 보은군 보은읍 보청대로 1471",
    "phone": "",
    "latitude": "36.4877204163",
    "longitude": "127.7539590580",
    "image": "http://tong.visitkorea.or.kr/cms/resource/69/3558269_image2_1.jpg",
    "category": "미술관화랑"
  },
  {
    "id": "130595",
    "title": "청작화랑",
    "address": "서울특별시 강남구 압구정로 134",
    "phone": "",
    "latitude": "37.5243516222",
    "longitude": "127.0235014499",
    "image": "http://tong.visitkorea.or.kr/cms/resource/42/1258242_image2_1.jpg",
    "category": "미술관화랑"
  },
  {
    "id": "1627090",
    "title": "청주시립대청호미술관",
    "address": "충청북도 청주시 상당구 문의면 대청호반로 721",
    "phone": "",
    "latitude": "36.5071079587",
    "longitude": "127.4937206905",
    "image": "http://tong.visitkorea.or.kr/cms/resource/90/3357190_image2_1.jpg",
    "category": "미술관화랑"
  },
  {
    "id": "2766537",
    "title": "청주시립미술관",
    "address": "충청북도 청주시 서원구 충렬로18번길 50",
    "phone": "",
    "latitude": "36.6347208288",
    "longitude": "127.4783185558",
    "image": "http://tong.visitkorea.or.kr/cms/resource/48/2767248_image2_1.jpg",
    "category": "미술관화랑"
  },
  {
    "id": "2671122",
    "title": "청주시한국공예관",
    "address": "충청북도 청주시 청원구 상당로 314",
    "phone": "",
    "latitude": "36.6562491662",
    "longitude": "127.4923972539",
    "image": "http://tong.visitkorea.or.kr/cms/resource/12/3504612_image2_1.jpg",
    "category": "미술관화랑"
  },
  {
    "id": "129930",
    "title": "청화랑",
    "address": "서울특별시 강남구 삼성로147길 4 (청담동)",
    "phone": "",
    "latitude": "37.5227911263",
    "longitude": "127.0476659606",
    "image": "http://tong.visitkorea.or.kr/cms/resource/78/3413878_image2_1.jpg",
    "category": "미술관화랑"
  },
  {
    "id": "130661",
    "title": "춘천미술관",
    "address": "강원특별자치도 춘천시 서부대성로 71 (옥천동)",
    "phone": "",
    "latitude": "37.8825701554",
    "longitude": "127.7310016491",
    "image": "http://tong.visitkorea.or.kr/cms/resource/41/2029841_image2_1.jpg",
    "category": "미술관화랑"
  },
  {
    "id": "2007772",
    "title": "캔아트 체험교실",
    "address": "충청남도 아산시 신리길 55 (신동)",
    "phone": "",
    "latitude": "36.7781770047",
    "longitude": "127.0350961427",
    "image": "http://tong.visitkorea.or.kr/cms/resource/64/2007764_image2_1.JPG",
    "category": "미술관화랑"
  },
  {
    "id": "2714028",
    "title": "쾨닉 서울",
    "address": "서울특별시 용산구 소월로38길 30-34 (이태원동)",
    "phone": "",
    "latitude": "37.5441515030",
    "longitude": "126.9902678047",
    "image": "http://tong.visitkorea.or.kr/cms/resource/06/3463106_image2_1.jpg",
    "category": "미술관화랑"
  },
  {
    "id": "130841",
    "title": "클레이아크 김해미술관",
    "address": "경상남도 김해시 진례면 분청로 25",
    "phone": "",
    "latitude": "35.2516924387",
    "longitude": "128.7450221111",
    "image": "http://tong.visitkorea.or.kr/cms/resource/43/3535043_image2_1.jpg",
    "category": "미술관화랑"
  },
  {
    "id": "1940446",
    "title": "킴스아트필드미술관",
    "address": "부산광역시 금정구 죽전1길 29",
    "phone": "",
    "latitude": "35.2524397057",
    "longitude": "129.0542062355",
    "image": "",
    "category": "미술관화랑"
  },
  {
    "id": "130272",
    "title": "토탈미술관",
    "address": "서울특별시 종로구 평창32길 8 (평창동)",
    "phone": "",
    "latitude": "37.6122905445",
    "longitude": "126.9757505309",
    "image": "http://tong.visitkorea.or.kr/cms/resource/99/3499799_image2_1.jpg",
    "category": "미술관화랑"
  },
  {
    "id": "130848",
    "title": "통영 옻칠미술관",
    "address": "경상남도 통영시 용남면 용남해안로 36",
    "phone": "",
    "latitude": "34.8546259142",
    "longitude": "128.4429590686",
    "image": "http://tong.visitkorea.or.kr/cms/resource/40/3556740_image2_1.jpg",
    "category": "미술관화랑"
  },
  {
    "id": "2718737",
    "title": "트릭아트스토리",
    "address": "인천광역시 중구 동화마을길 42 (송월동3가)",
    "phone": "",
    "latitude": "37.4776859887",
    "longitude": "126.6207394716",
    "image": "http://tong.visitkorea.or.kr/cms/resource/85/3529785_image2_1.jpg",
    "category": "미술관화랑"
  },
  {
    "id": "3044306",
    "title": "파운드리 서울",
    "address": "서울특별시 용산구 이태원로 223 (한남동)",
    "phone": "",
    "latitude": "37.5355193212",
    "longitude": "126.9985506278",
    "image": "http://tong.visitkorea.or.kr/cms/resource/43/3503143_image2_1.jpg",
    "category": "미술관화랑"
  },
  {
    "id": "736133",
    "title": "포네티브 스페이스",
    "address": "경기도 파주시 탄현면 헤이리마을길 34",
    "phone": "",
    "latitude": "37.7871679722",
    "longitude": "126.6970543798",
    "image": "http://tong.visitkorea.or.kr/cms/resource/17/3505417_image2_1.jpg",
    "category": "미술관화랑"
  },
  {
    "id": "130226",
    "title": "포스코미술관",
    "address": "서울특별시 강남구 테헤란로 440",
    "phone": "",
    "latitude": "37.5058765750",
    "longitude": "127.0560767850",
    "image": "http://tong.visitkorea.or.kr/cms/resource/54/684154_image2_1.jpg",
    "category": "미술관화랑"
  },
  {
    "id": "2406280",
    "title": "포항시립미술관",
    "address": "경상북도 포항시 북구 환호공원길 10",
    "phone": "",
    "latitude": "36.0661432786",
    "longitude": "129.3908649352",
    "image": "http://tong.visitkorea.or.kr/cms/resource/36/3413936_image2_1.jpg",
    "category": "미술관화랑"
  },
  {
    "id": "129852",
    "title": "표갤러리",
    "address": "서울특별시 종로구 자하문로5길 18-4",
    "phone": "",
    "latitude": "37.5779444497",
    "longitude": "126.9708491732",
    "image": "http://tong.visitkorea.or.kr/cms/resource/93/3413893_image2_1.jpg",
    "category": "미술관화랑"
  },
  {
    "id": "3379703",
    "title": "푸투라서울",
    "address": "서울특별시 종로구 북촌로 61 (가회동)",
    "phone": "",
    "latitude": "37.5823025261",
    "longitude": "126.9847811131",
    "image": "http://tong.visitkorea.or.kr/cms/resource/98/3379698_image2_1.jpg",
    "category": "미술관화랑"
  },
  {
    "id": "3036159",
    "title": "플레이스 씨",
    "address": "경상북도 경주시 국당2길 2 (사정동)",
    "phone": "",
    "latitude": "35.8265001860",
    "longitude": "129.2062574520",
    "image": "http://tong.visitkorea.or.kr/cms/resource/98/3543198_image2_1.jpg",
    "category": "미술관화랑"
  },
  {
    "id": "130645",
    "title": "하나아트갤러리",
    "address": "서울특별시 종로구 인사동10길 2 (관훈동)",
    "phone": "",
    "latitude": "37.5739673937",
    "longitude": "126.9853035240",
    "image": "http://tong.visitkorea.or.kr/cms/resource/78/3499478_image2_1.jpg",
    "category": "미술관화랑"
  },
  {
    "id": "127951",
    "title": "하슬라아트월드",
    "address": "강원특별자치도 강릉시 강동면 율곡로 1441",
    "phone": "",
    "latitude": "37.7065316769",
    "longitude": "129.0102329067",
    "image": "http://tong.visitkorea.or.kr/cms/resource/77/3349677_image2_1.jpg",
    "category": "미술관화랑"
  },
  {
    "id": "2705312",
    "title": "하의도 야외 조각미술관",
    "address": "전라남도 신안군 하의면 웅곡리",
    "phone": "",
    "latitude": "34.6079433273",
    "longitude": "126.0366680064",
    "image": "",
    "category": "미술관화랑"
  },
  {
    "id": "2822357",
    "title": "하정웅미술관(광주)",
    "address": "광주광역시 서구 상무대로 1165",
    "phone": "",
    "latitude": "35.1544846441",
    "longitude": "126.8891044104",
    "image": "http://tong.visitkorea.or.kr/cms/resource/48/2822348_image2_1.jpg",
    "category": "미술관화랑"
  },
  {
    "id": "129908",
    "title": "학고재",
    "address": "서울특별시 종로구 삼청로 50 (소격동)",
    "phone": "",
    "latitude": "37.5803498941",
    "longitude": "126.9802371380",
    "image": "http://tong.visitkorea.or.kr/cms/resource/33/3497533_image2_1.jpg",
    "category": "미술관화랑"
  },
  {
    "id": "130079",
    "title": "한국미술관",
    "address": "경기도 용인시 기흥구 마북로 244-2 (마북동)",
    "phone": "",
    "latitude": "37.3088591090",
    "longitude": "127.1314754958",
    "image": "http://tong.visitkorea.or.kr/cms/resource/56/3068456_image2_1.jpg",
    "category": "미술관화랑"
  },
  {
    "id": "2739479",
    "title": "한국미술관",
    "address": "서울특별시 종로구 인사동길 12",
    "phone": "",
    "latitude": "37.5719509965",
    "longitude": "126.9872645136",
    "image": "http://tong.visitkorea.or.kr/cms/resource/76/3412076_image2_1.JPG",
    "category": "미술관화랑"
  },
  {
    "id": "1605942",
    "title": "한벽원미술관",
    "address": "서울특별시 종로구 삼청로 83",
    "phone": "",
    "latitude": "37.5830162746",
    "longitude": "126.9815258340",
    "image": "http://tong.visitkorea.or.kr/cms/resource/53/1568453_image2_1.jpg",
    "category": "미술관화랑"
  },
  {
    "id": "2657501",
    "title": "한옥카페 갤러리 도솔",
    "address": "인천광역시 강화군 길상면 길상로210번길 52-71",
    "phone": "",
    "latitude": "37.6420509580",
    "longitude": "126.5064842332",
    "image": "",
    "category": "미술관화랑"
  },
  {
    "id": "129763",
    "title": "한원미술관",
    "address": "서울특별시 서초구 남부순환로 2423 (서초동)",
    "phone": "",
    "latitude": "37.4818314151",
    "longitude": "127.0154561618",
    "image": "http://tong.visitkorea.or.kr/cms/resource/55/3527455_image2_1.JPG",
    "category": "미술관화랑"
  },
  {
    "id": "130301",
    "title": "한전갤러리",
    "address": "서울특별시 서초구 효령로72길 60",
    "phone": "",
    "latitude": "37.4851840297",
    "longitude": "127.0280576979",
    "image": "http://tong.visitkorea.or.kr/cms/resource/24/682224_image2_1.jpg",
    "category": "미술관화랑"
  },
  {
    "id": "130959",
    "title": "한향림도자미술관",
    "address": "경기도 파주시 탄현면 헤이리마을길 82-37",
    "phone": "",
    "latitude": "37.7890150530",
    "longitude": "126.7012095023",
    "image": "http://tong.visitkorea.or.kr/cms/resource/43/3504143_image2_1.jpg",
    "category": "미술관화랑"
  },
  {
    "id": "2831782",
    "title": "한희원미술관",
    "address": "광주광역시 남구 양촌길 27-6",
    "phone": "",
    "latitude": "35.1411199091",
    "longitude": "126.9141192006",
    "image": "http://tong.visitkorea.or.kr/cms/resource/03/2831803_image2_1.jpg",
    "category": "미술관화랑"
  },
  {
    "id": "2485108",
    "title": "함평군립미술관",
    "address": "전라남도 함평군 함평읍 곤재로 27",
    "phone": "",
    "latitude": "35.0592031554",
    "longitude": "126.5222114574",
    "image": "http://tong.visitkorea.or.kr/cms/resource/48/3381348_image2_1.JPG",
    "category": "미술관화랑"
  },
  {
    "id": "2607010",
    "title": "해동문화예술촌",
    "address": "전라남도 담양군 담양읍 지침1길 6",
    "phone": "",
    "latitude": "35.3176400330",
    "longitude": "126.9839085797",
    "image": "http://tong.visitkorea.or.kr/cms/resource/05/3564205_image2_1.jpg",
    "category": "미술관화랑"
  },
  {
    "id": "2552255",
    "title": "해든뮤지움",
    "address": "인천광역시 강화군 길상면 장흥로101번길 44",
    "phone": "",
    "latitude": "37.6121239304",
    "longitude": "126.5088570712",
    "image": "http://tong.visitkorea.or.kr/cms/resource/20/3549020_image2_1.jpg",
    "category": "미술관화랑"
  },
  {
    "id": "2553414",
    "title": "해움미술관",
    "address": "경기도 수원시 팔달구 매산로 133 (교동)",
    "phone": "",
    "latitude": "37.2723112569",
    "longitude": "127.0150259762",
    "image": "http://tong.visitkorea.or.kr/cms/resource/72/3564572_image2_1.jpg",
    "category": "미술관화랑"
  },
  {
    "id": "130775",
    "title": "향암미술관",
    "address": "경상북도 울진군 온정면 백암온천로 1388",
    "phone": "",
    "latitude": "36.7181296340",
    "longitude": "129.3546155997",
    "image": "http://tong.visitkorea.or.kr/cms/resource/04/576704_image2_1.jpg",
    "category": "미술관화랑"
  },
  {
    "id": "3012679",
    "title": "헤이리 트릭아트",
    "address": "경기도 파주시 탄현면 헤이리마을길 93-53",
    "phone": "",
    "latitude": "37.7900954025",
    "longitude": "126.6967154389",
    "image": "http://tong.visitkorea.or.kr/cms/resource/70/3003170_image2_1.jpg",
    "category": "미술관화랑"
  },