[
  {
    "id": "130105",
    "title": "가천박물관",
    "address": "인천광역시 연수구 청량로102번길 40-9",
    "phone": "032-833-4747",
    "latitude": "37.4182241030",
    "longitude": "126.6576044255",
    "image": "",
    "category": "박물관"
  },
  {
    "id": "130446",
    "title": "가회민화박물관",
    "address": "서울특별시 종로구 북촌로 52 (가회동)",
    "phone": "",
    "latitude": "37.5815442900",
    "longitude": "126.9852783115",
    "image": "http://tong.visitkorea.or.kr/cms/resource/90/3355090_image2_1.png",
    "category": "박물관"
  },
  {
    "id": "590415",
    "title": "감귤박물관",
    "address": "제주특별자치도 서귀포시 효돈순환로 441",
    "phone": "",
    "latitude": "33.2711819574",
    "longitude": "126.6080904173",
    "image": "http://tong.visitkorea.or.kr/cms/resource/30/3411130_image2_1.jpg",
    "category": "박물관"
  },
  {
    "id": "129784",
    "title": "강릉 오죽헌·시립박물관",
    "address": "강원특별자치도 강릉시 율곡로3139번길 24 (죽헌동)",
    "phone": "",
    "latitude": "37.7791929484",
    "longitude": "128.8796896318",
    "image": "http://tong.visitkorea.or.kr/cms/resource/38/3527138_image2_1.jpg",
    "category": "박물관"
  },
  {
    "id": "3546624",
    "title": "강릉시청행정역사관 (행정역사관)",
    "address": "강원특별자치도 강릉시 강릉대로 33 (홍제동)",
    "phone": "",
    "latitude": "37.7520099488",
    "longitude": "128.8779628497",
    "image": "",
    "category": "박물관"
  },
  {
    "id": "3531540",
    "title": "강릉올림픽뮤지엄",
    "address": "강원특별자치도 강릉시 수리골길 102 (포남동)",
    "phone": "",
    "latitude": "37.7793516031",
    "longitude": "128.8971158338",
    "image": "",
    "category": "박물관"
  },
  {
    "id": "2551386",
    "title": "강릉원주대학교 박물관",
    "address": "강원특별자치도 강릉시 죽헌길 7",
    "phone": "",
    "latitude": "37.7707381838",
    "longitude": "128.8700824251",
    "image": "http://tong.visitkorea.or.kr/cms/resource/40/3383840_image2_1.JPG",
    "category": "박물관"
  },
  {
    "id": "1318353",
    "title": "강릉자수박물관",
    "address": "강원특별자치도 강릉시 죽헌길 140-12",
    "phone": "",
    "latitude": "37.7779681022",
    "longitude": "128.8803035030",
    "image": "http://tong.visitkorea.or.kr/cms/resource/51/3527851_image2_1.jpg",
    "category": "박물관"
  },
  {
    "id": "2592013",
    "title": "강릉커피박물관",
    "address": "강원특별자치도 강릉시 왕산면 왕산로 2171-19",
    "phone": "",
    "latitude": "37.6523779889",
    "longitude": "128.7846465405",
    "image": "http://tong.visitkorea.or.kr/cms/resource/19/3332919_image2_1.jpg",
    "category": "박물관"
  },
  {
    "id": "2555010",
    "title": "강원감영관찰사·무릉고서화미술박물관",
    "address": "강원특별자치도 원주시 흥업면 사제로 399-10",
    "phone": "",
    "latitude": "37.3252626560",
    "longitude": "127.8865289261",
    "image": "http://tong.visitkorea.or.kr/cms/resource/64/3437164_image2_1.jpg",
    "category": "박물관"
  },
  {
    "id": "130664",
    "title": "강원경찰박물관",
    "address": "강원특별자치도 춘천시 신북읍 신샘밭로 361",
    "phone": "",
    "latitude": "37.9254988538",
    "longitude": "127.7502791735",
    "image": "http://tong.visitkorea.or.kr/cms/resource/83/3382483_image2_1.JPG",
    "category": "박물관"
  },
  {
    "id": "129840",
    "title": "강원대학교중앙박물관",
    "address": "강원특별자치도 춘천시 공지로 188-77 (효자동)",
    "phone": "",
    "latitude": "37.8657251764",
    "longitude": "127.7461813237",
    "image": "http://tong.visitkorea.or.kr/cms/resource/58/3475458_image2_1.jpg",
    "category": "박물관"
  },
  {
    "id": "130670",
    "title": "강원종합박물관",
    "address": "강원특별자치도 삼척시 신기면 강원남부로 3016",
    "phone": "",
    "latitude": "37.3512296843",
    "longitude": "129.0864425560",
    "image": "http://tong.visitkorea.or.kr/cms/resource/80/3040280_image2_1.jpg",
    "category": "박물관"
  },
  {
    "id": "130728",
    "title": "강원특별자치도산림박물관",
    "address": "강원특별자치도 춘천시 화목원길 24 (사농동)",
    "phone": "",
    "latitude": "37.9242985075",
    "longitude": "127.7242510239",
    "image": "http://tong.visitkorea.or.kr/cms/resource/76/3562176_image2_1.jpg",
    "category": "박물관"
  },
  {
    "id": "130135",
    "title": "강진 고려청자박물관",
    "address": "전라남도 강진군 대구면 청자촌길 33",
    "phone": "",
    "latitude": "34.5087280332",
    "longitude": "126.8009030607",
    "image": "",
    "category": "박물관"
  },
  {
    "id": "2765333",
    "title": "강화성박물관",
    "address": "인천광역시 강화군 화도면 마니산로 657-6",
    "phone": "",
    "latitude": "37.6339476931",
    "longitude": "126.4250058070",
    "image": "http://tong.visitkorea.or.kr/cms/resource/49/2780349_image2_1.png",
    "category": "박물관"
  },
  {
    "id": "129810",
    "title": "강화역사박물관",
    "address": "인천광역시 강화군 하점면 강화대로 994-19",
    "phone": "",
    "latitude": "37.7737399035",
    "longitude": "126.4352815292",
    "image": "http://tong.visitkorea.or.kr/cms/resource/21/3383821_image2_1.JPG",
    "category": "박물관"
  },
  {
    "id": "2523291",
    "title": "강화자연사박물관",
    "address": "인천광역시 강화군 하점면 강화대로 994-33",
    "phone": "",
    "latitude": "37.7746508985",
    "longitude": "126.4347315543",
    "image": "http://tong.visitkorea.or.kr/cms/resource/19/3303819_image2_1.jpg",
    "category": "박물관"
  },
  {
    "id": "2657495",
    "title": "강화전쟁박물관",
    "address": "인천광역시 강화군 강화읍 해안동로1366번길 18",
    "phone": "",
    "latitude": "37.7336321177",
    "longitude": "126.5160613555",
    "image": "http://tong.visitkorea.or.kr/cms/resource/28/3532928_image2_1.jpg",
    "category": "박물관"
  },
  {
    "id": "3007790",
    "title": "거제곤충생태박물관",
    "address": "경상남도 거제시 거제남서로 3577 거제시농업개발원",
    "phone": "",
    "latitude": "34.8569114552",
    "longitude": "128.5803387153",
    "image": "http://tong.visitkorea.or.kr/cms/resource/21/3007521_image2_1.JPG",
    "category": "박물관"
  },
  {
    "id": "1622150",
    "title": "거제민속박물관",
    "address": "경상남도 거제시 대금산로 339-7 거제민속박물관",
    "phone": "",
    "latitude": "34.9493834248",
    "longitude": "128.6775944607",
    "image": "",
    "category": "박물관"
  },
  {
    "id": "129805",
    "title": "거제박물관",
    "address": "경상남도 거제시 거제대로 3791",
    "phone": "",
    "latitude": "34.8940508785",
    "longitude": "128.6861924097",
    "image": "http://tong.visitkorea.or.kr/cms/resource/71/3520971_image2_1.jpg",
    "category": "박물관"
  },
  {
    "id": "2783983",
    "title": "거제조선해양문화관",
    "address": "경상남도 거제시 일운면 지세포해안로 41",
    "phone": "",
    "latitude": "34.8337301246",
    "longitude": "128.7019093134",
    "image": "http://tong.visitkorea.or.kr/cms/resource/32/3510632_image2_1.jpg",
    "category": "박물관"
  },
  {
    "id": "2733126",
    "title": "거창근대의료박물관",
    "address": "경상남도 거창군 거창읍 시장1길 32",
    "phone": "",
    "latitude": "35.6864616973",
    "longitude": "127.9120946443",
    "image": "http://tong.visitkorea.or.kr/cms/resource/72/3571472_image2_1.JPG",
    "category": "박물관"
  },
  {
    "id": "130084",
    "title": "거창박물관",
    "address": "경상남도 거창군 거창읍 수남로 2181",
    "phone": "",
    "latitude": "35.6734631366",
    "longitude": "127.9102618219",
    "image": "http://tong.visitkorea.or.kr/cms/resource/64/3374064_image2_1.JPG",
    "category": "박물관"
  },
  {
    "id": "130853",
    "title": "건강과 성 박물관(제주)",
    "address": "제주특별자치도 서귀포시 안덕면 일주서로 1611",
    "phone": "",
    "latitude": "33.2549657152",
    "longitude": "126.3459024043",
    "image": "http://tong.visitkorea.or.kr/cms/resource/99/2996899_image2_1.JPG",
    "category": "박물관"
  },
  {
    "id": "129818",
    "title": "건국대학교 박물관",
    "address": "서울특별시 광진구 능동로 120",
    "phone": "",
    "latitude": "37.5428781974",
    "longitude": "127.0763072274",
    "image": "http://tong.visitkorea.or.kr/cms/resource/50/3567150_image2_1.jpg",
    "category": "박물관"
  },
  {
    "id": "915371",
    "title": "결성농요농사박물관",
    "address": "충청남도 홍성군 결성면 구성남로 91",
    "phone": "",
    "latitude": "36.5326051200",
    "longitude": "126.5489604587",
    "image": "",
    "category": "박물관"
  },
  {
    "id": "130919",
    "title": "경기대학교소성박물관",
    "address": "경기도 수원시 영통구 광교산로 154-42 (이의동)",
    "phone": "",
    "latitude": "37.3016554144",
    "longitude": "127.0337012377",
    "image": "http://tong.visitkorea.or.kr/cms/resource/63/3072563_image2_1.jpg",
    "category": "박물관"
  },
  {
    "id": "130136",
    "title": "경기도박물관",
    "address": "경기도 용인시 기흥구 상갈로 6 (상갈동)",
    "phone": "",
    "latitude": "37.2669663063",
    "longitude": "127.1074344094",
    "image": "http://tong.visitkorea.or.kr/cms/resource/77/3038977_image2_1.jpg",
    "category": "박물관"
  },
  {
    "id": "1605877",
    "title": "경기도어린이박물관",
    "address": "경기도 용인시 기흥구 상갈로 6 (상갈동)",
    "phone": "",
    "latitude": "37.2669663063",
    "longitude": "127.1074344094",
    "image": "http://tong.visitkorea.or.kr/cms/resource/26/3058026_image2_1.jpg",
    "category": "박물관"
  },
  {
    "id": "130358",
    "title": "경기도자박물관",
    "address": "경기도 광주시 곤지암읍 경충대로 727",
    "phone": "",
    "latitude": "37.3510216352",
    "longitude": "127.3266121626",
    "image": "",
    "category": "박물관"
  },
  {
    "id": "3427294",
    "title": "경기도행정역사관",
    "address": "경기도 수원시 장안구 경수대로 1150 (파장동)",
    "phone": "",
    "latitude": "37.3135115827",
    "longitude": "126.9894215933",
    "image": "http://tong.visitkorea.or.kr/cms/resource/91/3427291_image2_1.jpg",
    "category": "박물관"
  },
  {
    "id": "2493039",
    "title": "경기북부어린이박물관",
    "address": "경기도 동두천시 평화로2910번길 46 (상봉암동)",
    "phone": "",
    "latitude": "37.9447256442",
    "longitude": "127.0644662284",
    "image": "",
    "category": "박물관"
  },
  {
    "id": "2552251",
    "title": "경기여고 경운박물관(서울)",
    "address": "서울특별시 강남구 삼성로 29",
    "phone": "",
    "latitude": "37.4867511901",
    "longitude": "127.0656764529",
    "image": "http://tong.visitkorea.or.kr/cms/resource/99/3393799_image2_1.JPG",
    "category": "박물관"
  },
  {
    "id": "129821",
    "title": "경남대학교 박물관",
    "address": "경상남도 창원시 마산합포구 경남대학로 7",
    "phone": "",
    "latitude": "35.1801997533",
    "longitude": "128.5532630134",
    "image": "",
    "category": "박물관"
  },
  {
    "id": "1115923",
    "title": "경북대학교박물관",
    "address": "대구광역시 북구 대학로 80",
    "phone": "",
    "latitude": "35.8906568441",
    "longitude": "128.6121828463",
    "image": "http://tong.visitkorea.or.kr/cms/resource/05/3515805_image2_1.jpg",
    "category": "박물관"
  },
  {
    "id": "1621181",
    "title": "경북대학교자연사박물관",
    "address": "대구광역시 군위군 효령면 경북대로 2228",
    "phone": "",
    "latitude": "36.1214827951",
    "longitude": "128.5769683751",
    "image": "http://tong.visitkorea.or.kr/cms/resource/12/3338412_image2_1.jpg",
    "category": "박물관"
  },
  {
    "id": "1421739",
    "title": "경산시립박물관",
    "address": "경상북도 경산시 박물관로 46",
    "phone": "",
    "latitude": "35.8153264706",
    "longitude": "128.7619162140",
    "image": "",
    "category": "박물관"
  },
  {
    "id": "130671",
    "title": "경상북도 산림과학박물관",
    "address": "경상북도 안동시 도산면 퇴계로 2189",
    "phone": "",
    "latitude": "36.7141837874",
    "longitude": "128.8236183780",
    "image": "http://tong.visitkorea.or.kr/cms/resource/98/3427298_image2_1.jpg",
    "category": "박물관"
  },
  {
    "id": "1607203",
    "title": "경성대학교 조류관",
    "address": "부산광역시 남구 수영로 309",
    "phone": "",
    "latitude": "35.1422639512",
    "longitude": "129.0969499828",
    "image": "",
    "category": "박물관"
  },
  {
    "id": "2899295",
    "title": "경주세계자동차박물관",
    "address": "경상북도 경주시 보문로 132-22 (북군동)",
    "phone": "",
    "latitude": "35.8519318107",
    "longitude": "129.2677318961",
    "image": "http://tong.visitkorea.or.kr/cms/resource/89/2899289_image2_1.jpg",
    "category": "박물관"
  },
  {
    "id": "3036287",
    "title": "경주쪽샘유적발굴관",
    "address": "경상북도 경주시 태종로 788 (황오동)",
    "phone": "",
    "latitude": "35.8399960374",
    "longitude": "129.2143369149",
    "image": "http://tong.visitkorea.or.kr/cms/resource/48/3036248_image2_1.jpg",
    "category": "박물관"
  },
  {
    "id": "130920",
    "title": "경희대학교 자연사박물관",
    "address": "서울특별시 동대문구 경희대로 26 (회기동)",
    "phone": "",
    "latitude": "37.5939357294",
    "longitude": "127.0527301456",
    "image": "http://tong.visitkorea.or.kr/cms/resource/01/3540401_image2_1.jpg",
    "category": "박물관"
  },
  {
    "id": "129833",
    "title": "경희대학교 중앙박물관",
    "address": "서울특별시 동대문구 경희대로 26 (회기동)",
    "phone": "",
    "latitude": "19.6944274800",
    "longitude": "117.9925662504",
    "image": "http://tong.visitkorea.or.kr/cms/resource/63/3505463_image2_1.jpg",
    "category": "박물관"
  },
  {
    "id": "129826",
    "title": "계명대학교 행소박물관",
    "address": "대구광역시 달서구 달구벌대로 1095",
    "phone": "",
    "latitude": "35.8557918555",
    "longitude": "128.4888835704",
    "image": "http://tong.visitkorea.or.kr/cms/resource/25/3501325_image2_1.jpg",
    "category": "박물관"
  },
  {
    "id": "2718558",
    "title": "계양산성박물관",
    "address": "인천광역시 계양구 계양산로 101",
    "phone": "032-450-8317~8",
    "latitude": "37.5480769058",
    "longitude": "126.7270333647",
    "image": "http://tong.visitkorea.or.kr/cms/resource/68/3303068_image2_1.jpg",
    "category": "박물관"
  },
  {
    "id": "129831",
    "title": "고려대학교 박물관",
    "address": "서울특별시 성북구 안암로 145 (안암동5가)",
    "phone": "",
    "latitude": "37.5882471654",
    "longitude": "127.0340403438",
    "image": "http://tong.visitkorea.or.kr/cms/resource/24/3540424_image2_1.jpg",
    "category": "박물관"
  },
  {
    "id": "778140",
    "title": "고성 DMZ박물관",
    "address": "강원특별자치도 고성군 현내면 통일전망대로 369",
    "phone": "",
    "latitude": "38.5763238583",
    "longitude": "128.3826570629",
    "image": "http://tong.visitkorea.or.kr/cms/resource/51/2921751_image2_1.jpg",
    "category": "박물관"
  },
  {
    "id": "130540",
    "title": "고성공룡박물관",
    "address": "경상남도 고성군 하이면 자란만로 618",
    "phone": "",
    "latitude": "34.9081119152",
    "longitude": "128.1486833366",
    "image": "http://tong.visitkorea.or.kr/cms/resource/68/3491868_image2_1.jpg",
    "category": "박물관"
  },
  {
    "id": "2613162",
    "title": "고성박물관",
    "address": "경상남도 고성군 고성읍 송학로113번길 50",
    "phone": "",
    "latitude": "34.9793875443",
    "longitude": "128.3208914293",
    "image": "http://tong.visitkorea.or.kr/cms/resource/87/3372987_image2_1.JPG",
    "category": "박물관"
  },
  {
    "id": "130256",
    "title": "고성자연사박물관",
    "address": "경상남도 고성군 회화면 당항만로 1116",
    "phone": "",
    "latitude": "35.0563275322",
    "longitude": "128.3986464938",
    "image": "",
    "category": "박물관"
  },
  {
    "id": "130906",
    "title": "고성탈박물관",
    "address": "경상남도 고성군 고성읍 율대2길 23",
    "phone": "",
    "latitude": "34.9710553755",
    "longitude": "128.3338321857",
    "image": "",
    "category": "박물관"
  },
  {
    "id": "2551413",
    "title": "고양어린이박물관",
    "address": "경기도 고양시 덕양구 화중로 26",
    "phone": "",
    "latitude": "37.6294748416",
    "longitude": "126.8309271475",
    "image": "http://tong.visitkorea.or.kr/cms/resource/58/3356158_image2_1.jpg",
    "category": "박물관"
  },
  {
    "id": "799358",
    "title": "고창 세계유산 고인돌박물관",
    "address": "전북특별자치도 고창군 고창읍 고인돌공원길 74",
    "phone": "",
    "latitude": "35.4415120412",
    "longitude": "126.6515349390",
    "image": "http://tong.visitkorea.or.kr/cms/resource/98/3058998_image2_1.jpg",
    "category": "박물관"
  },
  {
    "id": "130538",
    "title": "고창판소리박물관",
    "address": "전북특별자치도 고창군 고창읍 동리로 100",
    "phone": "",
    "latitude": "35.4324167130",
    "longitude": "126.7027306184",
    "image": "http://tong.visitkorea.or.kr/cms/resource/28/1602928_image2_1.jpg",
    "category": "박물관"
  },
  {
    "id": "130539",
    "title": "고판화박물관",
    "address": "강원특별자치도 원주시 신림면 물안길 62",
    "phone": "",
    "latitude": "37.2571333614",
    "longitude": "128.1286979760",
    "image": "http://tong.visitkorea.or.kr/cms/resource/36/3375236_image2_1.JPG",
    "category": "박물관"
  },
  {
    "id": "2605786",
    "title": "고흥분청문화박물관",
    "address": "전라남도 고흥군 두원면 분청문화박물관길 99",
    "phone": "",
    "latitude": "34.6278595774",
    "longitude": "127.3244875637",
    "image": "http://tong.visitkorea.or.kr/cms/resource/70/3344670_image2_1.JPG",
    "category": "박물관"
  },
  {
    "id": "130171",
    "title": "공주민속극박물관",
    "address": "충청남도 공주시 의당면 돌모루2길 17-15",
    "phone": "",
    "latitude": "36.5022801508",
    "longitude": "127.1481684687",
    "image": "http://tong.visitkorea.or.kr/cms/resource/92/3338692_image2_1.jpg",
    "category": "박물관"
  },
  {
    "id": "2733410",
    "title": "광명에디슨뮤지엄",
    "address": "경기도 광명시 일직로12번길 24 (일직동)",
    "phone": "",
    "latitude": "37.4209138762",
    "longitude": "126.8818561453",
    "image": "http://tong.visitkorea.or.kr/cms/resource/75/3563475_image2_1.jpg",
    "category": "박물관"
  },
  {
    "id": "231965",
    "title": "광양 장도박물관",
    "address": "전라남도 광양시 매천로 771 광양장도전수관",
    "phone": "",
    "latitude": "34.9768609235",
    "longitude": "127.5805729801",
    "image": "http://tong.visitkorea.or.kr/cms/resource/88/3345088_image2_1.JPG",
    "category": "박물관"
  },
  {
    "id": "130065",
    "title": "광주 역사민속박물관",
    "address": "광주광역시 북구 서하로 48-25 (용봉동)",
    "phone": "",
    "latitude": "35.1840146292",
    "longitude": "126.8883704024",
    "image": "http://tong.visitkorea.or.kr/cms/resource/56/3572456_image2_1.jpg",
    "category": "박물관"
  },
  {
    "id": "2718684",
    "title": "구미성리학역사관",
    "address": "경상북도 구미시 금오산로 336-13 (남통동)",
    "phone": "",
    "latitude": "36.1146287299",
    "longitude": "128.3143001390",
    "image": "http://tong.visitkorea.or.kr/cms/resource/69/3489769_image2_1.jpg",
    "category": "박물관"
  },
  {
    "id": "129827",
    "title": "국립경국대학교 박물관",
    "address": "경상북도 안동시 경동로 1375 (송천동)",
    "phone": "",
    "latitude": "36.5396920441",
    "longitude": "128.7943705048",
    "image": "http://tong.visitkorea.or.kr/cms/resource/66/3401766_image2_1.jpg",
    "category": "박물관"
  },
  {
    "id": "129778",
    "title": "국립경주박물관",
    "address": "경상북도 경주시 일정로 186 (인왕동)",
    "phone": "",
    "latitude": "35.8305223721",
    "longitude": "129.2283998415",
    "image": "http://tong.visitkorea.or.kr/cms/resource/99/3509099_image2_1.jpg",
    "category": "박물관"
  },
  {
    "id": "2782735",
    "title": "국립경찰박물관",
    "address": "서울특별시 종로구 송월길 162 (행촌동)",
    "phone": "",
    "latitude": "37.5721116394",
    "longitude": "126.9622112373",
    "image": "http://tong.visitkorea.or.kr/cms/resource/69/3505669_image2_1.jpg",
    "category": "박물관"
  },
  {
    "id": "129811",
    "title": "국립고궁박물관",
    "address": "서울특별시 종로구 효자로 12 (세종로)",
    "phone": "",
    "latitude": "37.5766446750",
    "longitude": "126.9749904992",
    "image": "http://tong.visitkorea.or.kr/cms/resource/75/3350375_image2_1.jpg",
    "category": "박물관"
  },
  {
    "id": "130182",
    "title": "국립공원 산악박물관",
    "address": "서울특별시 도봉구 도봉산길 86 (도봉동)",
    "phone": "",
    "latitude": "37.6871579053",
    "longitude": "127.0351735342",
    "image": "http://tong.visitkorea.or.kr/cms/resource/46/3512846_image2_1.jpg",
    "category": "박물관"
  },
  {
    "id": "129787",
    "title": "국립공주박물관",
    "address": "충청남도 공주시 관광단지길 34 (웅진동)",
    "phone": "",
    "latitude": "36.4665696863",
    "longitude": "127.1100589651",
    "image": "http://tong.visitkorea.or.kr/cms/resource/33/3534933_image2_1.jpg",
    "category": "박물관"
  },
  {
    "id": "130924",
    "title": "국립관세박물관",
    "address": "서울특별시 강남구 언주로 721",
    "phone": "",
    "latitude": "37.5181775216",
    "longitude": "127.0336451451",
    "image": "http://tong.visitkorea.or.kr/cms/resource/25/3503425_image2_1.jpg",
    "category": "박물관"
  },
  {
    "id": "129782",
    "title": "국립광주박물관",
    "address": "광주광역시 북구 하서로 110",
    "phone": "",
    "latitude": "35.1890417498",
    "longitude": "126.8830651901",
    "image": "http://tong.visitkorea.or.kr/cms/resource/56/3351356_image2_1.jpg",
    "category": "박물관"
  },
  {
    "id": "130125",
    "title": "국립국악박물관",
    "address": "서울특별시 서초구 남부순환로 2364 (서초동)",
    "phone": "",
    "latitude": "37.4784066973",
    "longitude": "127.0090512856",
    "image": "http://tong.visitkorea.or.kr/cms/resource/74/3540474_image2_1.jpg",
    "category": "박물관"
  },
  {
    "id": "130356",
    "title": "국립군산대학교 박물관",
    "address": "전북특별자치도 군산시 대학로 558 (미룡동)",
    "phone": "",
    "latitude": "35.9455608162",
    "longitude": "126.6851468852",
    "image": "http://tong.visitkorea.or.kr/cms/resource/23/3560923_image2_1.jpg",
    "category": "박물관"
  },
  {
    "id": "3012859",
    "title": "국립극장 공연예술박물관",
    "address": "서울특별시 중구 장충단로 59 (장충동2가)",
    "phone": "",
    "latitude": "37.5518007890",
    "longitude": "127.0000222551",
    "image": "http://tong.visitkorea.or.kr/cms/resource/11/3012811_image2_1.jpg",
    "category": "박물관"
  },
  {
    "id": "3038260",
    "title": "국립기상박물관",
    "address": "서울특별시 종로구 송월동 1-1 국립기상박물관",
    "phone": "",
    "latitude": "37.5696203417",
    "longitude": "126.9666303489",
    "image": "http://tong.visitkorea.or.kr/cms/resource/38/3456038_image2_1.jpg",
    "category": "박물관"
  },
  {
    "id": "130690",
    "title": "국립김해박물관",
    "address": "경상남도 김해시 가야의길 190",
    "phone": "",
    "latitude": "35.2430235419",
    "longitude": "128.8734583601",
    "image": "http://tong.visitkorea.or.kr/cms/resource/97/3553497_image2_1.jpg",
    "category": "박물관"
  },
  {
    "id": "1906729",
    "title": "국립나주박물관",
    "address": "전라남도 나주시 반남면 고분로 747",
    "phone": "",
    "latitude": "34.9148133957",
    "longitude": "126.6597917191",
    "image": "http://tong.visitkorea.or.kr/cms/resource/50/3016550_image2_1.jpg",
    "category": "박물관"
  },
  {
    "id": "2944481",
    "title": "국립농업박물관",
    "address": "경기도 수원시 권선구 수인로 154 (서둔동)",
    "phone": "",
    "latitude": "37.2746965149",
    "longitude": "126.9826871782",
    "image": "http://tong.visitkorea.or.kr/cms/resource/63/2944363_image2_1.jpg",
    "category": "박물관"
  },
  {
    "id": "130132",
    "title": "국립대구박물관",
    "address": "대구광역시 수성구 청호로 321",
    "phone": "",
    "latitude": "35.8455790962",
    "longitude": "128.6383484648",
    "image": "http://tong.visitkorea.or.kr/cms/resource/85/3008585_image2_1.jpg",
    "category": "박물관"
  },
  {
    "id": "130500",
    "title": "국립등대박물관",
    "address": "경상북도 포항시 남구 호미곶면 해맞이로150번길 20",
    "phone": "",
    "latitude": "36.0778398027",
    "longitude": "129.5682601461",
    "image": "http://tong.visitkorea.or.kr/cms/resource/91/3512491_image2_1.JPG",
    "category": "박물관"
  },
  {
    "id": "2738515",
    "title": "국립민속박물관 파주",
    "address": "경기도 파주시 탄현면 헤이리로 30",
    "phone": "",
    "latitude": "37.7867235239",
    "longitude": "126.6939296786",
    "image": "http://tong.visitkorea.or.kr/cms/resource/45/3505445_image2_1.jpg",
    "category": "박물관"
  },
  {
    "id": "130062",
    "title": "국립부여박물관",
    "address": "충청남도 부여군 부여읍 금성로 5",
    "phone": "",
    "latitude": "36.2763825813",
    "longitude": "126.9189645227",
    "image": "http://tong.visitkorea.or.kr/cms/resource/59/3544159_image2_1.jpg",
    "category": "박물관"
  },
  {
    "id": "2513889",
    "title": "국립산악박물관",
    "address": "강원특별자치도 속초시 미시령로 3054",
    "phone": "",
    "latitude": "38.2025955406",
    "longitude": "128.5404766211",
    "image": "http://tong.visitkorea.or.kr/cms/resource/42/3514742_image2_1.jpg",
    "category": "박물관"
  },
  {
    "id": "3097744",
    "title": "국립세계문자박물관",
    "address": "인천광역시 연수구 센트럴로 217 (송도동)",
    "phone": "",
    "latitude": "37.3947625929",
    "longitude": "126.6379568656",
    "image": "http://tong.visitkorea.or.kr/cms/resource/90/3454190_image2_1.jpg",
    "category": "박물관"
  },
  {
    "id": "130187",
    "title": "국립수목원 산림박물관",
    "address": "경기도 포천시 소흘읍 광릉수목원로 415",
    "phone": "",
    "latitude": "37.7518472513",
    "longitude": "127.1694149861",
    "image": "http://tong.visitkorea.or.kr/cms/resource/43/3039043_image2_1.jpg",
    "category": "박물관"
  },
  {
    "id": "3082317",
    "title": "국립어린이박물관",
    "address": "세종특별자치시 어울누리로 130 (세종동)",
    "phone": "",
    "latitude": "36.4898532341",
    "longitude": "127.2733936821",
    "image": "http://tong.visitkorea.or.kr/cms/resource/10/3082310_image2_1.jpg",
    "category": "박물관"
  },
  {
    "id": "130254",
    "title": "국립익산박물관",
    "address": "전북특별자치도 익산시 금마면 미륵사지로 362",
    "phone": "",
    "latitude": "36.0114953122",
    "longitude": "127.0286089242",
    "image": "http://tong.visitkorea.or.kr/cms/resource/02/3511702_image2_1.jpg",
    "category": "박물관"
  },
  {
    "id": "3447437",
    "title": "국립인천해양박물관",
    "address": "인천광역시 중구 월미로 294 (북성동1가)",
    "phone": "",
    "latitude": "37.4702419733",
    "longitude": "126.5959919369",
    "image": "http://tong.visitkorea.or.kr/cms/resource/55/3532255_image2_1.jpg",
    "category": "박물관"
  },
  {
    "id": "3375281",
    "title": "국립저작권박물관",
    "address": "경상남도 진주시 소호로 117 (충무공동)",
    "phone": "",
    "latitude": "35.1792367843",
    "longitude": "128.1342747058",
    "image": "http://tong.visitkorea.or.kr/cms/resource/00/3377700_image2_1.jpg",
    "category": "박물관"
  },
  {
    "id": "129786",
    "title": "국립전주박물관",
    "address": "전북특별자치도 전주시 완산구 쑥고개로 249",
    "phone": "",
    "latitude": "35.8013230910",
    "longitude": "127.0897200882",
    "image": "http://tong.visitkorea.or.kr/cms/resource/30/3442230_image2_1.jpg",
    "category": "박물관"
  },
  {
    "id": "130461",
    "title": "국립제주박물관",
    "address": "제주특별자치도 제주시 일주동로 17 (건입동)",
    "phone": "",
    "latitude": "33.5124015817",
    "longitude": "126.5492150664",
    "image": "http://tong.visitkorea.or.kr/cms/resource/63/3562163_image2_1.jpg",
    "category": "박물관"
  },
  {
    "id": "130952",
    "title": "국립조세박물관",
    "address": "세종특별자치시 국세청로 8-14 (나성동)",
    "phone": "",
    "latitude": "36.4851257668",
    "longitude": "127.2603227606",
    "image": "http://tong.visitkorea.or.kr/cms/resource/64/2437964_image2_1.jpg",
    "category": "박물관"
  },
  {
    "id": "129703",
    "title": "국립중앙박물관",
    "address": "서울특별시 용산구 서빙고로 137 (용산동6가)",
    "phone": "02-2077-9000",
    "latitude": "37.5211706397",
    "longitude": "126.9791278024",
    "image": "http://tong.visitkorea.or.kr/cms/resource/12/3495012_image2_1.jpg",
    "category": "박물관"
  },
  {
    "id": "1177980",
    "title": "국립중앙박물관 어린이박물관",
    "address": "서울특별시 용산구 서빙고로 137",
    "phone": "",
    "latitude": "37.5240675476",
    "longitude": "126.9803609412",
    "image": "http://tong.visitkorea.or.kr/cms/resource/10/3505410_image2_1.jpg",
    "category": "박물관"
  },
  {
    "id": "130744",
    "title": "국립지도박물관",
    "address": "경기도 수원시 영통구 월드컵로 92",
    "phone": "",
    "latitude": "37.2757949000",
    "longitude": "127.0549278136",
    "image": "http://tong.visitkorea.or.kr/cms/resource/28/3543028_image2_1.jpg",
    "category": "박물관"
  },
  {
    "id": "129774",
    "title": "국립진주박물관",
    "address": "경상남도 진주시 남강로 626-35",
    "phone": "",
    "latitude": "35.1889652253",
    "longitude": "128.0768878142",
    "image": "http://tong.visitkorea.or.kr/cms/resource/08/3557008_image2_1.jpg",
    "category": "박물관"
  },
  {
    "id": "129779",
    "title": "국립청주박물관",
    "address": "충청북도 청주시 상당구 명암로 143",
    "phone": "",
    "latitude": "36.6485420822",
    "longitude": "127.5127178664",
    "image": "http://tong.visitkorea.or.kr/cms/resource/80/3480580_image2_1.jpg",
    "category": "박물관"
  },
  {
    "id": "130143",
    "title": "국립청주박물관 어린이박물관",
    "address": "충청북도 청주시 상당구 명암로 143",
    "phone": "",
    "latitude": "36.6497224889",
    "longitude": "127.5119706779",
    "image": "http://tong.visitkorea.or.kr/cms/resource/11/3504411_image2_1.jpg",
    "category": "박물관"
  },
  {
    "id": "130654",
    "title": "국립춘천박물관",
    "address": "강원특별자치도 춘천시 우석로 70",
    "phone": "",
    "latitude": "37.8638949767",
    "longitude": "127.7538473472",
    "image": "http://tong.visitkorea.or.kr/cms/resource/97/2739797_image2_1.jpg",
    "category": "박물관"
  },
  {
    "id": "2706762",
    "title": "국립항공박물관",
    "address": "서울특별시 강서구 하늘길 177 (공항동)",
    "phone": "",
    "latitude": "37.5569217768",
    "longitude": "126.8088867586",
    "image": "http://tong.visitkorea.or.kr/cms/resource/14/3569014_image2_1.jpg",
    "category": "박물관"
  },
  {
    "id": "1825843",
    "title": "국립해양박물관",
    "address": "부산광역시 영도구 해양로301번길 45",
    "phone": "",
    "latitude": "35.0785402199",
    "longitude": "129.0803198368",
    "image": "http://tong.visitkorea.or.kr/cms/resource/96/3498596_image2_1.jpg",
    "category": "박물관"
  },
  {
    "id": "3080058",
    "title": "국회박물관",
    "address": "서울특별시 영등포구 의사당대로 1 (여의도동)",
    "phone": "",
    "latitude": "37.5294241180",
    "longitude": "126.9166304856",
    "image": "http://tong.visitkorea.or.kr/cms/resource/38/3540438_image2_1.jpg",
    "category": "박물관"
  },
  {
    "id": "1684836",
    "title": "군산근대역사박물관",
    "address": "전북특별자치도 군산시 해망로 240 군산근대역사박물관",
    "phone": "",
    "latitude": "35.9908644357",
    "longitude": "126.7119655377",
    "image": "http://tong.visitkorea.or.kr/cms/resource/14/3304814_image2_1.jpg",
    "category": "박물관"
  },
  {
    "id": "705052",
    "title": "귀족호도박물관",
    "address": "전라남도 장흥군 장흥읍 남부관광로 56-90",
    "phone": "",
    "latitude": "34.6750057964",
    "longitude": "126.9190969690",
    "image": "http://tong.visitkorea.or.kr/cms/resource/74/693174_image2_1.jpg",
    "category": "박물관"
  },
  {
    "id": "3090707",
    "title": "규남박물관",
    "address": "전라남도 화순군 이서면 백아로 3109",
    "phone": "",
    "latitude": "35.1101984314",
    "longitude": "127.0799247775",
    "image": "http://tong.visitkorea.or.kr/cms/resource/92/3090692_image2_1.jpg",
    "category": "박물관"
  },
  {
    "id": "1556005",
    "title": "그리스신화박물관",
    "address": "제주특별자치도 제주시 한림읍 광산로 942",
    "phone": "",
    "latitude": "33.3481028325",
    "longitude": "126.3576659720",
    "image": "http://tong.visitkorea.or.kr/cms/resource/71/3053171_image2_1.jpg",
    "category": "박물관"
  },
  {
    "id": "2782404",
    "title": "금산역사문화박물관",
    "address": "충청남도 금산군 금산읍 금산로 1575",
    "phone": "",
    "latitude": "36.1141528389",
    "longitude": "127.4918648759",
    "image": "http://tong.visitkorea.or.kr/cms/resource/86/3559586_image2_1.jpg",
    "category": "박물관"
  },
  {
    "id": "2751024",
    "title": "기독교박물관",
    "address": "충청남도 공주시 제민1길 18",
    "phone": "",
    "latitude": "36.4510272424",
    "longitude": "127.1225221544",
    "image": "http://tong.visitkorea.or.kr/cms/resource/90/3353690_image2_1.JPG",
    "category": "박물관"
  },
  {
    "id": "2912875",
    "title": "기지시줄다리기박물관",
    "address": "충청남도 당진시 안틀모시길 11",
    "phone": "",
    "latitude": "36.8962102003",
    "longitude": "126.6947764554",
    "image": "http://tong.visitkorea.or.kr/cms/resource/64/2912864_image2_1.jpg",
    "category": "박물관"
  },
  {
    "id": "2782664",
    "title": "기차왕국박물관카페",
    "address": "인천광역시 남동구 장자로6번길 112-7",
    "phone": "",
    "latitude": "37.4499527095",
    "longitude": "126.7558251461",
    "image": "http://tong.visitkorea.or.kr/cms/resource/19/3533319_image2_1.jpg",
    "category": "박물관"
  },
  {
    "id": "2553377",
    "title": "김달진미술자료박물관",
    "address": "서울특별시 종로구 홍지문1길 4",
    "phone": "",
    "latitude": "37.6000527346",
    "longitude": "126.9566054009",
    "image": "http://tong.visitkorea.or.kr/cms/resource/70/3412170_image2_1.JPG",
    "category": "박물관"
  },
  {
    "id": "1319217",
    "title": "김씨박물관",
    "address": "경상남도 창원시 진해구 소사로59번나길 4",
    "phone": "",
    "latitude": "35.1292345230",
    "longitude": "128.7762671470",
    "image": "http://tong.visitkorea.or.kr/cms/resource/77/3564777_image2_1.jpg",
    "category": "박물관"
  },
  {
    "id": "578875",
    "title": "김천 세계도자기박물관",
    "address": "경상북도 김천시 대항면 직지사길 118",
    "phone": "",
    "latitude": "36.1168951689",
    "longitude": "128.0111963938",
    "image": "http://tong.visitkorea.or.kr/cms/resource/13/3513313_image2_1.jpg",
    "category": "박물관"
  },
  {
    "id": "3523679",
    "title": "김천시립박물관",
    "address": "경상북도 김천시 대항면 직지사길 130",
    "phone": "",
    "latitude": "36.1169034720",
    "longitude": "128.0095382081",
    "image": "",
    "category": "박물관"
  },
  {
    "id": "2615069",
    "title": "김해 분청도자박물관",
    "address": "경상남도 김해시 진례면 분청로 17",
    "phone": "",
    "latitude": "35.2517674455",
    "longitude": "128.7459053654",
    "image": "http://tong.visitkorea.or.kr/cms/resource/73/3493873_image2_1.jpg",
    "category": "박물관"
  },
  {
    "id": "2710790",
    "title": "김해목재문화박물관",
    "address": "경상남도 김해시 관동로27번길 5-49 (관동동)",
    "phone": "",
    "latitude": "35.1800988480",
    "longitude": "128.8081602108",
    "image": "http://tong.visitkorea.or.kr/cms/resource/12/3539312_image2_1.jpg",
    "category": "박물관"
  },
  {
    "id": "2406386",
    "title": "김해민속박물관",
    "address": "경상남도 김해시 분성로261번길 35 (봉황동)",
    "phone": "",
    "latitude": "35.2350661468",
    "longitude": "128.8759611362",
    "image": "http://tong.visitkorea.or.kr/cms/resource/15/3539315_image2_1.jpg",
    "category": "박물관"
  },
  {
    "id": "3433217",
    "title": "김해한글박물관",
    "address": "경상남도 김해시 분성로 221 (외동)",
    "phone": "",
    "latitude": "35.2314109008",
    "longitude": "128.8704811584",
    "image": "http://tong.visitkorea.or.kr/cms/resource/98/3553598_image2_1.jpg",
    "category": "박물관"
  },
  {
    "id": "129781",
    "title": "나주배박물관",
    "address": "전라남도 나주시 금천면 영산로 5838",
    "phone": "",
    "latitude": "35.0341295066",
    "longitude": "126.7668793215",
    "image": "http://tong.visitkorea.or.kr/cms/resource/17/3346517_image2_1.JPG",
    "category": "박물관"
  },
  {
    "id": "130443",
    "title": "난계국악박물관",
    "address": "충청북도 영동군 심천면 국악로 9",
    "phone": "",
    "latitude": "36.2101762428",
    "longitude": "127.7049321798",
    "image": "http://tong.visitkorea.or.kr/cms/resource/39/764639_image2_1.jpg",
    "category": "박물관"
  },
  {
    "id": "2796756",
    "title": "남가람박물관",
    "address": "경상남도 진주시 내동면 칠봉산길 190",
    "phone": "",
    "latitude": "35.1526244749",
    "longitude": "128.0547851528",
    "image": "http://tong.visitkorea.or.kr/cms/resource/59/2799259_image2_1.jpg",
    "category": "박물관"
  },
  {
    "id": "231964",
    "title": "남도향토음식박물관",
    "address": "광주광역시 북구 설죽로 477",
    "phone": "",
    "latitude": "35.2017405787",
    "longitude": "126.8986968221",
    "image": "http://tong.visitkorea.or.kr/cms/resource/45/3510445_image2_1.jpg",
    "category": "박물관"
  },
  {
    "id": "1936797",
    "title": "남양주시립박물관",
    "address": "경기도 남양주시 와부읍 팔당로 121",
    "phone": "",
    "latitude": "37.5464391550",
    "longitude": "127.2443918318",
    "image": "http://tong.visitkorea.or.kr/cms/resource/16/3381916_image2_1.JPG",
    "category": "박물관"
  },
  {
    "id": "130506",
    "title": "남원향토박물관",
    "address": "전북특별자치도 남원시 양림길 14-9",
    "phone": "",
    "latitude": "35.4017874459",
    "longitude": "127.3871040927",
    "image": "http://tong.visitkorea.or.kr/cms/resource/15/3343915_image2_1.jpg",
    "category": "박물관"
  },
  {
    "id": "2557970",
    "title": "남이섬 노래박물관",
    "address": "강원특별자치도 춘천시 남산면 남이섬길 1",
    "phone": "",
    "latitude": "37.7901159965",
    "longitude": "127.5261035858",
    "image": "http://tong.visitkorea.or.kr/cms/resource/52/3561552_image2_1.jpg",
    "category": "박물관"
  },
  {
    "id": "3483675",
    "title": "넷마블게임박물관",
    "address": "서울특별시 구로구 디지털로26길 38 (구로동)",
    "phone": "",
    "latitude": "37.4798989348",
    "longitude": "126.8953338198",
    "image": "http://tong.visitkorea.or.kr/cms/resource/29/3484729_image2_1.jpg",
    "category": "박물관"
  },
  {
    "id": "2710858",
    "title": "노리숲길",
    "address": "강원특별자치도 속초시 노학동",
    "phone": "033-639-2424",
    "latitude": "38.1995570563",
    "longitude": "128.5431264753",
    "image": "http://tong.visitkorea.or.kr/cms/resource/44/3515444_image2_1.jpg",
    "category": "박물관"
  },
  {
    "id": "2762852",
    "title": "농업박물관",
    "address": "서울특별시 중구 새문안로 16 (충정로1가)",
    "phone": "",
    "latitude": "37.5668984613",
    "longitude": "126.9680664061",
    "image": "http://tong.visitkorea.or.kr/cms/resource/49/3439149_image2_1.jpg",
    "category": "박물관"
  },
  {
    "id": "130655",
    "title": "다도박물관",
    "address": "경기도 김포시 월곶면 애기봉로275번길 187-49",
    "phone": "",
    "latitude": "37.7375882442",
    "longitude": "126.5744558943",
    "image": "http://tong.visitkorea.or.kr/cms/resource/67/3335767_image2_1.jpg",
    "category": "박물관"
  },
  {
    "id": "2371605",
    "title": "다산박물관",
    "address": "전라남도 강진군 도암면 다산로 766-20",
    "phone": "",
    "latitude": "34.5764473762",
    "longitude": "126.7499697869",
    "image": "http://tong.visitkorea.or.kr/cms/resource/63/3381563_image2_1.JPG",
    "category": "박물관"
  },
  {
    "id": "129834",
    "title": "단국대학교 석주선기념박물관",
    "address": "경기도 용인시 수지구 죽전로 152 (죽전동)",
    "phone": "",
    "latitude": "37.3235211941",
    "longitude": "127.1255950613",
    "image": "http://tong.visitkorea.or.kr/cms/resource/02/3068802_image2_1.jpg",
    "category": "박물관"
  },
  {
    "id": "3456777",
    "title": "달성화석박물관",
    "address": "대구광역시 달성군 유가읍 테크노대로6길 66",
    "phone": "",
    "latitude": "35.6844274618",
    "longitude": "128.4645959888",
    "image": "http://tong.visitkorea.or.kr/cms/resource/74/3456774_image2_1.jpg",
    "category": "박물관"
  },
  {
    "id": "2784213",
    "title": "담양곤충박물관",
    "address": "전라남도 담양군 담양읍 담양88로 428",
    "phone": "",
    "latitude": "35.3224481934",
    "longitude": "127.0057009732",
    "image": "",
    "category": "박물관"
  },
  {
    "id": "2553930",
    "title": "담양우표박물관",
    "address": "전라남도 담양군 대전면 대치9길 16",
    "phone": "",
    "latitude": "35.2766069614",
    "longitude": "126.8895957452",
    "image": "http://tong.visitkorea.or.kr/cms/resource/46/3378146_image2_1.JPG",
    "category": "박물관"
  },
  {
    "id": "130099",
    "title": "대가야박물관",
    "address": "경상북도 고령군 대가야읍 대가야로 1203",
    "phone": "",
    "latitude": "35.7224360503",
    "longitude": "128.2568188043",
    "image": "http://tong.visitkorea.or.kr/cms/resource/68/3580668_image2_1.jpg",
    "category": "박물관"
  },
  {
    "id": "2772349",
    "title": "대관령 스키 역사관",
    "address": "강원특별자치도 평창군 대관령면 스포츠파크길 135",
    "phone": "",
    "latitude": "37.6634552886",
    "longitude": "128.6824054107",
    "image": "http://tong.visitkorea.or.kr/cms/resource/67/3563767_image2_1.jpg",
    "category": "박물관"
  },
  {
    "id": "130057",
    "title": "대관령박물관",
    "address": "강원특별자치도 강릉시 성산면 대관령옛길 1",
    "phone": "",
    "latitude": "37.7167264799",
    "longitude": "128.8040011557",
    "image": "http://tong.visitkorea.or.kr/cms/resource/75/598175_image2_1.jpg",
    "category": "박물관"
  },
  {
    "id": "129830",
    "title": "대구가톨릭대학교 박물관",
    "address": "경상북도 경산시 하양읍 하양로 13-13",
    "phone": "",
    "latitude": "35.9121802523",
    "longitude": "128.8075983702",
    "image": "",
    "category": "박물관"
  },
  {
    "id": "2554087",
    "title": "대구교육박물관",
    "address": "대구광역시 북구 대동로1길 40",
    "phone": "",
    "latitude": "35.8974255259",
    "longitude": "128.6123604195",
    "image": "http://tong.visitkorea.or.kr/cms/resource/00/3348800_image2_1.jpg",
    "category": "박물관"
  },
  {
    "id": "129825",
    "title": "대구대학교 중앙박물관",
    "address": "경상북도 경산시 진량읍 대구대로 201",
    "phone": "",
    "latitude": "35.9010933920",
    "longitude": "128.8491255838",
    "image": "http://tong.visitkorea.or.kr/cms/resource/97/1968397_image2_1.jpg",
    "category": "박물관"
  },
  {
    "id": "560097",
    "title": "대구방짜유기박물관",
    "address": "대구광역시 동구 도장길 29",
    "phone": "",
    "latitude": "35.9656138873",
    "longitude": "128.7009673696",
    "image": "http://tong.visitkorea.or.kr/cms/resource/28/1022728_image2_1.jpg",
    "category": "박물관"
  },
  {
    "id": "130689",
    "title": "대성동고분박물관",
    "address": "경상남도 김해시 가야의길 126",
    "phone": "",
    "latitude": "35.2360687598",
    "longitude": "128.8731002475",
    "image": "http://tong.visitkorea.or.kr/cms/resource/91/3576991_image2_1.jpg",
    "category": "박물관"
  },
  {
    "id": "1623825",
    "title": "대원사 티벳박물관",
    "address": "전라남도 보성군 죽산길 520-1",
    "phone": "",
    "latitude": "34.9590941228",
    "longitude": "127.1321989642",
    "image": "http://tong.visitkorea.or.kr/cms/resource/99/2593799_image2_1.jpg",
    "category": "박물관"
  },
  {
    "id": "129836",
    "title": "대전대학교박물관",
    "address": "대전광역시 동구 대학로 62 대전대학교",
    "phone": "",
    "latitude": "36.3353019905",
    "longitude": "127.4583035528",
    "image": "http://tong.visitkorea.or.kr/cms/resource/12/3033412_image2_1.JPG",
    "category": "박물관"
  },
  {
    "id": "1066804",
    "title": "대전선사박물관",
    "address": "대전광역시 유성구 노은동로 126",
    "phone": "",
    "latitude": "36.3718398688",
    "longitude": "127.3238951378",
    "image": "http://tong.visitkorea.or.kr/cms/resource/06/3032106_image2_1.JPG",
    "category": "박물관"
  },
  {
    "id": "1907589",
    "title": "대전시립박물관",
    "address": "대전광역시 유성구 도안대로 398 (상대동)",
    "phone": "",
    "latitude": "36.3369051804",
    "longitude": "127.3353561691",
    "image": "http://tong.visitkorea.or.kr/cms/resource/39/3031739_image2_1.JPG",
    "category": "박물관"
  },
  {
    "id": "2615343",
    "title": "대한민국 술테마박물관",
    "address": "전북특별자치도 완주군 구이면 덕천전원길 232-58",
    "phone": "",
    "latitude": "35.7261657781",
    "longitude": "127.1364956629",
    "image": "http://tong.visitkorea.or.kr/cms/resource/83/3560983_image2_1.jpg",
    "category": "박물관"
  },
  {
    "id": "1849416",
    "title": "대한민국역사박물관",
    "address": "서울특별시 종로구 세종대로 198 (세종로)",
    "phone": "",
    "latitude": "37.5741339024",
    "longitude": "126.9775736680",
    "image": "http://tong.visitkorea.or.kr/cms/resource/89/3082989_image2_1.JPG",
    "category": "박물관"
  },
  {
    "id": "2736386",
    "title": "덕소자연사박물관",
    "address": "경기도 남양주시 와부읍 석실로 46-11",
    "phone": "",
    "latitude": "37.5798461296",
    "longitude": "127.2301560593",
    "image": "http://tong.visitkorea.or.kr/cms/resource/04/2758804_image2_1.jpg",
    "category": "박물관"
  },
  {
    "id": "130442",
    "title": "덕포진교육박물관",
    "address": "경기도 김포시 대곶면 덕포진로103번길 90",
    "phone": "",
    "latitude": "37.6507060734",
    "longitude": "126.5387365959",
    "image": "http://tong.visitkorea.or.kr/cms/resource/76/3527776_image2_1.jpg",
    "category": "박물관"
  },
  {
    "id": "130137",
    "title": "독도박물관",
    "address": "경상북도 울릉군 울릉읍 약수터길 90-17",
    "phone": "",
    "latitude": "37.4834150165",
    "longitude": "130.9009104224",
    "image": "",
    "category": "박물관"
  },
  {
    "id": "130879",
    "title": "동강사진박물관",
    "address": "강원특별자치도 영월군 영월읍 영월로 1909-10",
    "phone": "",
    "latitude": "37.1819649455",
    "longitude": "128.4614813986",
    "image": "http://tong.visitkorea.or.kr/cms/resource/11/3557211_image2_1.JPG",
    "category": "박물관"
  },
  {
    "id": "129832",
    "title": "동국대학교 WISE캠퍼스박물관",
    "address": "경상북도 경주시 동대로 123",
    "phone": "",
    "latitude": "35.8636818796",
    "longitude": "129.1946324124",
    "image": "http://tong.visitkorea.or.kr/cms/resource/93/1890193_image2_1.jpg",
    "category": "박물관"
  },
  {
    "id": "130927",
    "title": "동국대학교 박물관",
    "address": "서울특별시 중구 필동로1길 30",
    "phone": "",
    "latitude": "37.5582444874",
    "longitude": "127.0001581712",
    "image": "http://tong.visitkorea.or.kr/cms/resource/74/3510474_image2_1.jpg",
    "category": "박물관"
  },
  {
    "id": "1628531",
    "title": "동덕여자대학교 박물관",
    "address": "서울특별시 성북구 화랑로13길 60 (하월곡동)",
    "phone": "",
    "latitude": "37.6058952457",
    "longitude": "127.0413558418",
    "image": "http://tong.visitkorea.or.kr/cms/resource/50/3533050_image2_1.jpg",
    "category": "박물관"
  },
  {
    "id": "130851",
    "title": "동림매듭공방",
    "address": "서울특별시 종로구 북촌로12길 10",
    "phone": "",
    "latitude": "37.5817914891",
    "longitude": "126.9856032749",
    "image": "http://tong.visitkorea.or.kr/cms/resource/68/923768_image2_1.jpg",
    "category": "박물관"
  },
  {
    "id": "130917",
    "title": "동신대학교 대정문화박물관",
    "address": "전라남도 나주시 건재로 185",
    "phone": "",
    "latitude": "35.0507990391",
    "longitude": "126.7185276274",
    "image": "",
    "category": "박물관"
  },
  {
    "id": "130521",
    "title": "동아대학교 석당박물관",
    "address": "부산광역시 서구 구덕로 225",
    "phone": "",
    "latitude": "35.1049250231",
    "longitude": "129.0187911335",
    "image": "http://tong.visitkorea.or.kr/cms/resource/69/3494869_image2_1.jpg",
    "category": "박물관"
  },
  {
    "id": "130417",
    "title": "두루뫼박물관",
    "address": "경기도 파주시 법원읍 초리골길 278",
    "phone": "",
    "latitude": "37.8567856366",
    "longitude": "126.8960036269",
    "image": "http://tong.visitkorea.or.kr/cms/resource/89/3514189_image2_1.jpg",
    "category": "박물관"
  },
  {
    "id": "2033802",
    "title": "둘리뮤지엄",
    "address": "서울특별시 도봉구 시루봉로1길 6 (쌍문동)",
    "phone": "",
    "latitude": "37.6521812863",
    "longitude": "127.0278390897",
    "image": "http://tong.visitkorea.or.kr/cms/resource/20/3483120_image2_1.jpg",
    "category": "박물관"
  },
  {
    "id": "2704340",
    "title": "디뮤지엄",
    "address": "서울특별시 성동구 왕십리로 83-21 (성수동1가, 아크로 서울포레스트)",
    "phone": "",
    "latitude": "37.5445357444",
    "longitude": "127.0432879644",
    "image": "http://tong.visitkorea.or.kr/cms/resource/06/3556906_image2_1.jpeg",
    "category": "박물관"
  },
  {
    "id": "130563",
    "title": "땅끝해양자연사박물관",
    "address": "전라남도 해남군 송지면 땅끝마을길 89",
    "phone": "",
    "latitude": "34.3013245791",
    "longitude": "126.5296623753",
    "image": "http://tong.visitkorea.or.kr/cms/resource/86/3564386_image2_1.jpg",
    "category": "박물관"
  },
  {
    "id": "130365",
    "title": "떡박물관",
    "address": "서울특별시 종로구 돈화문로 71 (와룡동)",
    "phone": "",
    "latitude": "37.5749534860",
    "longitude": "126.9906530083",
    "image": "http://tong.visitkorea.or.kr/cms/resource/39/3540839_image2_1.jpg",
    "category": "박물관"
  },
  {
    "id": "2756704",
    "title": "또봇정크아트뮤지엄",
    "address": "경상북도 경주시 경감로 614",
    "phone": "",
    "latitude": "35.8298874643",
    "longitude": "129.2882640602",
    "image": "http://tong.visitkorea.or.kr/cms/resource/97/3537897_image2_1.jpg",
    "category": "박물관"
  },
  {
    "id": "2704681",
    "title": "라디오스타박물관",
    "address": "강원특별자치도 영월군 영월읍 금강공원길 84-3",
    "phone": "",
    "latitude": "37.1853342942",
    "longitude": "128.4768993603",
    "image": "",
    "category": "박물관"
  },
  {
    "id": "129796",
    "title": "렛츠런파크 서울 말박물관",
    "address": "경기도 과천시 경마공원대로 107 (주암동)",
    "phone": "",
    "latitude": "37.4440606773",
    "longitude": "127.0086578462",
    "image": "http://tong.visitkorea.or.kr/cms/resource/53/3527153_image2_1.jpg",
    "category": "박물관"
  },
  {
    "id": "130070",
    "title": "롯데월드 민속박물관",
    "address": "서울특별시 송파구 올림픽로 240 (잠실동)",
    "phone": "",
    "latitude": "37.5123821225",
    "longitude": "127.0976311526",
    "image": "http://tong.visitkorea.or.kr/cms/resource/49/3501149_image2_1.jpg",
    "category": "박물관"
  },
  {
    "id": "1587301",
    "title": "루이엘모자박물관",
    "address": "전북특별자치도 전주시 완산구 전동성당길 8",
    "phone": "",
    "latitude": "35.8185610364",
    "longitude": "127.1484810753",
    "image": "",
    "category": "박물관"
  },
  {
    "id": "3060343",
    "title": "리조 세계재봉틀박물관",
    "address": "경상남도 진주시 진주대로 1029 (동성동)",
    "phone": "",
    "latitude": "35.1915234104",
    "longitude": "128.0847342806",
    "image": "http://tong.visitkorea.or.kr/cms/resource/93/3051993_image2_1.JPG",
    "category": "박물관"
  },
  {
    "id": "2613266",
    "title": "마리소리골악기박물관",
    "address": "강원특별자치도 홍천군 서석면 마리소리길 207",
    "phone": "",
    "latitude": "37.7379578505",
    "longitude": "128.2511059896",
    "image": "http://tong.visitkorea.or.kr/cms/resource/17/3577617_image2_1.jpg",
    "category": "박물관"
  },
  {
    "id": "2759986",
    "title": "마이크로박물관",
    "address": "경기도 성남시 분당구 성남대로 381 (정자동)",
    "phone": "",
    "latitude": "37.3703348899",
    "longitude": "127.1075314926",
    "image": "http://tong.visitkorea.or.kr/cms/resource/67/2932267_image2_1.jpg",
    "category": "박물관"
  },
  {
    "id": "2615442",
    "title": "마차박물관",
    "address": "충청북도 진천군 문백면 농다리로 34",
    "phone": "",
    "latitude": "36.7792452525",
    "longitude": "127.4425149905",
    "image": "",
    "category": "박물관"
  },
  {
    "id": "1314127",
    "title": "마한박물관",
    "address": "전북특별자치도 익산시 금마면 고도9길 41-14",
    "phone": "",
    "latitude": "36.0019413977",
    "longitude": "127.0604063368",
    "image": "http://tong.visitkorea.or.kr/cms/resource/08/3573508_image2_1.jpg",
    "category": "박물관"
  },
  {
    "id": "2777377",
    "title": "만봉불화박물관",
    "address": "강원특별자치도 영월군 김삿갓면 망경대산길 135-3",
    "phone": "",
    "latitude": "37.1550624976",
    "longitude": "128.6086273401",
    "image": "http://tong.visitkorea.or.kr/cms/resource/48/3394448_image2_1.JPG",
    "category": "박물관"
  },
  {
    "id": "130679",
    "title": "만해문학박물관",
    "address": "강원특별자치도 인제군 북면 만해로 91",
    "phone": "",
    "latitude": "38.1862375638",
    "longitude": "128.3166085986",
    "image": "http://tong.visitkorea.or.kr/cms/resource/88/3502888_image2_1.jpg",
    "category": "박물관"
  },
  {
    "id": "1123600",
    "title": "매괴박물관",
    "address": "충청북도 음성군 감곡면 성당길 10",
    "phone": "",
    "latitude": "37.1213983401",
    "longitude": "127.6411569266",
    "image": "http://tong.visitkorea.or.kr/cms/resource/05/3573505_image2_1.jpg",
    "category": "박물관"
  },
  {
    "id": "130885",
    "title": "매암차박물관",
    "address": "경상남도 하동군 악양서로 346-1 매암다원문화박물관",
    "phone": "",
    "latitude": "35.1611452121",
    "longitude": "127.7093819210",
    "image": "http://tong.visitkorea.or.kr/cms/resource/97/3556697_image2_1.jpg",
    "category": "박물관"
  },
  {
    "id": "3079808",
    "title": "메디테리움",
    "address": "경기도 파주시 회동길 338 (서패동)",
    "phone": "",
    "latitude": "37.7156512184",
    "longitude": "126.6919290902",
    "image": "http://tong.visitkorea.or.kr/cms/resource/02/3079802_image2_1.jpg",
    "category": "박물관"
  },
  {
    "id": "3085031",
    "title": "명원박물관",
    "address": "서울특별시 성북구 정릉로9길 68 (정릉동)",
    "phone": "",
    "latitude": "37.6111883307",
    "longitude": "126.9999927956",
    "image": "http://tong.visitkorea.or.kr/cms/resource/82/3084482_image2_1.JPG",
    "category": "박물관"
  },
  {
    "id": "130928",
    "title": "명지대학교 박물관",
    "address": "경기도 용인시 처인구 명지로 116 (남동)",
    "phone": "",
    "latitude": "37.2247004133",
    "longitude": "127.1876005517",
    "image": "http://tong.visitkorea.or.kr/cms/resource/46/3068646_image2_1.jpg",
    "category": "박물관"
  },
  {
    "id": "130662",
    "title": "모형항공기박물관",
    "address": "강원특별자치도 춘천시 동산면 영서로 141",
    "phone": "",
    "latitude": "37.7517009577",
    "longitude": "127.8222222366",
    "image": "http://tong.visitkorea.or.kr/cms/resource/21/3381621_image2_1.JPG",
    "category": "박물관"
  },
  {
    "id": "129797",
    "title": "목아박물관",
    "address": "경기도 여주시 강천면 이문안길 21",
    "phone": "",
    "latitude": "37.2878049845",
    "longitude": "127.6878868338",
    "image": "http://tong.visitkorea.or.kr/cms/resource/03/3540503_image2_1.jpg",
    "category": "박물관"
  },
  {
    "id": "231976",
    "title": "목인박물관 목석원",
    "address": "서울특별시 종로구 창의문로5길 46-1 (부암동)",
    "phone": "",
    "latitude": "37.5890707988",
    "longitude": "126.9633051014",
    "image": "http://tong.visitkorea.or.kr/cms/resource/15/3540815_image2_1.jpg",
    "category": "박물관"
  },
  {
    "id": "129780",
    "title": "목포자연사박물관",
    "address": "전라남도 목포시 남농로 135",
    "phone": "",
    "latitude": "34.7937147612",
    "longitude": "126.4209713073",
    "image": "http://tong.visitkorea.or.kr/cms/resource/54/3011154_image2_1.jpg",
    "category": "박물관"
  },
  {
    "id": "2718767",
    "title": "문학산역사관",
    "address": "인천광역시 미추홀구 학익동 78-24",
    "phone": "",
    "latitude": "37.4322283650",
    "longitude": "126.6764523190",
    "image": "http://tong.visitkorea.or.kr/cms/resource/99/3352299_image2_1.jpg",
    "category": "박물관"
  },
  {
    "id": "130368",
    "title": "미리벌민속박물관",
    "address": "경상남도 밀양시 초동면 초동중앙로 439",
    "phone": "",
    "latitude": "35.4189723456",
    "longitude": "128.6744681691",
    "image": "http://tong.visitkorea.or.kr/cms/resource/94/3514994_image2_1.jpg",
    "category": "박물관"
  },
  {
    "id": "2765519",
    "title": "미호박물관",
    "address": "경기도 남양주시 고산로126번길 15-2 (수석동)",
    "phone": "",
    "latitude": "37.5927159589",
    "longitude": "127.1806324207",
    "image": "http://tong.visitkorea.or.kr/cms/resource/75/3537275_image2_1.jpg",
    "category": "박물관"
  },
  {
    "id": "2648376",
    "title": "밀양 한천박물관",
    "address": "경상남도 밀양시 산내면 봉의로 58-31",
    "phone": "",
    "latitude": "35.5910400911",
    "longitude": "128.8802704078",
    "image": "http://tong.visitkorea.or.kr/cms/resource/09/3516409_image2_1.jpg",
    "category": "박물관"
  },
  {
    "id": "130087",
    "title": "밀양시립박물관",
    "address": "경상남도 밀양시 밀양대공원로 100",
    "phone": "",
    "latitude": "35.5033421796",
    "longitude": "128.7591917712",
    "image": "",
    "category": "박물관"
  },
  {
    "id": "2751836",
    "title": "바이나흐튼 크리스마스박물관",
    "address": "제주특별자치도 서귀포시 안덕면 평화로 654",
    "phone": "",
    "latitude": "33.2913419690",
    "longitude": "126.3278198313",
    "image": "http://tong.visitkorea.or.kr/cms/resource/82/3548182_image2_1.jpg",
    "category": "박물관"
  },
  {
    "id": "3497214",
    "title": "박경리 뮤지엄",
    "address": "강원특별자치도 원주시 흥업면 매지회촌길 79-1",
    "phone": "070-7734-2777",
    "latitude": "37.2572793089",
    "longitude": "127.9118702812",
    "image": "http://tong.visitkorea.or.kr/cms/resource/11/3497211_image2_1.JPG",
    "category": "박물관"
  },
  {
    "id": "2555014",
    "title": "박물관 수",
    "address": "대구광역시 수성구 국채보상로186길 79",
    "phone": "",
    "latitude": "35.8648379507",
    "longitude": "128.6341705181",
    "image": "http://tong.visitkorea.or.kr/cms/resource/45/3342645_image2_1.jpg",
    "category": "박물관"
  },
  {
    "id": "130708",
    "title": "박물관 얼굴",
    "address": "경기도 광주시 남종면 분원길 3-6",
    "phone": "",
    "latitude": "37.4940796156",
    "longitude": "127.3023047328",
    "image": "http://tong.visitkorea.or.kr/cms/resource/17/3527317_image2_1.jpg",
    "category": "박물관"
  },
  {
    "id": "1883815",
    "title": "박물관은살아있다 제주",
    "address": "제주특별자치도 서귀포시 중문관광로 42",
    "phone": "",
    "latitude": "33.2546667452",
    "longitude": "126.4092858005",
    "image": "http://tong.visitkorea.or.kr/cms/resource/96/3548296_image2_1.jpg",
    "category": "박물관"
  },
  {
    "id": "130929",
    "title": "박을복자수박물관",
    "address": "서울특별시 강북구 삼양로149가길 53",
    "phone": "",
    "latitude": "37.6538057493",
    "longitude": "127.0084880313",
    "image": "http://tong.visitkorea.or.kr/cms/resource/72/1895072_image2_1.jpg",
    "category": "박물관"
  },
  {
    "id": "3411281",
    "title": "배다리 성냥 박물관",
    "address": "인천광역시 동구 금곡로 19 (금곡동)",
    "phone": "",
    "latitude": "37.4729535051",
    "longitude": "126.6377491619",
    "image": "http://tong.visitkorea.or.kr/cms/resource/62/3411562_image2_1.JPG",
    "category": "박물관"
  },
  {
    "id": "1198901",
    "title": "배재학당역사박물관",
    "address": "서울특별시 중구 서소문로11길 19 (정동)",
    "phone": "",
    "latitude": "37.5638516791",
    "longitude": "126.9728160596",
    "image": "http://tong.visitkorea.or.kr/cms/resource/19/3533219_image2_1.jpg",
    "category": "박물관"
  },
  {
    "id": "130896",
    "title": "백제군사박물관",
    "address": "충청남도 논산시 부적면 충곡로 311-54",
    "phone": "",
    "latitude": "36.1923939899",
    "longitude": "127.1814015962",
    "image": "http://tong.visitkorea.or.kr/cms/resource/49/3577049_image2_1.jpg",
    "category": "박물관"
  },
  {
    "id": "2536623",
    "title": "백제문화체험박물관",
    "address": "충청남도 청양군 대치면 장곡길 43-24",
    "phone": "",
    "latitude": "36.4058998010",
    "longitude": "126.8457482121",
    "image": "",
    "category": "박물관"
  },
  {
    "id": "2790917",
    "title": "백제왕궁박물관",
    "address": "전북특별자치도 익산시 왕궁면 궁성로 666",
    "phone": "",
    "latitude": "35.9716031113",
    "longitude": "127.0558242095",
    "image": "http://tong.visitkorea.or.kr/cms/resource/75/3338175_image2_1.jpg",
    "category": "박물관"
  },
  {
    "id": "1885454",
    "title": "백제원(부여)",
    "address": "충청남도 부여군 규암면 백제문로 553",
    "phone": "",
    "latitude": "36.3064874337",
    "longitude": "126.9170222321",
    "image": "http://tong.visitkorea.or.kr/cms/resource/60/3348760_image2_1.jpg",
    "category": "박물관"
  },
  {
    "id": "3034088",
    "title": "벅스리움",
    "address": "경기도 시흥시 서해안로 275 (정왕동)",
    "phone": "",
    "latitude": "37.3534159116",
    "longitude": "126.7115013101",
    "image": "http://tong.visitkorea.or.kr/cms/resource/76/3002376_image2_1.jpg",
    "category": "박물관"
  },
  {
    "id": "2554111",
    "title": "범어사 성보박물관",
    "address": "부산광역시 금정구 범어사로 250",
    "phone": "",
    "latitude": "35.2839753157",
    "longitude": "129.0681152667",
    "image": "http://tong.visitkorea.or.kr/cms/resource/18/3342818_image2_1.jpg",
    "category": "박물관"
  },
  {
    "id": "2551435",
    "title": "범패민속문화박물관",
    "address": "인천광역시 미추홀구 경인로70번길 11-13",
    "phone": "",
    "latitude": "37.4647824704",
    "longitude": "126.6512259372",
    "image": "http://tong.visitkorea.or.kr/cms/resource/20/3395120_image2_1.JPG",
    "category": "박물관"
  },
  {
    "id": "130253",
    "title": "벽골제 농경문화 박물관",
    "address": "전북특별자치도 김제시 부량면 벽골제로 442",
    "phone": "063-540-4993",
    "latitude": "35.7554048082",
    "longitude": "126.8536117489",
    "image": "http://tong.visitkorea.or.kr/cms/resource/66/1603966_image2_1.jpg",
    "category": "박물관"
  },
  {
    "id": "2551447",
    "title": "벽봉한국장신구박물관",
    "address": "경기도 파주시 탄현면 헤이리마을길 48-38",
    "phone": "",
    "latitude": "37.7876179728",
    "longitude": "126.7000346495",
    "image": "http://tong.visitkorea.or.kr/cms/resource/41/3353841_image2_1.jpg",
    "category": "박물관"
  },
  {
    "id": "231973",
    "title": "보나장신구박물관",
    "address": "서울특별시 종로구 인사동9길 9",
    "phone": "",
    "latitude": "37.5735646492",
    "longitude": "126.9845480486",
    "image": "http://tong.visitkorea.or.kr/cms/resource/36/2022436_image2_1.jpg",
    "category": "박물관"
  },
  {
    "id": "2660811",
    "title": "보석박물관",
    "address": "전북특별자치도 익산시 왕궁면 호반로 8",
    "phone": "",
    "latitude": "35.9907045238",
    "longitude": "127.1026056450",
    "image": "http://tong.visitkorea.or.kr/cms/resource/06/1908906_image2_1.JPG",
    "category": "박물관"
  },
  {
    "id": "130145",
    "title": "복천박물관(부산)",
    "address": "부산광역시 동래구 복천로 66 (복천동)",
    "phone": "",
    "latitude": "35.2074232253",
    "longitude": "129.0918208633",
    "image": "http://tong.visitkorea.or.kr/cms/resource/88/3492288_image2_1.jpg",
    "category": "박물관"
  },
  {
    "id": "1798082",
    "title": "본태박물관",
    "address": "제주특별자치도 서귀포시 안덕면 산록남로762번길 69",
    "phone": "",
    "latitude": "33.3033416520",
    "longitude": "126.3919251089",
    "image": "http://tong.visitkorea.or.kr/cms/resource/23/2873323_image2_1.jpg",
    "category": "박물관"
  },
  {
    "id": "3089068",
    "title": "봉화 인물역사관",
    "address": "경상북도 봉화군 명호면 광석길 39",
    "phone": "",
    "latitude": "36.7882516604",
    "longitude": "128.8940543833",
    "image": "http://tong.visitkorea.or.kr/cms/resource/97/3088997_image2_1.JPG",
    "category": "박물관"
  },
  {
    "id": "2784363",
    "title": "부산근현대역사관 별관",
    "address": "부산광역시 중구 대청로 104",
    "phone": "",
    "latitude": "35.1026838356",
    "longitude": "129.0312012262",
    "image": "",
    "category": "박물관"
  },
  {
    "id": "3083767",
    "title": "부산근현대역사관 본관",
    "address": "부산광역시 중구 대청로 112 (대청동1가)",
    "phone": "",
    "latitude": "35.1027616225",
    "longitude": "129.0321900270",
    "image": "http://tong.visitkorea.or.kr/cms/resource/38/3428638_image2_1.jpg",
    "category": "박물관"
  },
  {
    "id": "1607138",
    "title": "부산대학교 박물관",
    "address": "부산광역시 금정구 부산대학로63번길 2",
    "phone": "",
    "latitude": "35.2333923163",
    "longitude": "129.0798600805",
    "image": "http://tong.visitkorea.or.kr/cms/resource/13/3332613_image2_1.jpg",
    "category": "박물관"
  },
  {
    "id": "129783",
    "title": "부산박물관",
    "address": "부산광역시 남구 유엔평화로 63",
    "phone": "",
    "latitude": "35.1295542233",
    "longitude": "129.0947838516",
    "image": "http://tong.visitkorea.or.kr/cms/resource/54/3492254_image2_1.jpg",
    "category": "박물관"
  },
  {
    "id": "129816",
    "title": "부산여자대학 차박물관",
    "address": "부산광역시 부산진구 진남로 506 부산여자대학",
    "phone": "",
    "latitude": "35.1691882379",
    "longitude": "129.0712014844",
    "image": "",
    "category": "박물관"
  },
  {
    "id": "130252",
    "title": "부산해양자연사박물관",
    "address": "부산광역시 동래구 우장춘로 175",
    "phone": "",
    "latitude": "35.2219685247",
    "longitude": "129.0759940639",
    "image": "http://tong.visitkorea.or.kr/cms/resource/17/3492317_image2_1.jpg",
    "category": "박물관"
  },
  {
    "id": "2405938",
    "title": "부안청자박물관",
    "address": "전북특별자치도 부안군 보안면 청자로 1493",
    "phone": "",
    "latitude": "35.6114760716",
    "longitude": "126.6513528883",
    "image": "http://tong.visitkorea.or.kr/cms/resource/80/3059380_image2_1.jpg",
    "category": "박물관"
  },
  {
    "id": "130527",
    "title": "부천 물 박물관",
    "address": "경기도 부천시 길주로 691",
    "phone": "",
    "latitude": "37.5073138408",
    "longitude": "126.8193538626",
    "image": "",
    "category": "박물관"
  },
  {
    "id": "2734888",
    "title": "부천시립박물관",
    "address": "경기도 부천시 오정구 소사로 638 (여월동)",
    "phone": "",
    "latitude": "37.5136933418",
    "longitude": "126.8017580660",
    "image": "http://tong.visitkorea.or.kr/cms/resource/45/3354945_image2_1.jpg",
    "category": "박물관"
  },
  {
    "id": "3075394",
    "title": "부천자연생태박물관",
    "address": "경기도 부천시 춘의동",
    "phone": "",
    "latitude": "37.5056250825",
    "longitude": "126.8156736899",
    "image": "",
    "category": "박물관"
  },
  {
    "id": "130675",
    "title": "부천활박물관",
    "address": "경기도 부천시 원미구 소사로 482 (춘의동)",
    "phone": "",
    "latitude": "37.5006781254",
    "longitude": "126.7982670822",
    "image": "http://tong.visitkorea.or.kr/cms/resource/05/3502805_image2_1.jpg",
    "category": "박물관"
  },
  {
    "id": "130911",
    "title": "부평역사박물관",
    "address": "인천광역시 부평구 굴포로 151",
    "phone": "",
    "latitude": "37.5121201677",
    "longitude": "126.7378611598",
    "image": "http://tong.visitkorea.or.kr/cms/resource/37/3073237_image2_1.jpg",
    "category": "박물관"
  },
  {
    "id": "3060968",
    "title": "북촌동양문화박물관",
    "address": "서울특별시 종로구 북촌로11길 76 (삼청동)",
    "phone": "",
    "latitude": "37.5840356336",
    "longitude": "126.9833950791",
    "image": "http://tong.visitkorea.or.kr/cms/resource/06/3049006_image2_1.jpg",
    "category": "박물관"
  },
  {
    "id": "2445728",
    "title": "북촌박물관",
    "address": "서울특별시 종로구 북촌로 39 (가회동)",
    "phone": "",
    "latitude": "37.5804388557",
    "longitude": "126.9848672690",
    "image": "http://tong.visitkorea.or.kr/cms/resource/16/3303716_image2_1.jpg",
    "category": "박물관"
  },
  {
    "id": "231971",
    "title": "북촌생활사박물관",
    "address": "서울특별시 종로구 북촌로5나길 90 (삼청동)",
    "phone": "",
    "latitude": "37.5845411222",
    "longitude": "126.9829478833",
    "image": "http://tong.visitkorea.or.kr/cms/resource/75/3574275_image2_1.jpg",
    "category": "박물관"
  },
  {
    "id": "130179",
    "title": "분재박물관",
    "address": "서울특별시 서초구 신흥안길 40-10 (내곡동)",
    "phone": "",
    "latitude": "37.4541495916",
    "longitude": "127.0753292756",
    "image": "http://tong.visitkorea.or.kr/cms/resource/97/3540597_image2_1.jpg",
    "category": "박물관"
  },
  {
    "id": "3013284",
    "title": "불교중앙박물관",
    "address": "서울특별시 종로구 우정국로 55 (견지동)",
    "phone": "",
    "latitude": "37.5739784579",
    "longitude": "126.9827509785",
    "image": "http://tong.visitkorea.or.kr/cms/resource/43/3013043_image2_1.jpg",
    "category": "박물관"
  },
  {
    "id": "2787580",
    "title": "붓이야기박물관",
    "address": "강원특별자치도 춘천시 서면 박사로 906",
    "phone": "",
    "latitude": "37.8967455693",
    "longitude": "127.6926547205",
    "image": "http://tong.visitkorea.or.kr/cms/resource/42/2788242_image2_1.jpg",
    "category": "박물관"
  },
  {
    "id": "2633908",
    "title": "비엔나인형박물관",
    "address": "강원특별자치도 평창군 대관령면 솔봉로 296",
    "phone": "",
    "latitude": "37.6627744563",
    "longitude": "128.6639793137",
    "image": "http://tong.visitkorea.or.kr/cms/resource/99/3501899_image2_1.jpg",
    "category": "박물관"
  },
  {
    "id": "3402813",
    "title": "비움박물관",
    "address": "광주광역시 동구 제봉로 143-1 (대의동)",
    "phone": "",
    "latitude": "35.1504467387",
    "longitude": "126.9202906435",
    "image": "http://tong.visitkorea.or.kr/cms/resource/12/3402312_image2_1.JPG",
    "category": "박물관"
  },
  {
    "id": "3006132",
    "title": "사매기 째깐한 박물관",
    "address": "전라남도 나주시 향교길 2 영화광고나눔터",
    "phone": "",
    "latitude": "35.0334315041",
    "longitude": "126.7154977689",
    "image": "",
    "category": "박물관"
  },
  {
    "id": "3017191",
    "title": "사상생활사박물관",
    "address": "부산광역시 사상구 낙동대로1258번길 36 (삼락동)",
    "phone": "",
    "latitude": "35.1720612119",
    "longitude": "128.9787455646",
    "image": "http://tong.visitkorea.or.kr/cms/resource/63/3017163_image2_1.JPG",
    "category": "박물관"
  },
  {
    "id": "2569517",
    "title": "산천어커피박물관",
    "address": "강원특별자치도 화천군 화천읍 상승로2길 21",
    "phone": "",
    "latitude": "38.1059630671",
    "longitude": "127.7037224706",
    "image": "http://tong.visitkorea.or.kr/cms/resource/92/3486192_image2_1.jpeg",
    "category": "박물관"
  },
  {
    "id": "2551464",
    "title": "산청박물관",
    "address": "경상남도 산청군 생초면 산수로 1064",
    "phone": "",
    "latitude": "35.4920378258",
    "longitude": "127.8321596612",
    "image": "",
    "category": "박물관"
  },
  {
    "id": "770557",
    "title": "산청한의학박물관",
    "address": "경상남도 산청군 금서면 동의보감로555번길 61",
    "phone": "",
    "latitude": "35.4411518319",
    "longitude": "127.8278558315",
    "image": "http://tong.visitkorea.or.kr/cms/resource/27/3549327_image2_1.jpg",
    "category": "박물관"
  },
  {
    "id": "2997641",
    "title": "살롱헤리티지",
    "address": "경상북도 경주시 경감로 614",
    "phone": "",
    "latitude": "35.8340564631",
    "longitude": "129.2895443842",
    "image": "http://tong.visitkorea.or.kr/cms/resource/29/3537729_image2_1.jpg",
    "category": "박물관"
  },
  {
    "id": "130931",
    "title": "삼성출판박물관",
    "address": "서울특별시 종로구 비봉길 2-2 (구기동)",
    "phone": "",
    "latitude": "37.6087517327",
    "longitude": "126.9571134414",
    "image": "http://tong.visitkorea.or.kr/cms/resource/50/3540850_image2_1.jpg",
    "category": "박물관"
  },
  {
    "id": "130932",
    "title": "상명대학교 박물관",
    "address": "서울특별시 종로구 평창문화로 151 (평창동)",
    "phone": "",
    "latitude": "37.6104546575",
    "longitude": "126.9763227523",
    "image": "http://tong.visitkorea.or.kr/cms/resource/01/3499301_image2_1.jpg",
    "category": "박물관"
  },
  {
    "id": "130669",
    "title": "상주 자전거박물관",
    "address": "경상북도 상주시 용마로 415 (도남동)",
    "phone": "",
    "latitude": "36.4532751731",
    "longitude": "128.2550847823",
    "image": "http://tong.visitkorea.or.kr/cms/resource/93/2492593_image2_1.jpg",
    "category": "박물관"
  },
  {
    "id": "1181485",
    "title": "상주박물관",
    "address": "경상북도 상주시 사벌국면 경천로 684",
    "phone": "",
    "latitude": "36.4581160188",
    "longitude": "128.2405470503",
    "image": "http://tong.visitkorea.or.kr/cms/resource/33/3579433_image2_1.jpg",
    "category": "박물관"
  },
  {
    "id": "130933",
    "title": "서강대학교 박물관",
    "address": "서울특별시 마포구 백범로 35 (신수동)",
    "phone": "",
    "latitude": "37.5516830237",
    "longitude": "126.9379473591",
    "image": "http://tong.visitkorea.or.kr/cms/resource/32/3520532_image2_1.jpg",
    "category": "박물관"
  },
  {
    "id": "130448",
    "title": "서대문자연사박물관",
    "address": "서울특별시 서대문구 연희로32길 51",
    "phone": "",
    "latitude": "37.5767495528",
    "longitude": "126.9378522148",
    "image": "http://tong.visitkorea.or.kr/cms/resource/76/3502776_image2_1.jpg",
    "category": "박물관"
  },
  {
    "id": "2765202",
    "title": "서소문성지역사박물관",
    "address": "서울특별시 중구 칠패로 5 (의주로2가)",
    "phone": "",
    "latitude": "37.5596854342",
    "longitude": "126.9693637143",
    "image": "http://tong.visitkorea.or.kr/cms/resource/75/3430175_image2_1.JPG",
    "category": "박물관"
  },
  {
    "id": "2738571",
    "title": "서울공예박물관",
    "address": "서울특별시 종로구 율곡로3길 4",
    "phone": "",
    "latitude": "37.5767003779",
    "longitude": "126.9835480508",
    "image": "http://tong.visitkorea.or.kr/cms/resource/87/3083687_image2_1.JPG",
    "category": "박물관"
  },
  {
    "id": "130678",
    "title": "서울교육박물관",
    "address": "서울특별시 종로구 북촌로5길 48 (화동)",
    "phone": "",
    "latitude": "37.5797361152",
    "longitude": "126.9823786270",
    "image": "http://tong.visitkorea.or.kr/cms/resource/71/3496671_image2_1.jpg",
    "category": "박물관"
  },
  {
    "id": "129839",
    "title": "서울대학교 박물관",
    "address": "서울특별시 관악구 관악로 1 서울대학교",
    "phone": "",
    "latitude": "37.4663514558",
    "longitude": "126.9483849253",
    "image": "http://tong.visitkorea.or.kr/cms/resource/99/3574499_image2_1.jpg",
    "category": "박물관"
  },
  {
    "id": "130934",
    "title": "서울대학교 치의학박물관",
    "address": "서울특별시 종로구 대학로 101 (연건동)",
    "phone": "",
    "latitude": "37.5802558498",
    "longitude": "127.0019157204",
    "image": "http://tong.visitkorea.or.kr/cms/resource/11/3496611_image2_1.jpg",
    "category": "박물관"
  },
  {
    "id": "130275",
    "title": "서울대학교병원 의학박물관",
    "address": "서울특별시 종로구 대학로 101",
    "phone": "",
    "latitude": "37.5795614331",
    "longitude": "126.9989687866",
    "image": "http://tong.visitkorea.or.kr/cms/resource/75/3501275_image2_1.jpg",
    "category": "박물관"
  },
  {
    "id": "2638474",
    "title": "서울생활사박물관",
    "address": "서울특별시 노원구 동일로174길 27 (공릉동)",
    "phone": "",
    "latitude": "37.6191332378",
    "longitude": "127.0769772183",
    "image": "http://tong.visitkorea.or.kr/cms/resource/84/3540384_image2_1.jpg",
    "category": "박물관"
  },
  {
    "id": "3058180",
    "title": "서울서예박물관",
    "address": "서울특별시 서초구 남부순환로 2406 (서초동)",
    "phone": "",
    "latitude": "37.4804843130",
    "longitude": "127.0134702692",
    "image": "http://tong.visitkorea.or.kr/cms/resource/98/3549598_image2_1.jpg",
    "category": "박물관"
  },
  {
    "id": "129828",
    "title": "서울시립대학교 박물관",
    "address": "서울특별시 동대문구 서울시립대로 163 (전농동)",
    "phone": "",
    "latitude": "37.5835175384",
    "longitude": "127.0550691177",
    "image": "http://tong.visitkorea.or.kr/cms/resource/17/3540417_image2_1.jpg",
    "category": "박물관"
  },
  {
    "id": "231977",
    "title": "서울약령시한의약박물관",
    "address": "서울특별시 동대문구 약령중앙로 26 (제기동)",
    "phone": "",
    "latitude": "37.5806647708",
    "longitude": "127.0372263800",
    "image": "http://tong.visitkorea.or.kr/cms/resource/54/3505454_image2_1.jpg",
    "category": "박물관"
  },
  {
    "id": "130361",
    "title": "서울역사박물관",
    "address": "서울특별시 종로구 새문안로 55 (신문로2가)",
    "phone": "",
    "latitude": "37.5698981615",
    "longitude": "126.9707771853",
    "image": "http://tong.visitkorea.or.kr/cms/resource/87/2661487_image2_1.JPG",
    "category": "박물관"
  },
  {
    "id": "2678273",
    "title": "서울우리소리박물관",
    "address": "서울특별시 종로구 율곡로 96 (와룡동)",
    "phone": "",
    "latitude": "37.5772226481",
    "longitude": "126.9896169274",
    "image": "http://tong.visitkorea.or.kr/cms/resource/40/3499440_image2_1.jpg",
    "category": "박물관"
  },
  {
    "id": "2649844",
    "title": "서해수호관",
    "address": "경기도 평택시 포승읍 2함대길 122",
    "phone": "",
    "latitude": "19.6944274800",
    "longitude": "117.9925662504",
    "image": "http://tong.visitkorea.or.kr/cms/resource/19/3543919_image2_1.JPG",
    "category": "박물관"
  },
  {
    "id": "1184872",
    "title": "석장리박물관",
    "address": "충청남도 공주시 금벽로 990 (석장리동)",
    "phone": "",
    "latitude": "36.4475288314",
    "longitude": "127.1899189817",
    "image": "http://tong.visitkorea.or.kr/cms/resource/69/3390269_image2_1.JPG",
    "category": "박물관"
  },
  {
    "id": "129838",
    "title": "성균관대학교 인문사회과학캠퍼스박물관",
    "address": "서울특별시 종로구 성균관로 25-2 (명륜3가)",
    "phone": "",
    "latitude": "37.5849607702",
    "longitude": "126.9969632609",
    "image": "http://tong.visitkorea.or.kr/cms/resource/09/3556509_image2_1.jpg",
    "category": "박물관"
  },
  {
    "id": "129822",
    "title": "성신여자대학교박물관",
    "address": "서울특별시 성북구 보문로34다길 2 (돈암동)",
    "phone": "",
    "latitude": "37.5913410151",
    "longitude": "127.0209803351",
    "image": "http://tong.visitkorea.or.kr/cms/resource/90/3393190_image2_1.jpg",
    "category": "박물관"
  },
  {
    "id": "130557",
    "title": "성호박물관",
    "address": "경기도 안산시 상록구 성호로 131 (부곡동)",
    "phone": "",
    "latitude": "37.3151257515",
    "longitude": "126.8595916785",
    "image": "http://tong.visitkorea.or.kr/cms/resource/92/3072592_image2_1.jpg",
    "category": "박물관"
  },
  {
    "id": "1911506",
    "title": "세계골프역사박물관",
    "address": "서울특별시 강남구 테헤란로 528 (대치동)",
    "phone": "",
    "latitude": "37.5081403078",
    "longitude": "127.0620150696",
    "image": "http://tong.visitkorea.or.kr/cms/resource/75/3503275_image2_1.jpg",
    "category": "박물관"
  },
  {
    "id": "130680",
    "title": "세계민속악기박물관",
    "address": "경기도 파주시 탄현면 헤이리마을길 63-26",
    "phone": "",
    "latitude": "37.7894483027",
    "longitude": "126.6993457719",
    "image": "http://tong.visitkorea.or.kr/cms/resource/31/3382831_image2_1.JPG",
    "category": "박물관"
  },
  {
    "id": "2763826",
    "title": "세계술박물관",
    "address": "제주특별자치도 서귀포시 표선면 한마음초등로 431",
    "phone": "",
    "latitude": "33.3540344982",
    "longitude": "126.8176314979",
    "image": "http://tong.visitkorea.or.kr/cms/resource/89/3548789_image2_1.jpg",
    "category": "박물관"
  },
  {
    "id": "3412256",
    "title": "세계유교문화박물관",
    "address": "경상북도 안동시 도산면 월천길 301",
    "phone": "",
    "latitude": "36.6951863266",
    "longitude": "128.8429922124",
    "image": "http://tong.visitkorea.or.kr/cms/resource/12/3412212_image2_1.jpg",
    "category": "박물관"
  },
  {
    "id": "596964",
    "title": "세계자동차&피아노 박물관",
    "address": "제주특별자치도 서귀포시 안덕면 중산간서로 1610",
    "phone": "",
    "latitude": "33.2834376347",
    "longitude": "126.3499458641",
    "image": "http://tong.visitkorea.or.kr/cms/resource/03/3548503_image2_1.jpg",
    "category": "박물관"
  },
  {
    "id": "130688",
    "title": "세계장신구박물관",
    "address": "서울특별시 종로구 북촌로5나길 2 (화동)",
    "phone": "",
    "latitude": "37.5810303992",
    "longitude": "126.9818203079",
    "image": "http://tong.visitkorea.or.kr/cms/resource/63/3574663_image2_1.jpg",
    "category": "박물관"
  },
  {
    "id": "1220821",
    "title": "세계조가비박물관",
    "address": "제주특별자치도 서귀포시 태평로 284",
    "phone": "",
    "latitude": "33.2474447916",
    "longitude": "126.5516736169",
    "image": "http://tong.visitkorea.or.kr/cms/resource/10/3548310_image2_1.jpg",
    "category": "박물관"
  },
  {
    "id": "3352550",
    "title": "세계조개박물관",
    "address": "전라남도 신안군 자은면 자은서부2길 508-61",
    "phone": "",
    "latitude": "34.8776261757",
    "longitude": "125.9964652009",
    "image": "http://tong.visitkorea.or.kr/cms/resource/40/3385440_image2_1.jpg",
    "category": "박물관"
  },
  {
    "id": "2742133",
    "title": "세계화석광물박물관",
    "address": "전라남도 신안군 안좌면 대리길 18-20",
    "phone": "",
    "latitude": "34.7162860456",
    "longitude": "126.1691481868",
    "image": "http://tong.visitkorea.or.kr/cms/resource/16/3562716_image2_1.jpg",
    "category": "박물관"
  },
  {
    "id": "3012425",
    "title": "세미원 연꽃박물관",
    "address": "경기도 양평군 양서면 양수로 93",
    "phone": "",
    "latitude": "37.5409856786",
    "longitude": "127.3239847527",
    "image": "http://tong.visitkorea.or.kr/cms/resource/90/3012390_image2_1.jpg",
    "category": "박물관"
  },
  {
    "id": "129792",
    "title": "세종대왕박물관",
    "address": "서울특별시 동대문구 회기로 56",
    "phone": "",
    "latitude": "37.5909886692",
    "longitude": "127.0426867002",
    "image": "http://tong.visitkorea.or.kr/cms/resource/78/1894678_image2_1.jpg",
    "category": "박물관"
  },
  {
    "id": "1951646",
    "title": "세종시립민속박물관",
    "address": "세종특별자치시 전의면 금사길 75",
    "phone": "",
    "latitude": "36.6086211161",
    "longitude": "127.1704135845",
    "image": "http://tong.visitkorea.or.kr/cms/resource/00/3522400_image2_1.jpg",
    "category": "박물관"
  },
  {
    "id": "2790505",
    "title": "세종전통장류박물관",
    "address": "세종특별자치시 전동면 배일길 90-43",
    "phone": "",
    "latitude": "36.6757594261",
    "longitude": "127.2593343131",
    "image": "http://tong.visitkorea.or.kr/cms/resource/05/3559105_image2_1.jpg",
    "category": "박물관"
  },
  {
    "id": "3532413",
    "title": "소금강 돌박물관",
    "address": "강원특별자치도 강릉시 연곡면 진고개로 1698",
    "phone": "",
    "latitude": "37.8481875285",
    "longitude": "128.7261457948",
    "image": "",
    "category": "박물관"
  },
  {
    "id": "593319",
    "title": "소금박물관",
    "address": "전라남도 신안군 증도면 지도증도로 1058",
    "phone": "",
    "latitude": "34.9963739980",
    "longitude": "126.1754576006",
    "image": "http://tong.visitkorea.or.kr/cms/resource/11/3562311_image2_1.jpg",
    "category": "박물관"
  },
  {
    "id": "2611136",
    "title": "소리체험박물관",
    "address": "인천광역시 강화군 길상면 해안남로474번길 11",
    "phone": "",
    "latitude": "37.5990365555",
    "longitude": "126.5082602669",
    "image": "http://tong.visitkorea.or.kr/cms/resource/87/3303187_image2_1.jpg",
    "category": "박물관"
  },
  {
    "id": "130894",
    "title": "소수박물관",
    "address": "경상북도 영주시 순흥면 소백로 2780",
    "phone": "",
    "latitude": "36.9258299838",
    "longitude": "128.5820781426",
    "image": "http://tong.visitkorea.or.kr/cms/resource/70/3512770_image2_1.JPG",
    "category": "박물관"
  },
  {
    "id": "130895",
    "title": "속초시립박물관·속초실향민문화촌",
    "address": "강원특별자치도 속초시 신흥2길 16",
    "phone": "",
    "latitude": "38.2005290973",
    "longitude": "128.5396212083",
    "image": "http://tong.visitkorea.or.kr/cms/resource/54/3351254_image2_1.jpg",
    "category": "박물관"
  },
  {
    "id": "2994343",
    "title": "솔송주문화관",
    "address": "경상남도 함양군 개평길 50-6",
    "phone": "",
    "latitude": "35.5657866917",
    "longitude": "127.7684688830",
    "image": "http://tong.visitkorea.or.kr/cms/resource/53/3538253_image2_1.jpg",
    "category": "박물관"
  },
  {
    "id": "3062513",
    "title": "송광사 성보 박물관",
    "address": "전라남도 순천시 송광면 송광사국사길 216-2",
    "phone": "",
    "latitude": "35.0034387677",
    "longitude": "127.2738603769",
    "image": "http://tong.visitkorea.or.kr/cms/resource/55/3452455_image2_1.jpg",
    "category": "박물관"
  },
  {
    "id": "2642890",
    "title": "송도 초콜릿문화박물관",
    "address": "인천광역시 연수구 능허대로 227-10",
    "phone": "",
    "latitude": "37.4160409179",
    "longitude": "126.6516383628",
    "image": "http://tong.visitkorea.or.kr/cms/resource/92/3380692_image2_1.jpg",
    "category": "박물관"
  },
  {
    "id": "2758152",
    "title": "송파책박물관",
    "address": "서울특별시 송파구 송파대로37길 77 (가락동)",
    "phone": "",
    "latitude": "37.4989365831",
    "longitude": "127.1044003624",
    "image": "http://tong.visitkorea.or.kr/cms/resource/16/3499716_image2_1.jpg",
    "category": "박물관"
  },
  {
    "id": "2453996",
    "title": "수도박물관",
    "address": "서울특별시 성동구 왕십리로 27 (성수동1가)",
    "phone": "",
    "latitude": "37.5398807113",
    "longitude": "127.0422770776",
    "image": "http://tong.visitkorea.or.kr/cms/resource/76/3309176_image2_1.jpg",
    "category": "박물관"
  },
  {
    "id": "1687582",
    "title": "수안보곤충박물관",
    "address": "충청북도 충주시 수안보면 관동길 152",
    "phone": "",
    "latitude": "36.8543523237",
    "longitude": "127.9999545093",
    "image": "http://tong.visitkorea.or.kr/cms/resource/12/3349712_image2_1.JPG",
    "category": "박물관"
  },
  {
    "id": "3351028",
    "title": "수원 월드컵경기장 축구박물관",
    "address": "경기도 수원시 팔달구 월드컵로 310 (우만동)",
    "phone": "",
    "latitude": "37.2864766525",
    "longitude": "127.0357098139",
    "image": "http://tong.visitkorea.or.kr/cms/resource/97/3350997_image2_1.jpg",
    "category": "박물관"
  },
  {
    "id": "2379222",
    "title": "수원광교박물관",
    "address": "경기도 수원시 영통구 광교로 182 (이의동)",
    "phone": "",
    "latitude": "37.2963952291",
    "longitude": "127.0514414417",
    "image": "",
    "category": "박물관"
  },
  {
    "id": "638913",
    "title": "수원박물관",
    "address": "경기도 수원시 영통구 창룡대로 265 (이의동)",
    "phone": "",
    "latitude": "37.2976975743",
    "longitude": "127.0356483941",
    "image": "http://tong.visitkorea.or.kr/cms/resource/41/3344041_image2_1.jpeg",
    "category": "박물관"
  },
  {
    "id": "1921150",
    "title": "수원화성박물관",
    "address": "경기도 수원시 팔달구 창룡대로 21 (매향동)",
    "phone": "",
    "latitude": "37.2821351915",
    "longitude": "127.0190947768",
    "image": "http://tong.visitkorea.or.kr/cms/resource/77/3020677_image2_1.jpeg",
    "category": "박물관"
  },
  {
    "id": "129856",
    "title": "숙명여자대학교 박물관",
    "address": "서울특별시 용산구 청파로47길 100",
    "phone": "",
    "latitude": "37.5459369463",
    "longitude": "126.9645617629",
    "image": "http://tong.visitkorea.or.kr/cms/resource/89/3515289_image2_1.jpg",
    "category": "박물관"
  },
  {
    "id": "2366967",
    "title": "숙명여자대학교 정영양자수박물관",
    "address": "서울특별시 용산구 청파로47길 99 (청파동3가)",
    "phone": "",
    "latitude": "37.5450926042",
    "longitude": "126.9648089865",
    "image": "http://tong.visitkorea.or.kr/cms/resource/75/3505375_image2_1.jpg",
    "category": "박물관"
  },
  {
    "id": "638976",
    "title": "순창장류박물관",
    "address": "전북특별자치도 순창군 순창읍 장류로 43",
    "phone": "",
    "latitude": "35.3696835379",
    "longitude": "127.1110071158",
    "image": "http://tong.visitkorea.or.kr/cms/resource/30/3573330_image2_1.jpg",
    "category": "박물관"
  },
  {
    "id": "3056827",
    "title": "순천곤충박물관",
    "address": "전라남도 순천시 해룡면 비래길 95",
    "phone": "",
    "latitude": "34.9559681592",
    "longitude": "127.5419519042",
    "image": "http://tong.visitkorea.or.kr/cms/resource/01/3544801_image2_1.jpg",
    "category": "박물관"
  },
  {
    "id": "3010353",
    "title": "순천시 기독교역사박물관",
    "address": "전라남도 순천시 매산길 61 (매곡동)",
    "phone": "",
    "latitude": "34.9604749201",
    "longitude": "127.4801794359",
    "image": "http://tong.visitkorea.or.kr/cms/resource/18/3010318_image2_1.jpg",
    "category": "박물관"
  },
  {
    "id": "1799099",
    "title": "순천시립 뿌리깊은나무 박물관",
    "address": "전라남도 순천시 낙안면 평촌3길 45",
    "phone": "",
    "latitude": "34.9036539004",
    "longitude": "127.3400431856",
    "image": "",
    "category": "박물관"
  },
  {
    "id": "130067",
    "title": "숭실대학교 한국기독교박물관",
    "address": "서울특별시 동작구 상도로 369",
    "phone": "",
    "latitude": "37.4962425885",
    "longitude": "126.9572971612",
    "image": "http://tong.visitkorea.or.kr/cms/resource/77/3526877_image2_1.jpg",
    "category": "박물관"
  },
  {
    "id": "2751331",
    "title": "스위트파크 롯데 어린이 식품체험관",
    "address": "서울특별시 강서구 마곡중앙로 201 (마곡동)",
    "phone": "",
    "latitude": "37.5714620886",
    "longitude": "126.8277457397",
    "image": "http://tong.visitkorea.or.kr/cms/resource/45/3465745_image2_1.JPG",
    "category": "박물관"
  },
  {
    "id": "2569501",
    "title": "스토리 미니어처 뮤지엄",
    "address": "경기도 파주시 탄현면 헤이리마을길 93-75",
    "phone": "",
    "latitude": "37.7913841314",
    "longitude": "126.6961793403",
    "image": "http://tong.visitkorea.or.kr/cms/resource/01/2567501_image2_1.jpg",
    "category": "박물관"
  },
  {
    "id": "3076980",
    "title": "시에그린한국시화박물관",
    "address": "전라남도 진도군 임회면 죽림길 97",
    "phone": "",
    "latitude": "34.3906739369",
    "longitude": "126.2501126143",
    "image": "",
    "category": "박물관"
  },
  {
    "id": "2648242",
    "title": "시흥오이도박물관",
    "address": "경기도 시흥시 오이도로 332 (정왕동)",
    "phone": "",
    "latitude": "37.3347094008",
    "longitude": "126.6917702916",
    "image": "http://tong.visitkorea.or.kr/cms/resource/08/2947308_image2_1.jpg",
    "category": "박물관"
  },
  {
    "id": "2605803",
    "title": "식민지역사박물관",
    "address": "서울특별시 용산구 청파로47다길 27 (청파동2가)",
    "phone": "",
    "latitude": "37.5458481082",
    "longitude": "126.9668698886",
    "image": "http://tong.visitkorea.or.kr/cms/resource/26/3538026_image2_1.jpg",
    "category": "박물관"
  },
  {
    "id": "130418",
    "title": "신문박물관",
    "address": "서울특별시 종로구 세종대로 152",
    "phone": "",
    "latitude": "37.5698760651",
    "longitude": "126.9776487818",
    "image": "http://tong.visitkorea.or.kr/cms/resource/15/3556615_image2_1.jpg",
    "category": "박물관"
  },
  {
    "id": "2751525",
    "title": "신전뮤지엄",
    "address": "대구광역시 북구 관음로 43 (관음동)",
    "phone": "",
    "latitude": "35.9347894045",
    "longitude": "128.5401046371",
    "image": "http://tong.visitkorea.or.kr/cms/resource/27/3567427_image2_1.JPG",
    "category": "박물관"
  },
  {
    "id": "3012162",
    "title": "실학박물관",
    "address": "경기도 남양주시 조안면 다산로747번길 16",
    "phone": "",
    "latitude": "37.5160714777",
    "longitude": "127.3006181453",
    "image": "http://tong.visitkorea.or.kr/cms/resource/26/3381926_image2_1.JPG",
    "category": "박물관"
  },
  {
    "id": "130859",
    "title": "아라리인형의집",
    "address": "강원특별자치도 정선군 북평면 명주내길 43-1",
    "phone": "",
    "latitude": "37.4382833925",
    "longitude": "128.6470793086",
    "image": "http://tong.visitkorea.or.kr/cms/resource/31/3342331_image2_1.jpg",
    "category": "박물관"
  },
  {
    "id": "130648",
    "title": "아름다운 차박물관",
    "address": "서울특별시 종로구 인사동길 19-11",
    "phone": "",
    "latitude": "37.5723648120",
    "longitude": "126.9858590740",
    "image": "http://tong.visitkorea.or.kr/cms/resource/57/951357_image2_1.jpg",
    "category": "박물관"
  },
  {
    "id": "2783023",
    "title": "아리랑박물관",
    "address": "강원특별자치도 정선군 정선읍 애산로 51",
    "phone": "",
    "latitude": "37.3764354374",
    "longitude": "128.6715623056",
    "image": "",
    "category": "박물관"
  },
  {
    "id": "3008372",
    "title": "아스카 게임박물관",
    "address": "경기도 파주시 탄현면 헤이리마을길 59-101",
    "phone": "",
    "latitude": "37.7916840860",
    "longitude": "126.6955960523",
    "image": "http://tong.visitkorea.or.kr/cms/resource/68/3003168_image2_1.jpg",
    "category": "박물관"
  },
  {
    "id": "130943",
    "title": "아주대학교도구박물관",
    "address": "경기도 수원시 영통구 월드컵로 206 (원천동)",
    "phone": "",
    "latitude": "37.2802608471",
    "longitude": "127.0436398241",
    "image": "http://tong.visitkorea.or.kr/cms/resource/66/3475866_image2_1.JPG",
    "category": "박물관"
  },
  {
    "id": "130180",
    "title": "아프리카 박물관",
    "address": "제주특별자치도 서귀포시 이어도로 49",
    "phone": "064-738-6565",
    "latitude": "33.2398992429",
    "longitude": "126.4290955229",
    "image": "http://tong.visitkorea.or.kr/cms/resource/15/3548215_image2_1.jpg",
    "category": "박물관"
  },
  {
    "id": "2615462",
    "title": "아해박물관",
    "address": "경기도 과천시 추사로 133 (주암동)",
    "phone": "",
    "latitude": "37.4576817013",
    "longitude": "127.0300110744",
    "image": "http://tong.visitkorea.or.kr/cms/resource/71/3565371_image2_1.jpg",
    "category": "박물관"
  },
  {
    "id": "3417657",
    "title": "안동선비문화박물관",
    "address": "경상북도 안동시 풍산읍 경서로 4380-49",
    "phone": "",
    "latitude": "36.5928655740",
    "longitude": "128.5959560334",
    "image": "http://tong.visitkorea.or.kr/cms/resource/38/3417638_image2_1.jpg",
    "category": "박물관"
  },
  {
    "id": "130310",
    "title": "안동소주·전통음식 박물관",
    "address": "경상북도 안동시 강남로 71-1",
    "phone": "",
    "latitude": "36.5498420498",
    "longitude": "128.7087555865",
    "image": "http://tong.visitkorea.or.kr/cms/resource/79/203479_image2_1.jpg",
    "category": "박물관"
  },
  {
    "id": "129772",
    "title": "안동시립박물관",
    "address": "경상북도 안동시 민속촌길 13",
    "phone": "",
    "latitude": "36.5787537262",
    "longitude": "128.7663940765",
    "image": "http://tong.visitkorea.or.kr/cms/resource/83/3538783_image2_1.jpg",
    "category": "박물관"
  },
  {
    "id": "3036029",
    "title": "안동시역사문화박물관",
    "address": "경상북도 안동시 풍천면 가일선원길 73",
    "phone": "",
    "latitude": "36.5726887356",
    "longitude": "128.5230658731",
    "image": "http://tong.visitkorea.or.kr/cms/resource/14/3036014_image2_1.JPG",
    "category": "박물관"
  },
  {
    "id": "1400236",
    "title": "안면도 쥬라기박물관",
    "address": "충청남도 태안군 남면 곰섬로 37-20",
    "phone": "",
    "latitude": "36.6093366544",
    "longitude": "126.3107216183",
    "image": "http://tong.visitkorea.or.kr/cms/resource/74/3524074_image2_1.jpg",
    "category": "박물관"
  },
  {
    "id": "654645",
    "title": "안산 어촌민속박물관",
    "address": "경기도 안산시 단원구 대부황금로 7",
    "phone": "",
    "latitude": "37.1924945304",
    "longitude": "126.6461116918",
    "image": "http://tong.visitkorea.or.kr/cms/resource/47/3342647_image2_1.jpg",
    "category": "박물관"
  },
  {
    "id": "3081404",
    "title": "안산산업역사박물관",
    "address": "경기도 안산시 단원구 화랑로 265 (초지동)",
    "phone": "",
    "latitude": "37.3230157521",
    "longitude": "126.8172341994",
    "image": "http://tong.visitkorea.or.kr/cms/resource/96/3081396_image2_1.JPG",
    "category": "박물관"
  },
  {
    "id": "3351854",
    "title": "안산향토사박물관",
    "address": "경기도 안산시 상록구 석호로 144 (사동)",
    "phone": "",
    "latitude": "37.2987968985",
    "longitude": "126.8488819948",
    "image": "http://tong.visitkorea.or.kr/cms/resource/31/3408831_image2_1.jpg",
    "category": "박물관"
  },
  {
    "id": "130440",
    "title": "안성맞춤박물관",
    "address": "경기도 안성시 대덕면 서동대로 4726-15",
    "phone": "",
    "latitude": "37.0113674559",
    "longitude": "127.2283722746",
    "image": "http://tong.visitkorea.or.kr/cms/resource/17/2996017_image2_1.jpg",
    "category": "박물관"
  },
  {
    "id": "3008259",
    "title": "안양박물관",
    "address": "경기도 안양시 만안구 예술공원로103번길 4 (석수동)",
    "phone": "",
    "latitude": "37.4177982109",
    "longitude": "126.9177585209",
    "image": "http://tong.visitkorea.or.kr/cms/resource/81/3003381_image2_1.jpg",
    "category": "박물관"
  },
  {
    "id": "130178",
    "title": "암사동 선사유적박물관",
    "address": "서울특별시 강동구 올림픽로 875 (암사동)",
    "phone": "",
    "latitude": "37.5591134023",
    "longitude": "127.1306157102",
    "image": "http://tong.visitkorea.or.kr/cms/resource/71/3514471_image2_1.jpg",
    "category": "박물관"
  },
  {
    "id": "731454",
    "title": "양구백자박물관",
    "address": "강원특별자치도 양구군 방산면 평화로 5182",
    "phone": "",
    "latitude": "38.2074225648",
    "longitude": "127.9514412318",
    "image": "http://tong.visitkorea.or.kr/cms/resource/95/3077195_image2_1.jpg",
    "category": "박물관"
  },
  {
    "id": "130134",
    "title": "양구선사근현대사박물관",
    "address": "강원특별자치도 양구군 양구읍 금강산로 439-52",
    "phone": "",
    "latitude": "38.1236191879",
    "longitude": "127.9904457778",
    "image": "http://tong.visitkorea.or.kr/cms/resource/53/3533353_image2_1.jpg",
    "category": "박물관"
  },
  {
    "id": "2568829",
    "title": "양구인문학박물관",
    "address": "강원특별자치도 양구군 양구읍 파로호로869번길 101",
    "phone": "",
    "latitude": "38.1220025339",
    "longitude": "127.9811633400",
    "image": "http://tong.visitkorea.or.kr/cms/resource/01/3533701_image2_1.jpg",
    "category": "박물관"
  },
  {
    "id": "1912356",
    "title": "양산시립박물관",
    "address": "경상남도 양산시 북정로 78 (북정동)",
    "phone": "",
    "latitude": "35.3585332616",
    "longitude": "129.0490593156",
    "image": "http://tong.visitkorea.or.kr/cms/resource/41/3538641_image2_1.jpg",
    "category": "박물관"
  },
  {
    "id": "2546181",
    "title": "양주시립회암사지박물관",
    "address": "경기도 양주시 회암사길 11 (율정동)",
    "phone": "",
    "latitude": "37.8412745188",
    "longitude": "127.1029879178",
    "image": "http://tong.visitkorea.or.kr/cms/resource/58/3559458_image2_1.jpg",
    "category": "박물관"
  },
  {
    "id": "3070082",
    "title": "양평 아프리카 문화예술박물관",
    "address": "경기도 양평군 용문면 금곡길 40",
    "phone": "",
    "latitude": "37.5073727076",
    "longitude": "127.6164480661",
    "image": "http://tong.visitkorea.or.kr/cms/resource/53/3070053_image2_1.jpg",
    "category": "박물관"
  },
  {
    "id": "2605321",
    "title": "양평곤충박물관",
    "address": "경기도 양평군 옥천면 경강로 1496",
    "phone": "",
    "latitude": "37.5092805304",
    "longitude": "127.4492659526",
    "image": "http://tong.visitkorea.or.kr/cms/resource/44/3072644_image2_1.jpg",
    "category": "박물관"
  },
  {
    "id": "1587143",
    "title": "어진박물관",
    "address": "전북특별자치도 전주시 완산구 태조로 44",
    "phone": "",
    "latitude": "35.8162252063",
    "longitude": "127.1493588361",
    "image": "http://tong.visitkorea.or.kr/cms/resource/28/3351228_image2_1.jpg",
    "category": "박물관"
  },
  {
    "id": "2552568",
    "title": "얼음골축음기소리박물관(밀양)",
    "address": "경상남도 밀양시 산내면 산내로 926-1",
    "phone": "",
    "latitude": "35.5981819708",
    "longitude": "128.9351626245",
    "image": "http://tong.visitkorea.or.kr/cms/resource/82/2988482_image2_1.jpg",
    "category": "박물관"
  },
  {
    "id": "130724",
    "title": "여성생활사박물관",
    "address": "경기도 여주시 강천면 강천로 324-20",
    "phone": "",
    "latitude": "37.2433716017",
    "longitude": "127.7082029441",
    "image": "http://tong.visitkorea.or.kr/cms/resource/36/3563636_image2_1.jpg",
    "category": "박물관"
  },
  {
    "id": "3007161",
    "title": "여수 테디베어뮤지엄",
    "address": "전라남도 여수시 안심산길 155",
    "phone": "",
    "latitude": "34.7481182078",
    "longitude": "127.6419373099",
    "image": "http://tong.visitkorea.or.kr/cms/resource/14/3008114_image2_1.jpg",
    "category": "박물관"
  },
  {
    "id": "2550788",
    "title": "여주곤충박물관",
    "address": "경기도 여주시 명성로 114-146 (능현동)",
    "phone": "",
    "latitude": "37.2595105708",
    "longitude": "127.6627871362",
    "image": "http://tong.visitkorea.or.kr/cms/resource/93/2992393_image2_1.jpg",
    "category": "박물관"
  },
  {
    "id": "130965",
    "title": "여주박물관",
    "address": "경기도 여주시 신륵사길 6-12 (천송동)",
    "phone": "",
    "latitude": "37.2997057536",
    "longitude": "127.6533979410",
    "image": "http://tong.visitkorea.or.kr/cms/resource/95/3540495_image2_1.jpg",
    "category": "박물관"
  },
  {
    "id": "2716715",
    "title": "여주시립폰박물관",
    "address": "경기도 여주시 강변유원지길 105 (연양동)",
    "phone": "",
    "latitude": "37.2933622985",
    "longitude": "127.6673579734",
    "image": "http://tong.visitkorea.or.kr/cms/resource/27/3541727_image2_1.jpg",
    "category": "박물관"
  },
  {
    "id": "130269",
    "title": "연기향토박물관",
    "address": "세종특별자치시 연서면 양대길 34-4",
    "phone": "",
    "latitude": "36.5955649443",
    "longitude": "127.2077883595",
    "image": "http://tong.visitkorea.or.kr/cms/resource/40/3522340_image2_1.jpg",
    "category": "박물관"
  },
  {
    "id": "2357562",
    "title": "열화당책박물관",
    "address": "경기도 파주시 광인사길 25 (문발동)",
    "phone": "",
    "latitude": "37.7090213070",
    "longitude": "126.6846882723",
    "image": "http://tong.visitkorea.or.kr/cms/resource/04/3383504_image2_1.JPG",
    "category": "박물관"
  },
  {
    "id": "129843",
    "title": "영남대학교박물관",
    "address": "경상북도 경산시 대학로 280 (대동)",
    "phone": "",
    "latitude": "35.8361600637",
    "longitude": "128.7531330710",
    "image": "",
    "category": "박물관"
  },
  {
    "id": "2779301",
    "title": "영암곤충박물관",
    "address": "전라남도 영암군 영암읍 기찬랜드로 41",
    "phone": "",
    "latitude": "34.7903583844",
    "longitude": "126.6851369678",
    "image": "http://tong.visitkorea.or.kr/cms/resource/53/3553853_image2_1.jpg",
    "category": "박물관"
  },
  {
    "id": "130422",
    "title": "영암도기박물관",
    "address": "전라남도 영암군 군서면 서호정길 5",
    "phone": "",
    "latitude": "34.7604995424",
    "longitude": "126.6193323841",
    "image": "http://tong.visitkorea.or.kr/cms/resource/48/2705748_image2_1.jpg",
    "category": "박물관"
  },
  {
    "id": "130467",
    "title": "영월곤충박물관",
    "address": "강원특별자치도 영월군 영월읍 동강로 716",
    "phone": "",
    "latitude": "37.2279382659",
    "longitude": "128.5055205311",
    "image": "",
    "category": "박물관"
  },
  {
    "id": "2714159",
    "title": "영월미디어기자박물관",
    "address": "강원특별자치도 영월군 한반도면 서강로 1094",
    "phone": "",
    "latitude": "37.2431864683",
    "longitude": "128.3564723496",
    "image": "http://tong.visitkorea.or.kr/cms/resource/25/3340825_image2_1.jpg",
    "category": "박물관"
  },
  {
    "id": "1398051",
    "title": "영월아프리카미술박물관",
    "address": "강원특별자치도 영월군 김삿갓면 영월동로 1107-1",
    "phone": "",
    "latitude": "37.1318637769",
    "longitude": "128.5355012441",
    "image": "http://tong.visitkorea.or.kr/cms/resource/20/3557220_image2_1.JPG",
    "category": "박물관"
  },
  {
    "id": "2714842",
    "title": "영월화석박물관",
    "address": "강원특별자치도 영월군 주천면 평창강로 139",
    "phone": "",
    "latitude": "37.2931193083",
    "longitude": "128.3408639445",
    "image": "",
    "category": "박물관"
  },
  {
    "id": "2751969",
    "title": "영인산산림박물관",
    "address": "충청남도 아산시 염치읍 아산온천로 16-30",
    "phone": "",
    "latitude": "36.8432734011",
    "longitude": "126.9409639703",
    "image": "",
    "category": "박물관"
  },
  {
    "id": "130083",
    "title": "영일민속박물관",
    "address": "경상북도 포항시 북구 흥해읍 한동로 51",
    "phone": "",
    "latitude": "36.1108457199",
    "longitude": "129.3472452465",
    "image": "",
    "category": "박물관"
  },
  {
    "id": "2638436",
    "title": "영종역사관",
    "address": "인천광역시 중구 구읍로 63",
    "phone": "",
    "latitude": "37.4891227900",
    "longitude": "126.5777264136",
    "image": "http://tong.visitkorea.or.kr/cms/resource/09/3381709_image2_1.jpg",
    "category": "박물관"
  },
  {
    "id": "130716",
    "title": "영집궁시박물관",
    "address": "경기도 파주시 탄현면 국원말길 168",
    "phone": "",
    "latitude": "37.7849962608",
    "longitude": "126.7114892297",
    "image": "http://tong.visitkorea.or.kr/cms/resource/23/3505423_image2_1.jpg",
    "category": "박물관"
  },
  {
    "id": "1824455",
    "title": "예아리박물관",
    "address": "경기도 용인시 처인구 원설로270번길 25 예아리 박물관",
    "phone": "",
    "latitude": "37.1422047745",
    "longitude": "127.3629731159",
    "image": "http://tong.visitkorea.or.kr/cms/resource/88/3383488_image2_1.jpg",
    "category": "박물관"
  },
  {
    "id": "2912292",
    "title": "예천박물관",
    "address": "경상북도 예천군 복골길 150 예천박물관",
    "phone": "",
    "latitude": "36.6988741506",
    "longitude": "128.5144491146",
    "image": "http://tong.visitkorea.or.kr/cms/resource/75/2912275_image2_1.jpg",
    "category": "박물관"
  },
  {
    "id": "130314",
    "title": "옛길박물관",
    "address": "경상북도 문경시 문경읍 새재로 944",
    "phone": "",
    "latitude": "36.7631530866",
    "longitude": "128.0763724895",
    "image": "http://tong.visitkorea.or.kr/cms/resource/22/2706022_image2_1.jpg",
    "category": "박물관"
  },
  {
    "id": "130890",
    "title": "옛터민속박물관",
    "address": "대전광역시 동구 산내로 321-35",
    "phone": "",
    "latitude": "36.2151542923",
    "longitude": "127.4404889558",
    "image": "http://tong.visitkorea.or.kr/cms/resource/02/3524002_image2_1.jpg",
    "category": "박물관"
  },
  {
    "id": "1607119",
    "title": "오륜대 한국순교자박물관",
    "address": "부산광역시 금정구 오륜대로 106-1",
    "phone": "",
    "latitude": "35.2461579534",
    "longitude": "129.1015467296",
    "image": "",
    "category": "박물관"
  },
  {
    "id": "130930",
    "title": "오산리선사유적박물관",
    "address": "강원특별자치도 양양군 손양면 학포길 33",
    "phone": "",
    "latitude": "38.0859003350",
    "longitude": "128.6604471476",
    "image": "http://tong.visitkorea.or.kr/cms/resource/15/2739215_image2_1.jpg",
    "category": "박물관"
  },
  {
    "id": "130063",
    "title": "온양민속박물관",
    "address": "충청남도 아산시 충무로 123",
    "phone": "",
    "latitude": "36.7921443303",
    "longitude": "127.0061678147",
    "image": "http://tong.visitkorea.or.kr/cms/resource/50/3075650_image2_1.jpg",
    "category": "박물관"
  },
  {
    "id": "1524481",
    "title": "와보랑께박물관",
    "address": "전라남도 강진군 병영면 장강로 804-6",
    "phone": "",
    "latitude": "34.6997653663",
    "longitude": "126.8267933686",
    "image": "http://tong.visitkorea.or.kr/cms/resource/04/3562104_image2_1.jpg",
    "category": "박물관"
  },
  {
    "id": "130876",
    "title": "왈츠와 닥터만 커피박물관",
    "address": "경기도 남양주시 조안면 북한강로 856-37",
    "phone": "",
    "latitude": "37.5915967289",
    "longitude": "127.3381514541",
    "image": "http://tong.visitkorea.or.kr/cms/resource/20/3537220_image2_1.jpg",
    "category": "박물관"
  },
  {
    "id": "130156",
    "title": "외교사료관",
    "address": "서울특별시 서초구 남부순환로 2572 (서초동)",
    "phone": "",
    "latitude": "37.4836759292",
    "longitude": "127.0312796697",
    "image": "http://tong.visitkorea.or.kr/cms/resource/21/3540521_image2_1.jpg",
    "category": "박물관"
  },
  {
    "id": "2654545",
    "title": "외할머니의 부엌",
    "address": "경기도 김포시 대곶면 덕포진로103번길 95-7",
    "phone": "",
    "latitude": "37.6500283794",
    "longitude": "126.5389893694",
    "image": "http://tong.visitkorea.or.kr/cms/resource/64/3527764_image2_1.jpg",
    "category": "박물관"
  },