[
  {
    "id": "3021762",
    "title": "가을 , 명동으로",
    "address": "서울특별시 중구 퇴계로 지하126 (충무로2가)",
    "phone": "02-2277-8971",
    "latitude": "37.5609633613",
    "longitude": "126.9859593880",
    "image": "http://tong.visitkorea.or.kr/cms/resource/65/3559865_image2_1.png",
    "category": "기타행사",
    "eventstartdate": "20251115",
    "eventenddate": "20251115"
  },
  {
    "id": "3470412",
    "title": "강원관광두레 팝업스토어",
    "address": "서울특별시 성동구 뚝섬로13길 36 (성수동2가)",
    "phone": "070-7841-7696",
    "latitude": "37.5413336048",
    "longitude": "127.0580978177",
    "image": "http://tong.visitkorea.or.kr/cms/resource/99/3470399_image2_1.jpg",
    "category": "기타행사",
    "eventstartdate": "20250204",
    "eventenddate": "20250212"
  },
  {
    "id": "3557782",
    "title": "개항장 댕댕 도서관",
    "address": "인천광역시 중구 월미로 33 (북성동1가)",
    "phone": "010-8456-2948",
    "latitude": "37.4761360618",
    "longitude": "126.6146650689",
    "image": "http://tong.visitkorea.or.kr/cms/resource/81/3557781_image2_1.png",
    "category": "기타행사",
    "eventstartdate": "20251108",
    "eventenddate": "20251108"
  },
  {
    "id": "3422647",
    "title": "게임 체험 팝업 전시 ‘Game-Playground’",
    "address": "부산광역시 수영구 광남로 96 (광안동, 광안 포디움프레스티지 1)",
    "phone": "010-8552-8044",
    "latitude": "35.1504883662",
    "longitude": "129.1151037338",
    "image": "http://tong.visitkorea.or.kr/cms/resource/58/3579258_image2_1.jpg",
    "category": "기타행사",
    "eventstartdate": "20251129",
    "eventenddate": "20251214"
  },
  {
    "id": "3512510",
    "title": "경기도 문화사계 \"여름\" 경기바다 드론쇼",
    "address": "경기도 시흥시 거북섬둘레길 42 (정왕동)",
    "phone": "031-956-8318",
    "latitude": "37.3241520972",
    "longitude": "126.6806993687",
    "image": "http://tong.visitkorea.or.kr/cms/resource/09/3512509_image2_1.jpg",
    "category": "기타행사",
    "eventstartdate": "20250815",
    "eventenddate": "20250816"
  },
  {
    "id": "2867141",
    "title": "경북 K-스토리 페스티벌",
    "address": "경상북도 안동시 영가로 16 (동부동)",
    "phone": "054-840-7044",
    "latitude": "36.5646797112",
    "longitude": "128.7335001826",
    "image": "http://tong.visitkorea.or.kr/cms/resource/61/3516661_image2_1.jpg",
    "category": "기타행사",
    "eventstartdate": "20250919",
    "eventenddate": "20250920"
  },
  {
    "id": "3498398",
    "title": "광복 80주년 기념 '강제동원 희생자의 길을 걷다'",
    "address": "서울특별시 종로구 종로1길 45 (세종로)",
    "phone": "02-721-1822",
    "latitude": "37.5746727436",
    "longitude": "126.9783985779",
    "image": "http://tong.visitkorea.or.kr/cms/resource/97/3498397_image2_1.jpg",
    "category": "기타행사",
    "eventstartdate": "20250621",
    "eventenddate": "20250621"
  },
  {
    "id": "3518593",
    "title": "광복 80주년 서울시 기념사업",
    "address": "서울특별시 중구 세종대로 110 (태평로1가)",
    "phone": "02-2133-7755",
    "latitude": "37.5662570431",
    "longitude": "126.9777210995",
    "image": "http://tong.visitkorea.or.kr/cms/resource/92/3518592_image2_1.jpg",
    "category": "기타행사",
    "eventstartdate": "20250809",
    "eventenddate": "20250816"
  },
  {
    "id": "2786391",
    "title": "광안리 M(Marvelous) 드론 라이트쇼",
    "address": "부산광역시 수영구 광안해변로 219 (광안동)",
    "phone": "051-610-6518",
    "latitude": "35.1538130576",
    "longitude": "129.1185477876",
    "image": "http://tong.visitkorea.or.kr/cms/resource/12/3518612_image2_1.jpeg",
    "category": "기타행사",
    "eventstartdate": "20250101",
    "eventenddate": "20251231"
  },
  {
    "id": "3382746",
    "title": "광주국제미술전람회 〈아트광주24〉",
    "address": "광주광역시 서구 상무누리로 30 (치평동)",
    "phone": "062-670-7425, 7442",
    "latitude": "35.1467152588",
    "longitude": "126.8405588979",
    "image": "http://tong.visitkorea.or.kr/cms/resource/30/3382730_image2_1.jpg",
    "category": "기타행사",
    "eventstartdate": "20241010",
    "eventenddate": "20241013"
  },
  {
    "id": "3460731",
    "title": "광주여성영화제",
    "address": "광주광역시 동구 중앙로160번길 16-7 (불로동)",
    "phone": "062-515-6560",
    "latitude": "35.1468609363",
    "longitude": "126.9146634529",
    "image": "http://tong.visitkorea.or.kr/cms/resource/26/3460726_image2_1.jpg",
    "category": "기타행사",
    "eventstartdate": "20251106",
    "eventenddate": "20251110"
  },
  {
    "id": "3035607",
    "title": "광화문 마켓",
    "address": "서울특별시 종로구 세종대로 지하172 (세종로)",
    "phone": "02-337-3692",
    "latitude": "37.5716786179",
    "longitude": "126.9767821434",
    "image": "http://tong.visitkorea.or.kr/cms/resource/03/3573403_image2_1.png",
    "category": "기타행사",
    "eventstartdate": "20251212",
    "eventenddate": "20251231"
  },
  {
    "id": "3008671",
    "title": "국립농업박물관 문화제 '쉼(休), 머무르다'",
    "address": "경기도 수원시 권선구 수인로 154 (서둔동)",
    "phone": "031-324-9114~5",
    "latitude": "37.2746965149",
    "longitude": "126.9826871782",
    "image": "http://tong.visitkorea.or.kr/cms/resource/28/3561428_image2_1.jpg",
    "category": "기타행사",
    "eventstartdate": "20251101",
    "eventenddate": "20251111"
  },
  {
    "id": "3114685",
    "title": "국립농업박물관 어린이날 행사",
    "address": "경기도 수원시 권선구 수인로 154 (서둔동)",
    "phone": "031-324-9114~5",
    "latitude": "37.2754797575",
    "longitude": "126.9826871564",
    "image": "http://tong.visitkorea.or.kr/cms/resource/32/3488132_image2_1.jpg",
    "category": "기타행사",
    "eventstartdate": "20250503",
    "eventenddate": "20250505"
  },
  {
    "id": "3489258",
    "title": "국립충주기상과학관 어린이 날 기상과학 놀이마당",
    "address": "충청북도 충주시 번영대로 270-10 (연수동)",
    "phone": "043-901-7060",
    "latitude": "36.9857362806",
    "longitude": "127.9487886761",
    "image": "http://tong.visitkorea.or.kr/cms/resource/57/3489257_image2_1.png",
    "category": "기타행사",
    "eventstartdate": "20250505",
    "eventenddate": "20250505"
  },
  {
    "id": "3566596",
    "title": "굿네이버스 세계 놀이 페스티벌 '놀자GO! 지구로!'",
    "address": "경상북도 포항시 북구 양덕남로 166 (양덕동)",
    "phone": "053-214-7124",
    "latitude": "36.0800254208",
    "longitude": "129.4107100131",
    "image": "http://tong.visitkorea.or.kr/cms/resource/61/3567661_image2_1.jpg",
    "category": "기타행사",
    "eventstartdate": "20251207",
    "eventenddate": "20251207"
  },
  {
    "id": "3051471",
    "title": "굿즈이즈굿V.2",
    "address": "서울특별시 강서구 마곡중앙로 143 (마곡동)",
    "phone": "02-2602-8601",
    "latitude": "37.5667792585",
    "longitude": "126.8254071964",
    "image": "http://tong.visitkorea.or.kr/cms/resource/19/3459619_image2_1.jpg",
    "category": "기타행사",
    "eventstartdate": "20250306",
    "eventenddate": "20250309"
  },
  {
    "id": "3548994",
    "title": "그린칩스 페스티벌",
    "address": "서울특별시 마포구 성미산로 151-1 (연남동)",
    "phone": "02-3143-7366",
    "latitude": "37.5645590416",
    "longitude": "126.9232288927",
    "image": "http://tong.visitkorea.or.kr/cms/resource/93/3548993_image2_1.png",
    "category": "기타행사",
    "eventstartdate": "20251015",
    "eventenddate": "20251026"
  },
  {
    "id": "3482642",
    "title": "금빛서동 - 누가 무왕이 될 것인가",
    "address": "전북특별자치도 익산시 금마면 고도9길 41-14",
    "phone": "053-253-0515",
    "latitude": "36.0006415547",
    "longitude": "127.0609146595",
    "image": "http://tong.visitkorea.or.kr/cms/resource/34/3482634_image2_1.jpg",
    "category": "기타행사",
    "eventstartdate": "20250504",
    "eventenddate": "20250506"
  },
  {
    "id": "2704776",
    "title": "김대건 신부 탄생 200주년 기념행사 2021",
    "address": "충청남도 당진시 우강면 솔뫼로 132",
    "phone": "041-350-3776",
    "latitude": "36.8201094630",
    "longitude": "126.7860785910",
    "image": "http://tong.visitkorea.or.kr/cms/resource/81/2704781_image2_1.JPG",
    "category": "기타행사",
    "eventstartdate": "20210814",
    "eventenddate": "20210822"
  },
  {
    "id": "1930109",
    "title": "김포 불꽃크루즈",
    "address": "경기도 김포시 고촌읍 아라육로270번길 74",
    "phone": "1522-8905",
    "latitude": "37.5976583182",
    "longitude": "126.7871209331",
    "image": "http://tong.visitkorea.or.kr/cms/resource/72/3084372_image2_1.jpg",
    "category": "기타행사",
    "eventstartdate": "20240101",
    "eventenddate": "20241231"
  },
  {
    "id": "2766000",
    "title": "나오라쇼",
    "address": "강원특별자치도 원주시 지정면 소금산길 12",
    "phone": "033-749-4860",
    "latitude": "37.3646293574",
    "longitude": "127.8340575195",
    "image": "http://tong.visitkorea.or.kr/cms/resource/28/3487628_image2_1.jpg",
    "category": "기타행사",
    "eventstartdate": "20250426",
    "eventenddate": "20251025"
  },
  {
    "id": "3333757",
    "title": "남도달밤야시장",
    "address": "광주광역시 동구 제봉로194번길 10 (대인동)",
    "phone": "062-233-1420",
    "latitude": "35.1541407126",
    "longitude": "126.9171630495",
    "image": "http://tong.visitkorea.or.kr/cms/resource/79/3401079_image2_1.jpg",
    "category": "기타행사",
    "eventstartdate": "20241109",
    "eventenddate": "20241116"
  },
  {
    "id": "3569496",
    "title": "담그랑께 나누랑께",
    "address": "전북특별자치도 전주시 완산구 전라감영로 55 (중앙동4가)",
    "phone": "063-232-9938",
    "latitude": "35.8157779693",
    "longitude": "127.1455841839",
    "image": "http://tong.visitkorea.or.kr/cms/resource/95/3569495_image2_1.jpg",
    "category": "기타행사",
    "eventstartdate": "20251130",
    "eventenddate": "20251130"
  },
  {
    "id": "3506515",
    "title": "담양 다미담주 페스티벌 쓰담쓰담 야시장",
    "address": "전라남도 담양군 담양읍 담주4길 24-46",
    "phone": "010-9903-0209",
    "latitude": "35.3223061188",
    "longitude": "126.9808087360",
    "image": "http://tong.visitkorea.or.kr/cms/resource/17/3559417_image2_1.jpg",
    "category": "기타행사",
    "eventstartdate": "20251025",
    "eventenddate": "20251108"
  },
  {
    "id": "2821859",
    "title": "대한민국 상생 K-POP 콘서트 with 춘천 2024세계태권도주니어선수권대회",
    "address": "강원특별자치도 춘천시 스포츠타운길 136 (송암동)",
    "phone": "033-244-7758",
    "latitude": "37.8563696590",
    "longitude": "127.6898506167",
    "image": "http://tong.visitkorea.or.kr/cms/resource/21/3362421_image2_1.png",
    "category": "기타행사",
    "eventstartdate": "20241003",
    "eventenddate": "20241003"
  },
  {
    "id": "3380134",
    "title": "대한민국은 공연중",
    "address": "서울특별시 중구 장충단로 59 (장충동2가)",
    "phone": "02-708-2230",
    "latitude": "37.5518007890",
    "longitude": "127.0000222551",
    "image": "http://tong.visitkorea.or.kr/cms/resource/31/3380131_image2_1.png",
    "category": "기타행사",
    "eventstartdate": "20241004",
    "eventenddate": "20241110"
  },
  {
    "id": "3495394",
    "title": "독립출판 북페어 전주책쾌",
    "address": "전북특별자치도 전주시 완산구 전주천동로 118 (전동)",
    "phone": "063-230-1859",
    "latitude": "35.8117951332",
    "longitude": "127.1481007306",
    "image": "http://tong.visitkorea.or.kr/cms/resource/92/3495392_image2_1.jpg",
    "category": "기타행사",
    "eventstartdate": "20250607",
    "eventenddate": "20250608"
  },
  {
    "id": "2818501",
    "title": "동학농민혁명 기념식",
    "address": "전북특별자치도 정읍시 덕천면 동학로 742",
    "phone": "070-8892-4020",
    "latitude": "35.6318490114",
    "longitude": "126.8300531282",
    "image": "http://tong.visitkorea.or.kr/cms/resource/97/3488297_image2_1.jpg",
    "category": "기타행사",
    "eventstartdate": "20250511",
    "eventenddate": "20250511"
  },
  {
    "id": "2842412",
    "title": "동행축제",
    "address": "제주특별자치도 서귀포시 중문관광로 224 (중문동)",
    "phone": "02-6678-9000",
    "latitude": "33.2412795735",
    "longitude": "126.4244820031",
    "image": "http://tong.visitkorea.or.kr/cms/resource/31/3527931_image2_1.jpg",
    "category": "기타행사",
    "eventstartdate": "20250830",
    "eventenddate": "20250905"
  },
  {
    "id": "3371258",
    "title": "렛츠플로피(Let's FLOPPY 3.0)",
    "address": "광주광역시 서구 상무누리로 30 (치평동)",
    "phone": "070-4263-9875",
    "latitude": "35.1467152588",
    "longitude": "126.8405588979",
    "image": "http://tong.visitkorea.or.kr/cms/resource/62/3492562_image2_1.jpg",
    "category": "기타행사",
    "eventstartdate": "20250606",
    "eventenddate": "20250607"
  },
  {
    "id": "2838316",
    "title": "무형유산원 나들이",
    "address": "전북특별자치도 전주시 완산구 서학로 95 (동서학동)",
    "phone": "063-280-1426",
    "latitude": "35.8099038819",
    "longitude": "127.1596636399",
    "image": "http://tong.visitkorea.or.kr/cms/resource/57/3533457_image2_1.jpg",
    "category": "기타행사",
    "eventstartdate": "20250927",
    "eventenddate": "20250928"
  },
  {
    "id": "2556687",
    "title": "문학주간 2025",
    "address": "서울특별시 종로구 대학로 104 (동숭동)",
    "phone": "070-4571-5215",
    "latitude": "37.5805669329",
    "longitude": "127.0023878907",
    "image": "http://tong.visitkorea.or.kr/cms/resource/68/3519568_image2_1.jpg",
    "category": "기타행사",
    "eventstartdate": "20250913",
    "eventenddate": "20250919"
  },
  {
    "id": "3486451",
    "title": "박물관 미술관 주간",
    "address": "서울특별시 용산구 서빙고로 137 (용산동6가)",
    "phone": "02-795-0959",
    "latitude": "37.5211706397",
    "longitude": "126.9791278024",
    "image": "http://tong.visitkorea.or.kr/cms/resource/50/3486450_image2_1.jpg",
    "category": "기타행사",
    "eventstartdate": "20250502",
    "eventenddate": "20250531"
  },
  {
    "id": "2722007",
    "title": "백제문화유산주간",
    "address": "충청남도 공주시 관광단지길 34 국립공주박물관",
    "phone": "070-7209-3770",
    "latitude": "36.4665696863",
    "longitude": "127.1100589651",
    "image": "http://tong.visitkorea.or.kr/cms/resource/12/3303912_image2_1.jpg",
    "category": "기타행사",
    "eventstartdate": "20240527",
    "eventenddate": "20240602"
  },
  {
    "id": "3488961",
    "title": "불로초원정대",
    "address": "경상남도 산청군 금서면 동의보감로555번길 45-6",
    "phone": "1644-0840",
    "latitude": "35.4411074195",
    "longitude": "127.8293779206",
    "image": "http://tong.visitkorea.or.kr/cms/resource/73/3553673_image2_1.jpg",
    "category": "기타행사",
    "eventstartdate": "20251101",
    "eventenddate": "20251102"
  },
  {
    "id": "3499827",
    "title": "뿅뿅! 청춘오락실 : 샤로수길 청춘들의 다섯가지 즐거움",
    "address": "서울특별시 관악구 관악로14길 22 (봉천동)",
    "phone": "02-554-9795",
    "latitude": "37.4790639653",
    "longitude": "126.9537812982",
    "image": "http://tong.visitkorea.or.kr/cms/resource/26/3499826_image2_1.jpg",
    "category": "기타행사",
    "eventstartdate": "20250621",
    "eventenddate": "20250621"
  },
  {
    "id": "2434545",
    "title": "새연교 주말 문화공연 '금토금토 새연쇼'",
    "address": "제주특별자치도 서귀포시 남성중로 40 (서홍동)",
    "phone": "064-760-2654",
    "latitude": "33.2392291387",
    "longitude": "126.5584343264",
    "image": "http://tong.visitkorea.or.kr/cms/resource/62/3510162_image2_1.jpg",
    "category": "기타행사",
    "eventstartdate": "20250725",
    "eventenddate": "20251031"
  },
  {
    "id": "1018469",
    "title": "서울국제작가축제",
    "address": "서울특별시 종로구 인사동9길 26 (견지동)",
    "phone": "070-8826-5207",
    "latitude": "37.5734729769",
    "longitude": "126.9836425781",
    "image": "http://tong.visitkorea.or.kr/cms/resource/24/3500724_image2_1.jpg",
    "category": "기타행사",
    "eventstartdate": "20250912",
    "eventenddate": "20250917"
  },
  {
    "id": "2816502",
    "title": "서울서커스페스티벌",
    "address": "서울특별시 용산구 양녕로 445 (이촌동)",
    "phone": "02-758-2036",
    "latitude": "37.5177178854",
    "longitude": "126.9580520415",
    "image": "http://tong.visitkorea.or.kr/cms/resource/46/3485946_image2_1.png",
    "category": "기타행사",
    "eventstartdate": "20250503",
    "eventenddate": "20250505"
  },
  {
    "id": "3479542",
    "title": "서울조각페스티벌",
    "address": "서울특별시 중구 세종대로 110 (태평로1가)",
    "phone": "02-2133-4234",
    "latitude": "37.5662570431",
    "longitude": "126.9777210995",
    "image": "http://tong.visitkorea.or.kr/cms/resource/18/3479518_image2_1.jpg",
    "category": "기타행사",
    "eventstartdate": "20250217",
    "eventenddate": "20251231"
  },
  {
    "id": "3495416",
    "title": "성북 MOA 마켓",
    "address": "서울특별시 성북구 동소문동2가",
    "phone": "02-927-9501",
    "latitude": "37.5882522289",
    "longitude": "127.0067150561",
    "image": "http://tong.visitkorea.or.kr/cms/resource/15/3495415_image2_1.png",
    "category": "기타행사",
    "eventstartdate": "20250614",
    "eventenddate": "20250614"
  },
  {
    "id": "3011126",
    "title": "세계를 품은 인천교육 한마당",
    "address": "인천광역시 연수구 센트럴로 123 (송도동)",
    "phone": "032-561-7243",
    "latitude": "37.3900244069",
    "longitude": "126.6466173186",
    "image": "http://tong.visitkorea.or.kr/cms/resource/18/3543518_image2_1.jpg",
    "category": "기타행사",
    "eventstartdate": "20251028",
    "eventenddate": "20251029"
  },
  {
    "id": "3518550",
    "title": "세계예술인한반도평화대회",
    "address": "경기도 파주시 탄현면 헤이리마을길 70-21",
    "phone": "02-3673-1020",
    "latitude": "37.7880679075",
    "longitude": "126.6993124807",
    "image": "http://tong.visitkorea.or.kr/cms/resource/49/3518549_image2_1.jpg",
    "category": "기타행사",
    "eventstartdate": "20250810",
    "eventenddate": "20250908"
  },
  {
    "id": "3306558",
    "title": "세븐비치 어싱 챌린지",
    "address": "부산광역시 기장군 장안읍 임랑해안길 51",
    "phone": "051-461-4298",
    "latitude": "35.3189972570",
    "longitude": "129.2641999985",
    "image": "http://tong.visitkorea.or.kr/cms/resource/38/3480338_image2_1.jpg",
    "category": "기타행사",
    "eventstartdate": "20250322",
    "eventenddate": "20250322"
  },
  {
    "id": "3114311",
    "title": "쉬엄쉬엄 한강 3종 축제",
    "address": "서울특별시 광진구 능동로 10 (자양동)",
    "phone": "1544-5340",
    "latitude": "37.5316404411",
    "longitude": "127.0667334178",
    "image": "http://tong.visitkorea.or.kr/cms/resource/09/3479309_image2_1.jpg",
    "category": "기타행사",
    "eventstartdate": "20250530",
    "eventenddate": "20250601"
  },
  {
    "id": "2949644",
    "title": "스프링워크서울",
    "address": "서울특별시 마포구 한강난지로 162 (상암동)",
    "phone": "070-4705-2008",
    "latitude": "37.5630252055",
    "longitude": "126.8851546298",
    "image": "http://tong.visitkorea.or.kr/cms/resource/92/3480192_image2_1.jpg",
    "category": "기타행사",
    "eventstartdate": "20250420",
    "eventenddate": "20250420"
  },
  {
    "id": "3479565",
    "title": "시나브로 치유길 힐링 걷기 챌린지(전북특별자치도 완주편)",
    "address": "전북특별자치도 완주군 구이면 덕천전원길 232-58",
    "phone": "02-861-4417",
    "latitude": "35.7260602293",
    "longitude": "127.1361790273",
    "image": "http://tong.visitkorea.or.kr/cms/resource/62/3479562_image2_1.png",
    "category": "기타행사",
    "eventstartdate": "20250302",
    "eventenddate": "20250302"
  },
  {
    "id": "3479747",
    "title": "시나브로 치유길 힐링 걷기 챌린지(충청남도 공주편)",
    "address": "충청남도 공주시 사곡면 마곡사로 966",
    "phone": "02-861-4417",
    "latitude": "36.5588462678",
    "longitude": "127.0123291438",
    "image": "http://tong.visitkorea.or.kr/cms/resource/46/3479746_image2_1.png",
    "category": "기타행사",
    "eventstartdate": "20250301",
    "eventenddate": "20250301"
  },
  {
    "id": "2666388",
    "title": "아이가 행복입니다 해피투게더 경북 in 포항",
    "address": "경상북도 포항시 남구 희망대로 814 (대도동)",
    "phone": "1688-5368",
    "latitude": "36.0065133515",
    "longitude": "129.3615414552",
    "image": "http://tong.visitkorea.or.kr/cms/resource/22/3567122_image2_1.jpg",
    "category": "기타행사",
    "eventstartdate": "20251121",
    "eventenddate": "20251122"
  },
  {
    "id": "3499554",
    "title": "안빈낙도 새로보기·음미하기·유람하기",
    "address": "경상북도 영주시 순흥면 소백로 2796",
    "phone": "02-737-6444",
    "latitude": "36.9283157941",
    "longitude": "128.5812364783",
    "image": "http://tong.visitkorea.or.kr/cms/resource/02/3504002_image2_1.jpg",
    "category": "기타행사",
    "eventstartdate": "20250705",
    "eventenddate": "20251025"
  },
  {
    "id": "3533382",
    "title": "엔터테크 서울 2025",
    "address": "서울특별시 중구 을지로 281 (을지로7가)",
    "phone": "010-6621-8624",
    "latitude": "37.5661076320",
    "longitude": "127.0095709797",
    "image": "http://tong.visitkorea.or.kr/cms/resource/81/3533381_image2_1.png",
    "category": "기타행사",
    "eventstartdate": "20250919",
    "eventenddate": "20250921"
  },
  {
    "id": "2494465",
    "title": "여수 야경불꽃크루즈",
    "address": "전라남도 여수시 돌산읍 돌산로 3617-18",
    "phone": "1522-8905",
    "latitude": "34.7297302429",
    "longitude": "127.7369794626",
    "image": "http://tong.visitkorea.or.kr/cms/resource/78/3084378_image2_1.jpg",
    "category": "기타행사",
    "eventstartdate": "20240101",
    "eventenddate": "20241231"
  },
  {
    "id": "3410018",
    "title": "예울림 페스티벌",
    "address": "세종특별자치시 다솜3로 66 (어진동)",
    "phone": "02-3463-5020",
    "latitude": "36.5010685337",
    "longitude": "127.2688382303",
    "image": "http://tong.visitkorea.or.kr/cms/resource/34/3428334_image2_1.jpg",
    "category": "기타행사",
    "eventstartdate": "20241113",
    "eventenddate": "20241114"
  },
  {
    "id": "3522322",
    "title": "오슬로우 빈티지 마켓",
    "address": "인천광역시 중구 월미로 33 (북성동1가)",
    "phone": "010-2258-9475",
    "latitude": "37.4761360618",
    "longitude": "126.6146650689",
    "image": "http://tong.visitkorea.or.kr/cms/resource/29/3578129_image2_1.jpg",
    "category": "기타행사",
    "eventstartdate": "20251227",
    "eventenddate": "20260104"
  },
  {
    "id": "3581975",
    "title": "오픈 포트 크리스마스 : 불멍 (Open Port Christmas)",
    "address": "인천광역시 중구 월미로 33 (북성동1가)",
    "phone": "010-8456-2948",
    "latitude": "37.4761360618",
    "longitude": "126.6146650689",
    "image": "http://tong.visitkorea.or.kr/cms/resource/13/3581913_image2_1.png",
    "category": "기타행사",
    "eventstartdate": "20251227",
    "eventenddate": "20251227"
  },
  {
    "id": "3578130",
    "title": "울산의 밤, 크리스마스 마켓",
    "address": "울산광역시 남구 대공원로 94 (옥동)",
    "phone": "052-271-8701",
    "latitude": "35.5316989268",
    "longitude": "129.2935470479",
    "image": "http://tong.visitkorea.or.kr/cms/resource/65/3578165_image2_1.jpg",
    "category": "기타행사",
    "eventstartdate": "20251205",
    "eventenddate": "20251227"
  },
  {
    "id": "3554702",
    "title": "원도심 야간여행 ‘섬夜시즌’ 운영",
    "address": "제주특별자치도 서귀포시 칠십리로 120-12 (서귀동)",
    "phone": "064-741-8754",
    "latitude": "33.2419428720",
    "longitude": "126.5675084795",
    "image": "http://tong.visitkorea.or.kr/cms/resource/00/3554700_image2_1.jpg",
    "category": "기타행사",
    "eventstartdate": "20251101",
    "eventenddate": "20251102"
  },
  {
    "id": "3115337",
    "title": "원주시 반려동물 문화행사 <애니멀 대학>",
    "address": "강원특별자치도 원주시 봉산동",
    "phone": "033-813-0333",
    "latitude": "37.3444506969",
    "longitude": "127.9602217180",
    "image": "http://tong.visitkorea.or.kr/cms/resource/08/3546108_image2_1.png",
    "category": "기타행사",
    "eventstartdate": "20251004",
    "eventenddate": "20251004"
  },
  {
    "id": "3108244",
    "title": "위클리 클래식 페스티벌",
    "address": "경기도 오산시 내삼미로 93 (수청동)",
    "phone": "010-8927-8878",
    "latitude": "37.1705878248",
    "longitude": "127.0658019887",
    "image": "http://tong.visitkorea.or.kr/cms/resource/15/3480415_image2_1.jpg",
    "category": "기타행사",
    "eventstartdate": "20250301",
    "eventenddate": "20250731"
  },
  {
    "id": "3450345",
    "title": "이순신의 명량해전 체험전",
    "address": "대구광역시 북구 엑스코로 10 (산격동)",
    "phone": "070-7704-3800",
    "latitude": "35.9071133308",
    "longitude": "128.6130989730",
    "image": "http://tong.visitkorea.or.kr/cms/resource/28/3495028_image2_1.jpg",
    "category": "기타행사",
    "eventstartdate": "20250621",
    "eventenddate": "20250817"
  },
  {
    "id": "3113152",
    "title": "인천어린이과학관 과학피크닉",
    "address": "인천광역시 계양구 방축로 21 (방축동)",
    "phone": "032-561-7243",
    "latitude": "37.5516211679",
    "longitude": "126.7399543080",
    "image": "http://tong.visitkorea.or.kr/cms/resource/01/3486201_image2_1.jpg",
    "category": "기타행사",
    "eventstartdate": "20250419",
    "eventenddate": "20250419"
  },
  {
    "id": "1806117",
    "title": "인천어린이과학관 꿈꾸는 어린이",
    "address": "인천광역시 계양구 방축로 21 (방축동)",
    "phone": "032-561-7243",
    "latitude": "37.5516211679",
    "longitude": "126.7399543080",
    "image": "http://tong.visitkorea.or.kr/cms/resource/57/3486657_image2_1.jpg",
    "category": "기타행사",
    "eventstartdate": "20250505",
    "eventenddate": "20250505"
  },
  {
    "id": "3332731",
    "title": "장안문거북시장 별주부전 ‘야장’",
    "address": "경기도 수원시 장안구 정조로934번길 40 (영화동)",
    "phone": "031-890-5757",
    "latitude": "37.2917839960",
    "longitude": "127.0147060163",
    "image": "http://tong.visitkorea.or.kr/cms/resource/06/3495206_image2_1.jpg",
    "category": "기타행사",
    "eventstartdate": "20250627",
    "eventenddate": "20250926"
  },
  {
    "id": "3468240",
    "title": "전라관찰사의 탄생",
    "address": "전북특별자치도 전주시 완산구 전라감영로 55 (중앙동4가)",
    "phone": "063-232-9938",
    "latitude": "35.8157779693",
    "longitude": "127.1455841839",
    "image": "http://tong.visitkorea.or.kr/cms/resource/08/3546908_image2_1.jpg",
    "category": "기타행사",
    "eventstartdate": "20251018",
    "eventenddate": "20251130"
  },
  {
    "id": "3026969",
    "title": "전설의 귀신 in 문경",
    "address": "경상북도 문경시 가은읍 왕능리",
    "phone": "",
    "latitude": "36.6560540751",
    "longitude": "128.0669069339",
    "image": "",
    "category": "기타행사",
    "eventstartdate": "20240809",
    "eventenddate": "20240810"
  },
  {
    "id": "3500480",
    "title": "전주부성길 보물찾기 대탐험",
    "address": "전북특별자치도 전주시 완산구 태조로 44 (풍남동3가)",
    "phone": "063-232-9938",
    "latitude": "35.8142143363",
    "longitude": "127.1500366062",
    "image": "http://tong.visitkorea.or.kr/cms/resource/03/3508803_image2_1.jpg",
    "category": "기타행사",
    "eventstartdate": "20250726",
    "eventenddate": "20250726"
  },
  {
    "id": "2986345",
    "title": "제 24회 연기대첩제",
    "address": "세종특별자치시 연서면 용암리",
    "phone": "044-865-2411",
    "latitude": "36.5998481351",
    "longitude": "127.2275170257",
    "image": "http://tong.visitkorea.or.kr/cms/resource/92/3115692_image2_1.jpg",
    "category": "기타행사",
    "eventstartdate": "20240504",
    "eventenddate": "20240504"
  },
  {
    "id": "2392159",
    "title": "제10회 부천국제브레이킹대회(BIBC)",
    "address": "경기도 부천시 원미구 길주로 210 (중동)",
    "phone": "032-320-6345",
    "latitude": "37.5037883025",
    "longitude": "126.7660282681",
    "image": "http://tong.visitkorea.or.kr/cms/resource/83/3531483_image2_1.png",
    "category": "기타행사",
    "eventstartdate": "20250927",
    "eventenddate": "20250928"
  },
  {
    "id": "2394665",
    "title": "제11회 계촌클래식축제",
    "address": "강원특별자치도 평창군 방림면 계촌리",
    "phone": "010-2814-1055",
    "latitude": "37.4521530269",
    "longitude": "128.3034237089",
    "image": "http://tong.visitkorea.or.kr/cms/resource/50/3485550_image2_1.jpg",
    "category": "기타행사",
    "eventstartdate": "20250606",
    "eventenddate": "20250608"
  },
  {
    "id": "3356971",
    "title": "제12회 마이크로 패밀리 킥앤런",
    "address": "경기도 하남시 신장동",
    "phone": "02-6952-7070",
    "latitude": "37.5602535932",
    "longitude": "127.2099167950",
    "image": "http://tong.visitkorea.or.kr/cms/resource/48/3356948_image2_1.jpg",
    "category": "기타행사",
    "eventstartdate": "20241012",
    "eventenddate": "20241012"
  },
  {
    "id": "2642632",
    "title": "제13회 무주산골영화제",
    "address": "전북특별자치도 무주군 무주읍 한풍루로 326-14",
    "phone": "063-245-6400",
    "latitude": "36.0026685539",
    "longitude": "127.6615222281",
    "image": "http://tong.visitkorea.or.kr/cms/resource/13/3492613_image2_1.png",
    "category": "기타행사",
    "eventstartdate": "20250606",
    "eventenddate": "20250608"
  },
  {
    "id": "3479898",
    "title": "제1회 국제초콜릿쇼",
    "address": "제주특별자치도 서귀포시 표선면 번영로 2350-104",
    "phone": "010-7362-2345",
    "latitude": "33.4135241052",
    "longitude": "126.7525080052",
    "image": "http://tong.visitkorea.or.kr/cms/resource/97/3479897_image2_1.jpg",
    "category": "기타행사",
    "eventstartdate": "20250315",
    "eventenddate": "20250316"
  },
  {
    "id": "3524418",
    "title": "제2회 고메 잇 강남",
    "address": "서울특별시 강남구 영동대로 513 (삼성동)",
    "phone": "070-7734-7796",
    "latitude": "37.5119175967",
    "longitude": "127.0592179950",
    "image": "http://tong.visitkorea.or.kr/cms/resource/24/3563924_image2_1.png",
    "category": "기타행사",
    "eventstartdate": "20251104",
    "eventenddate": "20251116"
  },
  {
    "id": "3495410",
    "title": "제2회 선원의날 한마음 걷기축제",
    "address": "부산광역시 영도구 해양로301번길 55 (동삼동)",
    "phone": "070-4156-2526",
    "latitude": "35.0772042891",
    "longitude": "129.0819836173",
    "image": "http://tong.visitkorea.or.kr/cms/resource/09/3495409_image2_1.png",
    "category": "기타행사",
    "eventstartdate": "20250614",
    "eventenddate": "20250614"
  },
  {
    "id": "2940823",
    "title": "제3회 강릉국제아트페스티벌 (GIAF25) <에시자, 오시자>",
    "address": "강원특별자치도 강릉시 용지로 176 (교동)",
    "phone": "031-8039-1411",
    "latitude": "37.7640617553",
    "longitude": "128.8996660775",
    "image": "http://tong.visitkorea.or.kr/cms/resource/97/3479497_image2_1.jpg",
    "category": "기타행사",
    "eventstartdate": "20250314",
    "eventenddate": "20250420"
  },
  {
    "id": "3517333",
    "title": "제3회 발달장애인 문화예술페스티벌",
    "address": "경기도 수원시 팔달구 효원로307번길 20 (인계동)",
    "phone": "031-5191-3304",
    "latitude": "37.2614073374",
    "longitude": "127.0359410498",
    "image": "http://tong.visitkorea.or.kr/cms/resource/32/3517332_image2_1.jpeg",
    "category": "기타행사",
    "eventstartdate": "20250910",
    "eventenddate": "20250910"
  },
  {
    "id": "2864606",
    "title": "제4회 호러 홀로그램 페스티벌",
    "address": "전북특별자치도 익산시 성당면 함낭로 207",
    "phone": "010-5149-8272",
    "latitude": "36.0693453645",
    "longitude": "126.9316966194",
    "image": "http://tong.visitkorea.or.kr/cms/resource/35/3521135_image2_1.jpg",
    "category": "기타행사",
    "eventstartdate": "20250918",
    "eventenddate": "20250928"
  },
  {
    "id": "3526695",
    "title": "제6회 푸른하늘의 날 기념행사",
    "address": "서울특별시 중구 을지로 지하12 (을지로1가)",
    "phone": "02-2088-7388",
    "latitude": "37.5655015943",
    "longitude": "126.9787960237",
    "image": "http://tong.visitkorea.or.kr/cms/resource/94/3526694_image2_1.jpg",
    "category": "기타행사",
    "eventstartdate": "20250903",
    "eventenddate": "20250903"
  },
  {
    "id": "3368716",
    "title": "중앙동 한바퀴 시즌3",
    "address": "전북특별자치도 익산시 중앙로3길 27 (창인동1가)",
    "phone": "053-253-0515",
    "latitude": "35.9417741297",
    "longitude": "126.9502371903",
    "image": "http://tong.visitkorea.or.kr/cms/resource/03/3507603_image2_1.jpg",
    "category": "기타행사",
    "eventstartdate": "20250808",
    "eventenddate": "20250816"
  },
  {
    "id": "3382929",
    "title": "지리산둘레길 걷기축제",
    "address": "전라남도 구례군 마산면 화엄사로 377-36",
    "phone": "055-884-0850",
    "latitude": "35.2433959248",
    "longitude": "127.4851217562",
    "image": "http://tong.visitkorea.or.kr/cms/resource/38/3386638_image2_1.jpg",
    "category": "기타행사",
    "eventstartdate": "20241026",
    "eventenddate": "20241026"
  },
  {
    "id": "2816941",
    "title": "지성(知性)애(愛) 빠지다, 부평향교",
    "address": "인천광역시 계양구 향교로 19 부평향교(지정문화재)",
    "phone": "032-450-5753",
    "latitude": "37.5395472304",
    "longitude": "126.7207175131",
    "image": "http://tong.visitkorea.or.kr/cms/resource/36/2816936_image2_1.jpg",
    "category": "기타행사",
    "eventstartdate": "20220513",
    "eventenddate": "20221022"
  },
  {
    "id": "3378217",
    "title": "춘천숲자연휴양림 설렘의 숲 페스타 & 멍냥대첩",
    "address": "강원특별자치도 춘천시 동산면 종자리로 224-104",
    "phone": "010-5550-1828",
    "latitude": "37.7479304633",
    "longitude": "127.7423851550",
    "image": "http://tong.visitkorea.or.kr/cms/resource/99/3538599_image2_1.png",
    "category": "기타행사",
    "eventstartdate": "20250906",
    "eventenddate": "20251018"
  },
  {
    "id": "3115909",
    "title": "코리아뷰티페스티벌",
    "address": "서울특별시 중구 을지로 281 (을지로7가)",
    "phone": "070-7603-3809<br>070-4880-2472",
    "latitude": "37.5661076320",
    "longitude": "127.0095709797",
    "image": "http://tong.visitkorea.or.kr/cms/resource/10/3490610_image2_1.jpg",
    "category": "기타행사",
    "eventstartdate": "20250619",
    "eventenddate": "20250718"
  },
  {
    "id": "3514928",
    "title": "코리안드림 한강대축제",
    "address": "서울특별시 광진구 강변북로 2273 (자양동)",
    "phone": "070-5050-3805",
    "latitude": "37.5294186076",
    "longitude": "127.0739939307",
    "image": "http://tong.visitkorea.or.kr/cms/resource/27/3514927_image2_1.jpg",
    "category": "기타행사",
    "eventstartdate": "20250815",
    "eventenddate": "20250815"
  },
  {
    "id": "3352452",
    "title": "코믹월드 WINTER 2025",
    "address": "경기도 고양시 일산서구 킨텍스로 217-60 (대화동)",
    "phone": "02-6010-9536",
    "latitude": "37.6689881691",
    "longitude": "126.7458171427",
    "image": "http://tong.visitkorea.or.kr/cms/resource/74/3567774_image2_1.png",
    "category": "기타행사",
    "eventstartdate": "20251220",
    "eventenddate": "20251221"
  },
  {
    "id": "3437916",
    "title": "크리스마스 빌리지 부산 2025",
    "address": "부산광역시 해운대구 수영강변대로 120 (우동)",
    "phone": "070-4680-1718",
    "latitude": "35.1710029572",
    "longitude": "129.1270687971",
    "image": "http://tong.visitkorea.or.kr/cms/resource/78/3569778_image2_1.jpg",
    "category": "기타행사",
    "eventstartdate": "20251127",
    "eventenddate": "20251225"
  },
  {
    "id": "3372236",
    "title": "튼튼 펫 페스타",
    "address": "경기도 화성시 동부대로 1063-3 (오산동)",
    "phone": "010-3577-2985",
    "latitude": "37.1992404182",
    "longitude": "127.0855160695",
    "image": "http://tong.visitkorea.or.kr/cms/resource/76/3536376_image2_1.jpg",
    "category": "기타행사",
    "eventstartdate": "20250920",
    "eventenddate": "20250921"
  },
  {
    "id": "2961451",
    "title": "파주슈필 2025",
    "address": "경기도 파주시 얼음실로 40 경기영어마을파주캠프",
    "phone": "031-965-7455",
    "latitude": "37.7852432234",
    "longitude": "126.6985404091",
    "image": "http://tong.visitkorea.or.kr/cms/resource/71/3485871_image2_1.png",
    "category": "기타행사",
    "eventstartdate": "20250510",
    "eventenddate": "20250511"
  },
  {
    "id": "3544591",
    "title": "포켓몬 원더 아일랜드 in JEJU",
    "address": "제주특별자치도 서귀포시 중문관광로 93 (색달동)",
    "phone": "031-272-0108",
    "latitude": "33.2520782258",
    "longitude": "126.4145798438",
    "image": "http://tong.visitkorea.or.kr/cms/resource/89/3544589_image2_1.jpg",
    "category": "기타행사",
    "eventstartdate": "20251002",
    "eventenddate": "20251026"
  },
  {
    "id": "3443073",
    "title": "퓨처그라운드 (FUTUREGROUND)",
    "address": "서울특별시 강서구 하늘길 지하77 (방화동)",
    "phone": "070-8810-2420",
    "latitude": "37.5621960337",
    "longitude": "126.8015844987",
    "image": "http://tong.visitkorea.or.kr/cms/resource/55/3529255_image2_1.jpg",
    "category": "기타행사",
    "eventstartdate": "20250530",
    "eventenddate": "20260228"
  },
  {
    "id": "3523341",
    "title": "프로젝트 유어사이드 in 진주",
    "address": "경상남도 진주시 강남동",
    "phone": "055-795-3246",
    "latitude": "35.1779388961",
    "longitude": "128.0886204093",
    "image": "http://tong.visitkorea.or.kr/cms/resource/40/3523340_image2_1.png",
    "category": "기타행사",
    "eventstartdate": "20250905",
    "eventenddate": "20250907"
  },
  {
    "id": "3355698",
    "title": "한강수계 걷기행사",
    "address": "서울특별시 영등포구 여의동로 330 (여의도동)",
    "phone": "02-458-3315",
    "latitude": "37.5263997727",
    "longitude": "126.9336095794",
    "image": "http://tong.visitkorea.or.kr/cms/resource/25/3524925_image2_1.png",
    "category": "기타행사",
    "eventstartdate": "20250905",
    "eventenddate": "20251107"
  },
  {
    "id": "3116066",
    "title": "한강야경투어",
    "address": "서울특별시 영등포구 여의동로 330 (여의도동)",
    "phone": "02-6953-9239",
    "latitude": "37.5263997727",
    "longitude": "126.9336095794",
    "image": "http://tong.visitkorea.or.kr/cms/resource/93/3488293_image2_1.jpg",
    "category": "기타행사",
    "eventstartdate": "20250425",
    "eventenddate": "20251130"
  },
  {
    "id": "3111722",
    "title": "한강역사탐방",
    "address": "서울특별시 영등포구 여의동로 330 (여의도동)",
    "phone": "02-6953-9239",
    "latitude": "37.5263997727",
    "longitude": "126.9336095794",
    "image": "http://tong.visitkorea.or.kr/cms/resource/85/3488085_image2_1.png",
    "category": "기타행사",
    "eventstartdate": "20250404",
    "eventenddate": "20251130"
  },
  {
    "id": "2740046",
    "title": "한복문화주간",
    "address": "서울특별시 종로구 종로1길 45 (세종로)",
    "phone": "02-398-1625",
    "latitude": "37.5746727436",
    "longitude": "126.9783985779",
    "image": "http://tong.visitkorea.or.kr/cms/resource/99/3547199_image2_1.jpg",
    "category": "기타행사",
    "eventstartdate": "20251021",
    "eventenddate": "20251026"
  },
  {
    "id": "3494826",
    "title": "한중일 음식문화축제",
    "address": "경기도 안성시 보개면 남사당로 198",
    "phone": "031-673-9966",
    "latitude": "37.0336857086",
    "longitude": "127.3054285825",
    "image": "http://tong.visitkorea.or.kr/cms/resource/14/3494814_image2_1.jpg",
    "category": "기타행사",
    "eventstartdate": "20250607",
    "eventenddate": "20250609"
  },
  {
    "id": "1916715",
    "title": "합천 호러 축제 고스트파크",
    "address": "경상남도 합천군 용주면 합천호수로 757",
    "phone": "055-931-9303",
    "latitude": "35.5484940723",
    "longitude": "128.0730785888",
    "image": "http://tong.visitkorea.or.kr/cms/resource/92/3507592_image2_1.jpg",
    "category": "기타행사",
    "eventstartdate": "20250801",
    "eventenddate": "20250817"
  },
  {
    "id": "3301223",
    "title": "행복 나눔 음악회 ‘문화로운 화원’",
    "address": "대구광역시 달성군 화원읍 인흥길 13",
    "phone": "053-668-4253",
    "latitude": "35.8022230717",
    "longitude": "128.4972037634",
    "image": "http://tong.visitkorea.or.kr/cms/resource/22/3301222_image2_1.jpg",
    "category": "기타행사",
    "eventstartdate": "20240519",
    "eventenddate": "20240519"
  },
  {
    "id": "3304387",
    "title": "1883 상상플랫폼 야시장",
    "address": "인천광역시 중구 월미로 33 (북성동1가)",
    "phone": "070-8893-2437",
    "latitude": "37.4761360618",
    "longitude": "126.6146650689",
    "image": "http://tong.visitkorea.or.kr/cms/resource/18/3494718_image2_1.jpg",
    "category": "기타행사",
    "eventstartdate": "20250620",
    "eventenddate": "20250629"
  },
  {
    "id": "2479634",
    "title": "2023 제20회 대한민국향토식문화대전(&남북음식문화축제)",
    "address": "서울특별시 서초구 강남대로 27 AT센터",
    "phone": "남용진(02-577-1138, 010-2750-4432)",
    "latitude": "37.4673918780",
    "longitude": "127.0407514903",
    "image": "http://tong.visitkorea.or.kr/cms/resource/98/2997698_image2_1.jpg",
    "category": "기타행사",
    "eventstartdate": "20241026",
    "eventenddate": "20241027"
  },
  {
    "id": "2953314",
    "title": "2024 부활절 퍼레이드",
    "address": "서울특별시 종로구 세종대로 175",
    "phone": "02-6333-1127",
    "latitude": "37.5720618985",
    "longitude": "126.9763210635",
    "image": "http://tong.visitkorea.or.kr/cms/resource/71/3109971_image2_1.png",
    "category": "기타행사",
    "eventstartdate": "20240330",
    "eventenddate": "20240330"
  },
  {
    "id": "3396771",
    "title": "2024 울산에이팜(Ulsan APaMM)",
    "address": "울산광역시 울주군 삼남읍 울산역로 255",
    "phone": "052-255-1945",
    "latitude": "35.5556598644",
    "longitude": "129.1316827314",
    "image": "http://tong.visitkorea.or.kr/cms/resource/01/3398901_image2_1.jpg",
    "category": "기타행사",
    "eventstartdate": "20241122",
    "eventenddate": "20241124"
  },
  {
    "id": "2446530",
    "title": "2024 웅진성 수문병 근무 교대식",
    "address": "충청남도 공주시 금성동",
    "phone": "041-840-8069 / 041-840-3800",
    "latitude": "36.4632481267",
    "longitude": "127.1261159474",
    "image": "http://tong.visitkorea.or.kr/cms/resource/85/3109985_image2_1.jpg",
    "category": "기타행사",
    "eventstartdate": "20240401",
    "eventenddate": "20241130"
  },
  {
    "id": "3353948",
    "title": "2024 전주 조선팝 상설공연",
    "address": "전북특별자치도 전주시 덕진구 세병로 177-44 (송천동2가)",
    "phone": "063-228-2218",
    "latitude": "35.8785871929",
    "longitude": "127.1285812756",
    "image": "http://tong.visitkorea.or.kr/cms/resource/57/3353857_image2_1.png",
    "category": "기타행사",
    "eventstartdate": "20240830",
    "eventenddate": "20240929"
  },
  {
    "id": "3386733",
    "title": "2024 진주 세계민속예술 비엔날레",
    "address": "경상남도 진주시 강남동",
    "phone": "055-920-0510 (오전 10시~오후5시)",
    "latitude": "35.1778389107",
    "longitude": "128.0888203942",
    "image": "http://tong.visitkorea.or.kr/cms/resource/20/3386720_image2_1.jpg",
    "category": "기타행사",
    "eventstartdate": "20241017",
    "eventenddate": "20241020"
  },
  {
    "id": "3372317",
    "title": "2024 창작 실경뮤지컬 화적연",
    "address": "경기도 포천시 관인면 사정리",
    "phone": "031-535-5122",
    "latitude": "38.1163564327",
    "longitude": "127.2618181409",
    "image": "http://tong.visitkorea.or.kr/cms/resource/40/3372240_image2_1.jpg",
    "category": "기타행사",
    "eventstartdate": "20240929",
    "eventenddate": "20240929"
  },
  {
    "id": "3378168",
    "title": "2024 청와대 뮤직 페스티벌",
    "address": "서울특별시 종로구 청와대로 1 (세종로)",
    "phone": "02-2088-4269",
    "latitude": "37.5839799278",
    "longitude": "126.9746792089",
    "image": "http://tong.visitkorea.or.kr/cms/resource/67/3378167_image2_1.jpg",
    "category": "기타행사",
    "eventstartdate": "20241005",
    "eventenddate": "20241027"
  },
  {
    "id": "2966405",
    "title": "2025 APP WORLD TOUR SEOUL SUP OPEN",
    "address": "서울특별시 송파구 한가람로 65 (잠실동)",
    "phone": "02-6677-1599",
    "latitude": "37.5176813118",
    "longitude": "127.0867514361",
    "image": "http://tong.visitkorea.or.kr/cms/resource/36/3499836_image2_1.png",
    "category": "기타행사",
    "eventstartdate": "20250705",
    "eventenddate": "20250706"
  },
  {
    "id": "2953360",
    "title": "2025 LOTTE WORLD TOWER SKY RUN with SPYDER",
    "address": "서울특별시 송파구 올림픽로 300 (신천동)",
    "phone": "02-3496-7805",
    "latitude": "37.5141653654",
    "longitude": "127.1040749597",
    "image": "http://tong.visitkorea.or.kr/cms/resource/65/3480465_image2_1.jpg",
    "category": "기타행사",
    "eventstartdate": "20250420",
    "eventenddate": "20250420"
  },
  {
    "id": "3491153",
    "title": "2025 강남 디자인 위크 G-KFOOD",
    "address": "서울특별시 강남구 가로수길 79 (신사동)",
    "phone": "070-8985-7567",
    "latitude": "37.5233156108",
    "longitude": "127.0223654709",
    "image": "http://tong.visitkorea.or.kr/cms/resource/47/3491147_image2_1.png",
    "category": "기타행사",
    "eventstartdate": "20250524",
    "eventenddate": "20250525"
  },
  {
    "id": "2544610",
    "title": "2025 경기전 왕과의 산책",
    "address": "전북특별자치도 전주시 완산구 태조로 44 (풍남동3가)",
    "phone": "063-232-9938",
    "latitude": "35.8142143363",
    "longitude": "127.1500366062",
    "image": "http://tong.visitkorea.or.kr/cms/resource/10/3495210_image2_1.jpg",
    "category": "기타행사",
    "eventstartdate": "20250614",
    "eventenddate": "20251115"
  },
  {
    "id": "2622167",
    "title": "2025 경북사과홍보행사",
    "address": "서울특별시 중구 을지로 지하12 (을지로1가)",
    "phone": "대경사과원예농협 053-740-3033<br>경상북도 친환경농업과 054-880-3372",
    "latitude": "37.5655015943",
    "longitude": "126.9787960237",
    "image": "http://tong.visitkorea.or.kr/cms/resource/59/3550559_image2_1.jpg",
    "category": "기타행사",
    "eventstartdate": "20251110",
    "eventenddate": "20251112"
  },
  {
    "id": "2987489",
    "title": "2025 고흥 녹동항 드론쇼",
    "address": "전라남도 고흥군 도양읍 봉암리",
    "phone": "061-830-5902",
    "latitude": "34.5256344743",
    "longitude": "127.1341150954",
    "image": "http://tong.visitkorea.or.kr/cms/resource/86/3485586_image2_1.jpg",
    "category": "기타행사",
    "eventstartdate": "20250412",
    "eventenddate": "20251025"
  },
  {
    "id": "3113022",
    "title": "2025 공예주간",
    "address": "서울특별시 종로구 율곡로 53 (안국동)",
    "phone": "- 고성 033-681-0112<BR>-  전주 063-281-1613<BR>- 부안 070-8826-9675",
    "latitude": "37.5766531897",
    "longitude": "126.9851423515",
    "image": "http://tong.visitkorea.or.kr/cms/resource/10/3489510_image2_1.png",
    "category": "기타행사",
    "eventstartdate": "20250516",
    "eventenddate": "20250525"
  },
  {
    "id": "2802077",
    "title": "2025 과학영재교육 페스티벌",
    "address": "서울특별시 강남구 테헤란로7길 22 (역삼동)",
    "phone": "070-8803-6226",
    "latitude": "37.5007739351",
    "longitude": "127.0307542337",
    "image": "http://tong.visitkorea.or.kr/cms/resource/28/3572728_image2_1.jpg",
    "category": "기타행사",
    "eventstartdate": "20251223",
    "eventenddate": "20251223"
  },
  {
    "id": "3340207",
    "title": "2025 교촌버스킹",
    "address": "경상북도 경주시 교촌안길 31 (교동)",
    "phone": "054-777-6781",
    "latitude": "35.8300277808",
    "longitude": "129.2176480199",
    "image": "http://tong.visitkorea.or.kr/cms/resource/48/3524048_image2_1.jpg",
    "category": "기타행사",
    "eventstartdate": "20250822",
    "eventenddate": "20250831"
  },
  {
    "id": "2993903",
    "title": "2025 국립세종수목원 야간개장 '우리함께夜'",
    "address": "세종특별자치시 수목원로 136 (세종동)",
    "phone": "044-251-0001",
    "latitude": "36.4986579981",
    "longitude": "127.2857090051",
    "image": "http://tong.visitkorea.or.kr/cms/resource/68/3490868_image2_1.jpg",
    "category": "기타행사",
    "eventstartdate": "20250517",
    "eventenddate": "20251011"
  },
  {
    "id": "3485965",
    "title": "2025 국제 팝페라&재즈 축제",
    "address": "서울특별시 송파구 송파나루길 206 (신천동)",
    "phone": "010-9986-9985",
    "latitude": "37.5119517366",
    "longitude": "127.1042611168",
    "image": "http://tong.visitkorea.or.kr/cms/resource/64/3485964_image2_1.jpg",
    "category": "기타행사",
    "eventstartdate": "20250417",
    "eventenddate": "20250417"
  },
  {
    "id": "3340922",
    "title": "2025 꼼순락(꼬마들의 순창 오락실)",
    "address": "전북특별자치도 순창군 순창읍 장류로 55",
    "phone": "콘텐츠전략팀 063-653-1827",
    "latitude": "35.3687947722",
    "longitude": "127.1123375755",
    "image": "http://tong.visitkorea.or.kr/cms/resource/38/3513638_image2_1.jpg",
    "category": "기타행사",
    "eventstartdate": "20250823",
    "eventenddate": "20250823"
  },
  {
    "id": "3498395",
    "title": "2025 나이트레이스 인 부산",
    "address": "부산광역시 수영구 광안해변로 219 (광안동)",
    "phone": "051-850-9347",
    "latitude": "35.1538130576",
    "longitude": "129.1185477876",
    "image": "http://tong.visitkorea.or.kr/cms/resource/94/3498394_image2_1.png",
    "category": "기타행사",
    "eventstartdate": "20250802",
    "eventenddate": "20250802"
  },
  {
    "id": "3358179",
    "title": "2025 당진 삽교호 드론 라이트 쇼",
    "address": "충청남도 당진시 신평면 삽교천3길 57",
    "phone": "041-350-3873",
    "latitude": "36.8918768265",
    "longitude": "126.8226205628",
    "image": "http://tong.visitkorea.or.kr/cms/resource/54/3526654_image2_1.png",
    "category": "기타행사",
    "eventstartdate": "20250419",
    "eventenddate": "20251101"
  },
  {
    "id": "3553823",
    "title": "2025 대전 소통공감행사 \"청끌夜\"",
    "address": "대전광역시 중구 대종로 373 (부사동)",
    "phone": "042-368-8832",
    "latitude": "36.3185923049",
    "longitude": "127.4310258892",
    "image": "http://tong.visitkorea.or.kr/cms/resource/22/3553822_image2_1.png",
    "category": "기타행사",
    "eventstartdate": "20251031",
    "eventenddate": "20251116"
  },
  {
    "id": "3532372",
    "title": "2025 대전 중구 북페스티벌",
    "address": "대전광역시 중구 중앙로138번길 30 (대흥동)",
    "phone": "042-606-6492",
    "latitude": "36.3268773627",
    "longitude": "127.4250317551",
    "image": "http://tong.visitkorea.or.kr/cms/resource/71/3532371_image2_1.png",
    "category": "기타행사",
    "eventstartdate": "20250906",
    "eventenddate": "20250921"
  },
  {
    "id": "3554794",
    "title": "2025 대한민국 김장대축제",
    "address": "서울특별시 서초구 강남대로 27 (양재동)",
    "phone": "031-8027-0480",
    "latitude": "37.4673918780",
    "longitude": "127.0407514903",
    "image": "http://tong.visitkorea.or.kr/cms/resource/85/3562885_image2_1.jpg",
    "category": "기타행사",
    "eventstartdate": "20251122",
    "eventenddate": "20251122"
  },
  {
    "id": "2563502",
    "title": "2025 대한민국 미술축제",
    "address": "서울특별시 종로구 대학로 57 (연건동)",
    "phone": "070-7575-0980",
    "latitude": "37.5766118212",
    "longitude": "127.0014686424",
    "image": "http://tong.visitkorea.or.kr/cms/resource/36/3499036_image2_1.jpg",
    "category": "기타행사",
    "eventstartdate": "20250901",
    "eventenddate": "20250930"
  },
  {
    "id": "3486315",
    "title": "2025 대한민국 임시정부기념관 토크콘서트",
    "address": "서울특별시 서대문구 통일로 279-24 (현저동)",
    "phone": "02-458-3315",
    "latitude": "37.5760388201",
    "longitude": "126.9543757290",
    "image": "http://tong.visitkorea.or.kr/cms/resource/14/3486314_image2_1.jpg",
    "category": "기타행사",
    "eventstartdate": "20250413",
    "eventenddate": "20251115"
  },
  {
    "id": "3390190",
    "title": "2025 동작 미래과학페스티벌 X 제3회 동작 청소년의 날 축제",
    "address": "서울특별시 동작구 노들로 688 (노량진동)",
    "phone": "02-845-0924",
    "latitude": "37.5154094998",
    "longitude": "126.9401731800",
    "image": "http://tong.visitkorea.or.kr/cms/resource/75/3490875_image2_1.png",
    "category": "기타행사",
    "eventstartdate": "20250607",
    "eventenddate": "20250607"
  },
  {
    "id": "3373104",
    "title": "2025 두근두근 별길마켓",
    "address": "서울특별시 성북구 삼양로 41 (길음동, 한우리타운)",
    "phone": "010-3922-2021",
    "latitude": "37.6068170413",
    "longitude": "127.0235991006",
    "image": "http://tong.visitkorea.or.kr/cms/resource/41/3546641_image2_1.png",
    "category": "기타행사",
    "eventstartdate": "20251025",
    "eventenddate": "20251025"
  },
  {
    "id": "3069470",
    "title": "2025 로맨틱 한강 크리스마스 마켓",
    "address": "서울특별시 광진구 강변북로 2202 (자양동)",
    "phone": "070-5149-5313",
    "latitude": "37.5304044529",
    "longitude": "127.0655391172",
    "image": "http://tong.visitkorea.or.kr/cms/resource/34/3578234_image2_1.jpg",
    "category": "기타행사",
    "eventstartdate": "20251219",
    "eventenddate": "20251225"
  },
  {
    "id": "2774275",
    "title": "2025 목포해상W쇼",
    "address": "전라남도 목포시 평화로 82 (상동)",
    "phone": "061-270-8431",
    "latitude": "34.7967007465",
    "longitude": "126.4338006577",
    "image": "http://tong.visitkorea.or.kr/cms/resource/32/3486332_image2_1.jpg",
    "category": "기타행사",
    "eventstartdate": "20250426",
    "eventenddate": "20251003"
  },
  {
    "id": "3558030",
    "title": "2025 문화가 있는 날 청춘마이크 10년 기념행사",
    "address": "서울특별시 성동구 성수이로20길 57 (성수동2가)",
    "phone": "070-7841-7694",
    "latitude": "37.5419613969",
    "longitude": "127.0629445810",
    "image": "http://tong.visitkorea.or.kr/cms/resource/29/3558029_image2_1.jpg",
    "category": "기타행사",
    "eventstartdate": "20251031",
    "eventenddate": "20251101"
  },
  {
    "id": "3495437",
    "title": "2025 문화가 있는날 구석구석 문화배달",
    "address": "제주특별자치도 서귀포시 서호중로 31-22 (서호동)",
    "phone": "010-2672-9215",
    "latitude": "33.2564571340",
    "longitude": "126.5167986596",
    "image": "http://tong.visitkorea.or.kr/cms/resource/33/3495433_image2_1.png",
    "category": "기타행사",
    "eventstartdate": "20250430",
    "eventenddate": "20251102"
  },
  {
    "id": "2598331",
    "title": "2025 문화가 흐르는 서울광장",
    "address": "서울특별시 중구 을지로 지하12 (을지로1가)",
    "phone": "070-5080-0646",
    "latitude": "37.5655015943",
    "longitude": "126.9787960237",
    "image": "http://tong.visitkorea.or.kr/cms/resource/02/3484702_image2_1.jpg",
    "category": "기타행사",
    "eventstartdate": "20250507",
    "eventenddate": "20251130"
  },
  {
    "id": "3524290",
    "title": "2025 문화공간 어디쉐어 <공주 하숙동 1번지> 시즌2",
    "address": "충청남도 공주시 당간지주길 21 (반죽동)",
    "phone": "041-852-1321",
    "latitude": "36.4522271167",
    "longitude": "127.1231998391",
    "image": "http://tong.visitkorea.or.kr/cms/resource/79/3524279_image2_1.png",
    "category": "기타행사",
    "eventstartdate": "20250919",
    "eventenddate": "20250920"
  },
  {
    "id": "3356047",
    "title": "2025 별바다부산 나이트마켓",
    "address": "부산광역시 북구 생태공원길 270 (화명동)",
    "phone": "051-710-6948",
    "latitude": "35.2397152762",
    "longitude": "129.0078550672",
    "image": "http://tong.visitkorea.or.kr/cms/resource/89/3524089_image2_1.png",
    "category": "기타행사",
    "eventstartdate": "20250918",
    "eventenddate": "20251019"
  },
  {
    "id": "2991394",
    "title": "2025 부산나이트워크42K With 디섹·토레타!",
    "address": "부산광역시 해운대구 수영강변대로 85 (우동)",
    "phone": "070-4705-2008",
    "latitude": "35.1679477491",
    "longitude": "129.1273438565",
    "image": "http://tong.visitkorea.or.kr/cms/resource/96/3496696_image2_1.png",
    "category": "기타행사",
    "eventstartdate": "20250823",
    "eventenddate": "20250824"
  },
  {
    "id": "3497353",
    "title": "2025 부산바다도서관",
    "address": "부산광역시 사하구 몰운대1길 14 (다대동)",
    "phone": "051-745-7284",
    "latitude": "35.0463945293",
    "longitude": "128.9680471374",
    "image": "http://tong.visitkorea.or.kr/cms/resource/57/3539557_image2_1.jpg",
    "category": "기타행사",
    "eventstartdate": "20250920",
    "eventenddate": "20251019"
  },
  {
    "id": "3528964",
    "title": "2025 부산세일페스타 부대앞으로",
    "address": "부산광역시 금정구 장전로12번길 55 (장전동)",
    "phone": "051-714-1497",
    "latitude": "35.2301428332",
    "longitude": "129.0881150065",
    "image": "http://tong.visitkorea.or.kr/cms/resource/62/3528962_image2_1.png",
    "category": "기타행사",
    "eventstartdate": "20250904",
    "eventenddate": "20250906"
  },
  {
    "id": "2952484",
    "title": "2025 빵빵데이 천안",
    "address": "충청남도 천안시 서북구 번영로 208 (백석동)",
    "phone": "041-521-5434",
    "latitude": "36.8194930438",
    "longitude": "127.1114686823",
    "image": "http://tong.visitkorea.or.kr/cms/resource/63/3547163_image2_1.png",
    "category": "기타행사",
    "eventstartdate": "20251018",
    "eventenddate": "20251019"
  },
  {
    "id": "3567075",
    "title": "2025 상상플랫폼 술술페스타",
    "address": "인천광역시 중구 월미로 33 (북성동1가)",
    "phone": "1544-7056",
    "latitude": "37.4761360618",
    "longitude": "126.6146650689",
    "image": "http://tong.visitkorea.or.kr/cms/resource/73/3567073_image2_1.png",
    "category": "기타행사",
    "eventstartdate": "20251122",
    "eventenddate": "20251123"
  },
  {
    "id": "3524130",
    "title": "2025 서부산 슈퍼어싱 페스티벌",
    "address": "부산광역시 사하구 몰운대1길 14 (다대동)",
    "phone": "070-4129-1082",
    "latitude": "35.0463945293",
    "longitude": "128.9680471374",
    "image": "http://tong.visitkorea.or.kr/cms/resource/23/3524123_image2_1.jpg",
    "category": "기타행사",
    "eventstartdate": "20250906",
    "eventenddate": "20250907"
  },
  {
    "id": "3506466",
    "title": "2025 서울 파크골프 대축제",
    "address": "서울특별시 중구 을지로 지하12 (을지로1가)",
    "phone": "02-6747-7511",
    "latitude": "37.5655015943",
    "longitude": "126.9787960237",
    "image": "http://tong.visitkorea.or.kr/cms/resource/65/3506465_image2_1.png",
    "category": "기타행사",
    "eventstartdate": "20250916",
    "eventenddate": "20250917"
  },
  {
    "id": "2832761",
    "title": "2025 서울뷰티위크",
    "address": "서울특별시 중구 을지로 281 (을지로7가)",
    "phone": "02-550-2645",
    "latitude": "37.5661076320",
    "longitude": "127.0095709797",
    "image": "http://tong.visitkorea.or.kr/cms/resource/70/3486770_image2_1.jpg",
    "category": "기타행사",
    "eventstartdate": "20250828",
    "eventenddate": "20250830"
  },
  {
    "id": "3491755",
    "title": "2025 서울식품유통대전(K푸드쇼)",
    "address": "서울특별시 중구 을지로 지하12 (을지로1가)",
    "phone": "02-6965-0055",
    "latitude": "37.5655015943",
    "longitude": "126.9787960237",
    "image": "http://tong.visitkorea.or.kr/cms/resource/68/3491768_image2_1.jpg",
    "category": "기타행사",
    "eventstartdate": "20250528",
    "eventenddate": "20250529"
  },
  {
    "id": "3546110",
    "title": "2025 서울한옥위크",
    "address": "서울특별시 종로구 계동길 37 (계동)",
    "phone": "02-2133-5580",
    "latitude": "37.5790529392",
    "longitude": "126.9867060298",
    "image": "http://tong.visitkorea.or.kr/cms/resource/09/3546109_image2_1.jpg",
    "category": "기타행사",
    "eventstartdate": "20250926",
    "eventenddate": "20251005"
  },
  {
    "id": "3489522",
    "title": "2025 성안올레 걷기 축제",
    "address": "제주특별자치도 제주시 사라봉길 75 (건입동)",
    "phone": "064-728-2752",
    "latitude": "33.5160372422",
    "longitude": "126.5462013564",
    "image": "http://tong.visitkorea.or.kr/cms/resource/16/3489516_image2_1.jpg",
    "category": "기타행사",
    "eventstartdate": "20250510",
    "eventenddate": "20250510"
  },
  {
    "id": "2953055",
    "title": "2025 세계 책의 날 : 책 한장 할래요?",
    "address": "서울특별시 종로구 세종대로 198 (세종로)",
    "phone": "070-4848-3619",
    "latitude": "37.5741339024",
    "longitude": "126.9775736680",
    "image": "http://tong.visitkorea.or.kr/cms/resource/81/3489881_image2_1.jpg",
    "category": "기타행사",
    "eventstartdate": "20250420",
    "eventenddate": "20250423"
  },
  {
    "id": "2849025",
    "title": "2025 세계유산 남한산성 활용프로그램",
    "address": "경기도 광주시 남한산성면 산성리",
    "phone": "02-737-6444",
    "latitude": "37.4801512546",
    "longitude": "127.1809161601",
    "image": "http://tong.visitkorea.or.kr/cms/resource/30/3495530_image2_1.jpg",
    "category": "기타행사",
    "eventstartdate": "20250425",
    "eventenddate": "20250622"
  },
  {
    "id": "2446505",
    "title": "2025 신관사또부임행차",
    "address": "전북특별자치도 남원시 요천로 1447 (천거동)",
    "phone": "063-633-5353",
    "latitude": "35.4021539472",
    "longitude": "127.3799713796",
    "image": "http://tong.visitkorea.or.kr/cms/resource/01/3484901_image2_1.png",
    "category": "기타행사",
    "eventstartdate": "20250412",
    "eventenddate": "20251025"
  },
  {
    "id": "3399435",
    "title": "2025 안성맞춤 상설공연 “톡톡달콤 페스티벌”",
    "address": "경기도 안성시 죽산면 용설호수길 101",
    "phone": "031-677-2554",
    "latitude": "37.0564357215",
    "longitude": "127.4516758566",
    "image": "http://tong.visitkorea.or.kr/cms/resource/01/3558601_image2_1.jpg",
    "category": "기타행사",
    "eventstartdate": "20251101",
    "eventenddate": "20251101"
  },
  {
    "id": "3487783",
    "title": "2025 안성맞춤 시詩 축제-시종일간",
    "address": "경기도 안성시 보개면 남사당로 198",
    "phone": "031-678-2466",
    "latitude": "37.0336857086",
    "longitude": "127.3054285825",
    "image": "http://tong.visitkorea.or.kr/cms/resource/82/3487782_image2_1.jpg",
    "category": "기타행사",
    "eventstartdate": "20250426",
    "eventenddate": "20250426"
  },
  {
    "id": "3345603",
    "title": "2025 양주관아지에서 만나는 특별한 주말",
    "address": "경기도 양주시 부흥로1399번길 15 (유양동)",
    "phone": "031-8082-5676",
    "latitude": "37.7851075100",
    "longitude": "127.0295156915",
    "image": "http://tong.visitkorea.or.kr/cms/resource/99/3546299_image2_1.jpg",
    "category": "기타행사",
    "eventstartdate": "20251001",
    "eventenddate": "20251031"
  },
  {
    "id": "3551000",
    "title": "2025 에듀의왕! 어울림축제",
    "address": "경기도 의왕시 왕송못동로 307 (월암동)",
    "phone": "031-345-3440",
    "latitude": "37.3056701893",
    "longitude": "126.9537833824",
    "image": "http://tong.visitkorea.or.kr/cms/resource/99/3550999_image2_1.jpg",
    "category": "기타행사",
    "eventstartdate": "20251025",
    "eventenddate": "20251025"
  },
  {
    "id": "3465512",
    "title": "2025 영동세계국악엑스포(2025 Yeongdong World Traditional Music & Arts Expo)",
    "address": "충청북도 영동군 영동읍 영동힐링로 117",
    "phone": "043-740-7417, 7456",
    "latitude": "36.1563977278",
    "longitude": "127.7865319410",
    "image": "http://tong.visitkorea.or.kr/cms/resource/37/3486037_image2_1.jpg",
    "category": "기타행사",
    "eventstartdate": "20250912",
    "eventenddate": "20251011"
  },
  {
    "id": "3113680",
    "title": "2025 용인야간마실 봄빛마실",
    "address": "경기도 용인시 기흥구 중부대로 지하460 (구갈동)",
    "phone": "010-5535-6941",
    "latitude": "37.2754099253",
    "longitude": "127.1159222912",
    "image": "http://tong.visitkorea.or.kr/cms/resource/35/3491835_image2_1.jpg",
    "category": "기타행사",
    "eventstartdate": "20250523",
    "eventenddate": "20250525"
  },
  {
    "id": "3541205",
    "title": "2025 우리아이 우리미래 함께해 행복해",
    "address": "서울특별시 영등포구 여의공원로 13 (여의도동)",
    "phone": "02-567-9623",
    "latitude": "37.5260245143",
    "longitude": "126.9167333499",
    "image": "http://tong.visitkorea.or.kr/cms/resource/03/3541203_image2_1.png",
    "category": "기타행사",
    "eventstartdate": "20250927",
    "eventenddate": "20250927"
  },
  {
    "id": "2952817",
    "title": "2025 울산자전거대축전",
    "address": "울산광역시 남구 신정동",
    "phone": "052-248-8836",
    "latitude": "35.5504415288",
    "longitude": "129.3076286251",
    "image": "http://tong.visitkorea.or.kr/cms/resource/37/3484837_image2_1.jpg",
    "category": "기타행사",
    "eventstartdate": "20250419",
    "eventenddate": "20250419"
  },
  {
    "id": "2915307",
    "title": "2025 유성온천 크리스마스 축제",
    "address": "대전광역시 유성구 어은로 27 (봉명동)",
    "phone": "042-611-2080",
    "latitude": "36.3607306283",
    "longitude": "127.3577063021",
    "image": "http://tong.visitkorea.or.kr/cms/resource/43/3574143_image2_1.jpg",
    "category": "기타행사",
    "eventstartdate": "20251205",
    "eventenddate": "20251207"
  },
  {
    "id": "3483210",
    "title": "2025 은파 벚꽃야시장",
    "address": "전북특별자치도 군산시 은파순환길 9 (나운동)",
    "phone": "070-4422-2445",
    "latitude": "35.9553819831",
    "longitude": "126.6890296177",
    "image": "http://tong.visitkorea.or.kr/cms/resource/09/3483209_image2_1.png",
    "category": "기타행사",
    "eventstartdate": "20250328",
    "eventenddate": "20250413"
  },
  {
    "id": "3019085",
    "title": "2025 이천펫축제",
    "address": "경기도 이천시 신둔면 도자예술로62번길 123",
    "phone": "031-645-3683",
    "latitude": "37.2913267465",
    "longitude": "127.3806506302",
    "image": "http://tong.visitkorea.or.kr/cms/resource/87/3521787_image2_1.jpg",
    "category": "기타행사",
    "eventstartdate": "20250913",
    "eventenddate": "20250914"
  },
  {
    "id": "3315407",
    "title": "2025 인천 로컬 페스타(제4회 제물포 웨이브 마켓)",
    "address": "인천광역시 중구 월미로 33 (북성동1가)",
    "phone": "010-2258-9475",
    "latitude": "37.4761360618",
    "longitude": "126.6146650689",
    "image": "http://tong.visitkorea.or.kr/cms/resource/19/3547219_image2_1.jpg",
    "category": "기타행사",
    "eventstartdate": "20251108",
    "eventenddate": "20251109"
  },
  {
    "id": "3550990",
    "title": "2025 인천원도사제&낙섬축제",
    "address": "인천광역시 미추홀구 매소홀로 120 (용현동)",
    "phone": "032-866-3994",
    "latitude": "37.4466232140",
    "longitude": "126.6367583164",
    "image": "http://tong.visitkorea.or.kr/cms/resource/89/3550989_image2_1.jpg",
    "category": "기타행사",
    "eventstartdate": "20251025",
    "eventenddate": "20251025"
  },
  {
    "id": "3486682",
    "title": "2025 자살예방 캠페인 함께고워크",
    "address": "경기도 수원시 영통구 광교호수공원로 102 (하동)",
    "phone": "070-4366-1221",
    "latitude": "37.2751312466",
    "longitude": "127.0638186917",
    "image": "http://tong.visitkorea.or.kr/cms/resource/81/3486681_image2_1.png",
    "category": "기타행사",
    "eventstartdate": "20250524",
    "eventenddate": "20250524"
  },
  {
    "id": "3485864",
    "title": "2025 작가미술장터 ONE PICK MARKET",
    "address": "세종특별자치시 조치원읍 수원지길 75-21",
    "phone": "02-812-1762",
    "latitude": "19.6944274800",
    "longitude": "117.9925662504",
    "image": "http://tong.visitkorea.or.kr/cms/resource/43/3485843_image2_1.jpg",
    "category": "기타행사",
    "eventstartdate": "20250514",
    "eventenddate": "20250518"
  },
  {
    "id": "3522298",
    "title": "2025 전주드론축구월드컵",
    "address": "전북특별자치도 전주시 덕진구 기린대로 1055 (반월동)",
    "phone": "063-281-8748",
    "latitude": "35.8676429285",
    "longitude": "127.0670592641",
    "image": "http://tong.visitkorea.or.kr/cms/resource/80/3536480_image2_1.jpg",
    "category": "기타행사",
    "eventstartdate": "20250925",
    "eventenddate": "20250928"
  },
  {
    "id": "2554814",
    "title": "2025 정조대왕 능행차 공동재현",
    "address": "서울특별시 종로구 사직로 161 (세종로)",
    "phone": "서울 02-786-0610<br>수원 031-5191-2367<br>화성 070-4202-1017",
    "latitude": "37.5760836609",
    "longitude": "126.9767375783",
    "image": "http://tong.visitkorea.or.kr/cms/resource/81/3521281_image2_1.jpg",
    "category": "기타행사",
    "eventstartdate": "20250928",
    "eventenddate": "20250928"
  },
  {
    "id": "3540355",
    "title": "2025 제14회 강남구 아름다운 건축물 전시회",
    "address": "서울특별시 강남구 영동대로 513 (삼성동)",
    "phone": "070-4580-7436",
    "latitude": "37.5119175967",
    "longitude": "127.0592179950",
    "image": "http://tong.visitkorea.or.kr/cms/resource/47/3540747_image2_1.png",
    "category": "기타행사",
    "eventstartdate": "20250922",
    "eventenddate": "20250928"
  },
  {
    "id": "3528062",
    "title": "2025 제17회 서울건축문화제",
    "address": "서울특별시 종로구 계동길 37 (계동)",
    "phone": "070-4580-7436",
    "latitude": "37.5790529392",
    "longitude": "126.9867060298",
    "image": "http://tong.visitkorea.or.kr/cms/resource/60/3528060_image2_1.png",
    "category": "기타행사",
    "eventstartdate": "20250909",
    "eventenddate": "20250921"
  },
  {
    "id": "2997830",
    "title": "2025 제주 반려동물 문화산업 한마당",
    "address": "제주특별자치도 제주시 연삼로 286 (도남동)",
    "phone": "064-711-1002",
    "latitude": "33.4918756720",
    "longitude": "126.5238621803",
    "image": "http://tong.visitkorea.or.kr/cms/resource/39/3524439_image2_1.jpg",
    "category": "기타행사",
    "eventstartdate": "20250912",
    "eventenddate": "20250914"
  },
  {
    "id": "2728613",
    "title": "2025 제주라프 귀몽",
    "address": "제주특별자치도 제주시 조천읍 선교로 115-1",
    "phone": "064-784-9030",
    "latitude": "33.4867986059",
    "longitude": "126.7069047313",
    "image": "http://tong.visitkorea.or.kr/cms/resource/00/3556500_image2_1.jpg",
    "category": "기타행사",
    "eventstartdate": "20250725",
    "eventenddate": "20251102"
  },
  {
    "id": "3485962",
    "title": "2025 지구시민런",
    "address": "서울특별시 마포구 월드컵로 251 (성산동)",
    "phone": "041-567-6242",
    "latitude": "37.5659583996",
    "longitude": "126.8964785141",
    "image": "http://tong.visitkorea.or.kr/cms/resource/61/3485961_image2_1.png",
    "category": "기타행사",
    "eventstartdate": "20250420",
    "eventenddate": "20250420"
  },
  {
    "id": "3037482",
    "title": "2025 진주전통공예비엔날레",
    "address": "경상남도 진주시 진주대로879번길 18 (강남동)",
    "phone": "055-749-8707",
    "latitude": "35.1785527282",
    "longitude": "128.0892925564",
    "image": "http://tong.visitkorea.or.kr/cms/resource/60/3548860_image2_1.png",
    "category": "기타행사",
    "eventstartdate": "20251001",
    "eventenddate": "20251116"
  },
  {
    "id": "3520774",
    "title": "2025 청년문화주간 <청년문화사용법: 네 개의 방>",
    "address": "서울특별시 성동구 연무장길 98 (성수동2가)",
    "phone": "070-7575-2353",
    "latitude": "37.5409670142",
    "longitude": "127.0599532148",
    "image": "http://tong.visitkorea.or.kr/cms/resource/73/3520773_image2_1.jpg",
    "category": "기타행사",
    "eventstartdate": "20250829",
    "eventenddate": "20250830"
  },
  {
    "id": "999659",
    "title": "2025 청산도슬로걷기축제",
    "address": "전라남도 완도군 청산면",
    "phone": "061-550-5432",
    "latitude": "34.1798852008",
    "longitude": "126.8590030820",
    "image": "http://tong.visitkorea.or.kr/cms/resource/37/3484637_image2_1.jpg",
    "category": "기타행사",
    "eventstartdate": "20250405",
    "eventenddate": "20250504"
  },
  {
    "id": "3530139",
    "title": "2025 충청남도 드론 페스타",
    "address": "충청남도 홍성군 홍북읍 충남대로 21",
    "phone": "041-635-4797",
    "latitude": "36.6575484446",
    "longitude": "126.6730820546",
    "image": "http://tong.visitkorea.or.kr/cms/resource/38/3530138_image2_1.jpg",
    "category": "기타행사",
    "eventstartdate": "20250920",
    "eventenddate": "20250920"
  },
  {
    "id": "142204",
    "title": "2025 코리아드라마페스티벌",
    "address": "경상남도 진주시 논개길 103 (옥봉동)",
    "phone": "홈페이지 참조",
    "latitude": "35.1899681714",
    "longitude": "128.0926947349",
    "image": "http://tong.visitkorea.or.kr/cms/resource/72/3536872_image2_1.jpg",
    "category": "기타행사",
    "eventstartdate": "20251004",
    "eventenddate": "20251019"
  },
  {
    "id": "3011445",
    "title": "2025 크리에이티브X성수",
    "address": "서울특별시 성동구 연무장15길 11 (성수동2가)",
    "phone": "02-2204-7507",
    "latitude": "37.5423085165",
    "longitude": "127.0594809973",
    "image": "http://tong.visitkorea.or.kr/cms/resource/85/3526985_image2_1.jpg",
    "category": "기타행사",
    "eventstartdate": "20250915",
    "eventenddate": "20250921"
  },
  {
    "id": "3483968",
    "title": "2025 푸르메워크 남산",
    "address": "서울특별시 중구 남산공원길 649 (회현동1가)",
    "phone": "02-522-4738",
    "latitude": "37.5538474828",
    "longitude": "126.9838042302",
    "image": "http://tong.visitkorea.or.kr/cms/resource/67/3483967_image2_1.jpg",
    "category": "기타행사",
    "eventstartdate": "20250419",
    "eventenddate": "20250419"
  },
  {
    "id": "3026312",
    "title": "2025 한강 불빛 공연(드론 라이트 쇼)",
    "address": "서울특별시 광진구 강변북로 2273 (자양동)",
    "phone": "다산콜센터 02-120",
    "latitude": "37.5294186076",
    "longitude": "127.0739939307",
    "image": "http://tong.visitkorea.or.kr/cms/resource/97/3487397_image2_1.jpg",
    "category": "기타행사",
    "eventstartdate": "20250427",
    "eventenddate": "20250615"
  },
  {
    "id": "2497537",
    "title": "2025 한강나이트워크42K With 토레타!",
    "address": "서울특별시 영등포구 여의공원로 68 (여의도동)",
    "phone": "070-4705-2008",
    "latitude": "37.5268578503",
    "longitude": "126.9222939310",
    "image": "http://tong.visitkorea.or.kr/cms/resource/80/3494980_image2_1.png",
    "category": "기타행사",
    "eventstartdate": "20250802",
    "eventenddate": "20250803"
  },
  {
    "id": "2384776",
    "title": "2025 한강명산트레킹(2차)",
    "address": "서울특별시 중랑구 용마산로 250-12 (면목동)",
    "phone": "02-490-2768",
    "latitude": "37.5734054382",
    "longitude": "127.0891385242",
    "image": "http://tong.visitkorea.or.kr/cms/resource/24/3547824_image2_1.png",
    "category": "기타행사",
    "eventstartdate": "20251109",
    "eventenddate": "20251109"
  },
  {
    "id": "2612919",
    "title": "2025 한국민속촌 야간개장",
    "address": "경기도 용인시 기흥구 민속촌로 90 (보라동)",
    "phone": "031-288-0000",
    "latitude": "37.2567648379",
    "longitude": "127.1145951569",
    "image": "http://tong.visitkorea.or.kr/cms/resource/78/3486678_image2_1.jpg",
    "category": "기타행사",
    "eventstartdate": "20250419",
    "eventenddate": "20251109"
  },
  {
    "id": "3540329",
    "title": "2025 한글날 문화행사",
    "address": "경기도 여주시 세종대왕면 영릉로 269-10",
    "phone": "031-881-9692, 9740",
    "latitude": "37.3048294176",
    "longitude": "127.6128375714",
    "image": "http://tong.visitkorea.or.kr/cms/resource/27/3540327_image2_1.jpg",
    "category": "기타행사",
    "eventstartdate": "20251009",
    "eventenddate": "20251009"
  },
  {
    "id": "2623638",
    "title": "2025 홀로그램 엑스포 - HOLO WAVE",
    "address": "전북특별자치도 익산시 익산대로 460 (신동)",
    "phone": "063-252-0048",
    "latitude": "35.9670185276",
    "longitude": "126.9533945826",
    "image": "http://tong.visitkorea.or.kr/cms/resource/96/3565396_image2_1.png",
    "category": "기타행사",
    "eventstartdate": "20251120",
    "eventenddate": "20251122"
  },
  {
    "id": "2657619",
    "title": "2025 화성행궁 야간개장 <달빛화담,花談>",
    "address": "경기도 수원시 팔달구 정조로 825 (남창동)",
    "phone": "031-290-3612",
    "latitude": "37.2818685077",
    "longitude": "127.0163894742",
    "image": "http://tong.visitkorea.or.kr/cms/resource/16/3533416_image2_1.jpg",
    "category": "기타행사",
    "eventstartdate": "20250503",
    "eventenddate": "20251102"
  },
  {
    "id": "3496186",
    "title": "2025년 가락몰 여름이벤트",
    "address": "서울특별시 송파구 양재대로 932 (가락동)",
    "phone": "02-3435-0455",
    "latitude": "37.4960786971",
    "longitude": "127.1107693087",
    "image": "http://tong.visitkorea.or.kr/cms/resource/84/3496184_image2_1.png",
    "category": "기타행사",
    "eventstartdate": "20250607",
    "eventenddate": "20250628"
  },
  {
    "id": "3501034",
    "title": "2025년 완주군 근대역사 문화여행",
    "address": "전북특별자치도 완주군 삼례읍 삼례역로 81-1",
    "phone": "063-290-3932",
    "latitude": "35.9067495517",
    "longitude": "127.0651028602",
    "image": "http://tong.visitkorea.or.kr/cms/resource/32/3501032_image2_1.png",
    "category": "기타행사",
    "eventstartdate": "20250628",
    "eventenddate": "20250629"
  },
  {
    "id": "3551562",
    "title": "2025년 제20회 인문주간",
    "address": "대전광역시 유성구 가정로 201 (가정동)",
    "phone": "042-869-6114",
    "latitude": "36.3844891614",
    "longitude": "127.3656327264",
    "image": "http://tong.visitkorea.or.kr/cms/resource/28/3551428_image2_1.jpg",
    "category": "기타행사",
    "eventstartdate": "20251027",
    "eventenddate": "20251102"
  },
  {
    "id": "2973018",
    "title": "2025서울쇼핑페스타",
    "address": "서울특별시 중구 퇴계로34길 28 (필동2가)",
    "phone": "02-323-2053",
    "latitude": "37.5597775194",
    "longitude": "126.9932865315",
    "image": "http://tong.visitkorea.or.kr/cms/resource/71/3486771_image2_1.jpg",
    "category": "기타행사",
    "eventstartdate": "20250501",
    "eventenddate": "20250531"
  },
  {
    "id": "2530829",
    "title": "2026 부산국제보트쇼",
    "address": "부산광역시 해운대구 APEC로 55 (우동)",
    "phone": "051-740-8600",
    "latitude": "35.1687450332",
    "longitude": "129.1355209016",
    "image": "http://tong.visitkorea.or.kr/cms/resource/47/3490847_image2_1.jpg",
    "category": "기타행사",
    "eventstartdate": "20260417",
    "eventenddate": "20260419"
  },
  {
    "id": "3497941",
    "title": "all nights INCHEON 월미·개항장 야간마켓",
    "address": "인천광역시 중구 월미문화로 30 (북성동1가)",
    "phone": "032-715-5633",
    "latitude": "37.4758413510",
    "longitude": "126.5976277433",
    "image": "http://tong.visitkorea.or.kr/cms/resource/40/3497940_image2_1.png",
    "category": "기타행사",
    "eventstartdate": "20250620",
    "eventenddate": "20250726"
  },
  {
    "id": "3113265",
    "title": "APAP 작품투어",
    "address": "경기도 안양시 만안구 예술공원로 180 (안양동)",
    "phone": "031-687-0548",
    "latitude": "37.4195037091",
    "longitude": "126.9256299791",
    "image": "http://tong.visitkorea.or.kr/cms/resource/30/3482330_image2_1.jpg",
    "category": "기타행사",
    "eventstartdate": "20250402",
    "eventenddate": "20251130"
  },
  {
    "id": "3473295",
    "title": "DDP 건축투어",
    "address": "서울특별시 중구 을지로 281 (을지로7가)",
    "phone": "유선: 02-2153-0310 / 0311",
    "latitude": "37.5661076320",
    "longitude": "127.0095709797",
    "image": "http://tong.visitkorea.or.kr/cms/resource/52/3473252_image2_1.jpg",
    "category": "기타행사",
    "eventstartdate": "20250101",
    "eventenddate": "20251231"
  },
  {
    "id": "3482686",
    "title": "DDPlay 3월 농부시장 마르쉐",
    "address": "서울특별시 중구 을지로 281 (을지로7가)",
    "phone": "02-2153-0072",
    "latitude": "37.5661076320",
    "longitude": "127.0095709797",
    "image": "http://tong.visitkorea.or.kr/cms/resource/84/3482684_image2_1.jpg",
    "category": "기타행사",
    "eventstartdate": "20250323",
    "eventenddate": "20250323"
  },
  {
    "id": "3509748",
    "title": "EX HORROR(엑스호러) 시즌 5 : 낯선 손님의 그림자",
    "address": "경상북도 경주시 경감로 614 (천군동)",
    "phone": "054-740-3950",
    "latitude": "35.8340564631",
    "longitude": "129.2895443842",
    "image": "http://tong.visitkorea.or.kr/cms/resource/41/3509741_image2_1.jpg",
    "category": "기타행사",
    "eventstartdate": "20250725",
    "eventenddate": "20250824"
  },
  {
    "id": "3536325",
    "title": "EX-펌킨나잇 : 매직킹덤",
    "address": "경상북도 경주시 경감로 614 (천군동)",
    "phone": "054-740-3950",
    "latitude": "35.8340564631",
    "longitude": "129.2895443842",
    "image": "http://tong.visitkorea.or.kr/cms/resource/24/3536324_image2_1.png",
    "category": "기타행사",
    "eventstartdate": "20250926",
    "eventenddate": "20251026"
  },
  {
    "id": "3524889",
    "title": "GES2025 (게임 e스포츠 서울)",
    "address": "서울특별시 중구 을지로 281 (을지로7가)",
    "phone": "02-2124-2907",
    "latitude": "37.5661076320",
    "longitude": "127.0095709797",
    "image": "http://tong.visitkorea.or.kr/cms/resource/88/3524888_image2_1.jpg",
    "category": "기타행사",
    "eventstartdate": "20250919",
    "eventenddate": "20250921"
  },
  {
    "id": "3499401",
    "title": "GXG 2025",
    "address": "경기도 성남시 분당구 판교역로 지하160 (백현동)",
    "phone": "031-717-4990",
    "latitude": "37.3948459999",
    "longitude": "127.1110054860",
    "image": "http://tong.visitkorea.or.kr/cms/resource/69/3500169_image2_1.jpg",
    "category": "기타행사",
    "eventstartdate": "20250919",
    "eventenddate": "20250920"
  },
  {
    "id": "3356264",
    "title": "JEJU MUSIC WEEKEND",
    "address": "제주특별자치도 서귀포시 안덕면 신화역사로304번길 38",
    "phone": "064-762-0706",
    "latitude": "33.3072595277",
    "longitude": "126.3197479556",
    "image": "http://tong.visitkorea.or.kr/cms/resource/06/3356306_image2_1.jpg",
    "category": "기타행사",
    "eventstartdate": "20240907",
    "eventenddate": "20240907"
  },
  {
    "id": "3535460",
    "title": "K-POP 커버댄스 페스티벌 월드 파이널",
    "address": "서울특별시 중구 세종대로 110 (태평로1가)",
    "phone": "02-2000-9324",
    "latitude": "37.5662570431",
    "longitude": "126.9777210995",
    "image": "http://tong.visitkorea.or.kr/cms/resource/57/3535457_image2_1.jpg",
    "category": "기타행사",
    "eventstartdate": "20250913",
    "eventenddate": "20250914"
  },
  {
    "id": "2381938",
    "title": "K-핸드메이드페어 2025",
    "address": "서울특별시 강남구 영동대로 513",
    "phone": "02-761-2512",
    "latitude": "37.5118092746",
    "longitude": "127.0591318945",
    "image": "http://tong.visitkorea.or.kr/cms/resource/21/3467921_image2_1.jpg",
    "category": "기타행사",
    "eventstartdate": "20251218",
    "eventenddate": "20251221"
  },
  {
    "id": "3488940",
    "title": "MyK FESTA(마이케이 페스타)",
    "address": "서울특별시 송파구 올림픽로 424 (방이동)",
    "phone": "070-4288-4097",
    "latitude": "37.5206092598",
    "longitude": "127.1150682209",
    "image": "http://tong.visitkorea.or.kr/cms/resource/39/3488939_image2_1.jpg",
    "category": "기타행사",
    "eventstartdate": "20250530",
    "eventenddate": "20250622"
  }
]