[
  {
    "id": "3383902",
    "title": "계촌 휴休콘서트",
    "address": "강원특별자치도 평창군 방림면 고원로 683",
    "phone": "010-2814-1055",
    "latitude": "37.4524029602",
    "longitude": "128.3014544341",
    "image": "http://tong.visitkorea.or.kr/cms/resource/28/3488128_image2_1.jpg",
    "category": "대중콘서트",
    "eventstartdate": "",
    "eventenddate": ""
  },
  {
    "id": "2990881",
    "title": "광주 버스킹 월드컵",
    "address": "광주광역시 동구 금남로1가 41 금남지하상가",
    "phone": "070-4400-6554",
    "latitude": "35.1478775800",
    "longitude": "126.9200351748",
    "image": "http://tong.visitkorea.or.kr/cms/resource/76/3410976_image2_1.JPG",
    "category": "대중콘서트",
    "eventstartdate": "",
    "eventenddate": ""
  },
  {
    "id": "3304636",
    "title": "문화가 있는 날 실버마이크 <전라·제주 권역>",
    "address": "광주광역시 남구 덕남길 7 (노대동)",
    "phone": "062-419-1272",
    "latitude": "35.1011713369",
    "longitude": "126.8961578975",
    "image": "http://tong.visitkorea.or.kr/cms/resource/08/3477608_image2_1.jpg",
    "category": "대중콘서트",
    "eventstartdate": "",
    "eventenddate": ""
  },
  {
    "id": "3492276",
    "title": "문화가 있는 날 청춘마이크 수도강원권",
    "address": "서울특별시 서초구 반포동",
    "phone": "070-4248-9838",
    "latitude": "37.5119526047",
    "longitude": "126.9980013443",
    "image": "http://tong.visitkorea.or.kr/cms/resource/33/3499433_image2_1.jpg",
    "category": "대중콘서트",
    "eventstartdate": "",
    "eventenddate": ""
  },
  {
    "id": "3306590",
    "title": "문화가 있는 날 청춘마이크 충청권",
    "address": "대전광역시 유성구 유성대로740번길 46 (장대동)",
    "phone": "042-825-6781",
    "latitude": "36.3595553767",
    "longitude": "127.3359221723",
    "image": "http://tong.visitkorea.or.kr/cms/resource/15/3483415_image2_1.jpg",
    "category": "대중콘서트",
    "eventstartdate": "",
    "eventenddate": ""
  },
  {
    "id": "3494082",
    "title": "싱크 넥스트 25(Sync Next 25)",
    "address": "서울특별시 종로구 세종대로 175 (세종로)",
    "phone": "02-399-1000",
    "latitude": "37.5720618985",
    "longitude": "126.9763210635",
    "image": "http://tong.visitkorea.or.kr/cms/resource/74/3494074_image2_1.jpg",
    "category": "대중콘서트",
    "eventstartdate": "",
    "eventenddate": ""
  },
  {
    "id": "2854144",
    "title": "제16회 INK 콘서트",
    "address": "인천광역시 중구 월미로 33 (북성동1가)",
    "phone": "070-8893-2437",
    "latitude": "37.4761360618",
    "longitude": "126.6146650689",
    "image": "http://tong.visitkorea.or.kr/cms/resource/18/3524918_image2_1.jpg",
    "category": "대중콘서트",
    "eventstartdate": "",
    "eventenddate": ""
  },
  {
    "id": "3493049",
    "title": "제24회 의정부음악극축제",
    "address": "경기도 의정부시 의정로 1 (의정부동)",
    "phone": "031-850-5141~6",
    "latitude": "37.7332858581",
    "longitude": "127.0345167201",
    "image": "http://tong.visitkorea.or.kr/cms/resource/45/3493045_image2_1.jpg",
    "category": "대중콘서트",
    "eventstartdate": "",
    "eventenddate": ""
  },
  {
    "id": "3497718",
    "title": "종로 어디나 스테이지",
    "address": "서울특별시 종로구 세종대로 175 (세종로)",
    "phone": "02-6203-1164",
    "latitude": "37.5720618985",
    "longitude": "126.9763210635",
    "image": "http://tong.visitkorea.or.kr/cms/resource/11/3497711_image2_1.jpg",
    "category": "대중콘서트",
    "eventstartdate": "",
    "eventenddate": ""
  },
  {
    "id": "3507580",
    "title": "캐리비안 베이 워터 뮤직 풀파티",
    "address": "경기도 용인시 처인구 포곡읍 에버랜드로 199",
    "phone": "031-320-5000",
    "latitude": "37.2893100954",
    "longitude": "127.2149184795",
    "image": "http://tong.visitkorea.or.kr/cms/resource/76/3507576_image2_1.png",
    "category": "대중콘서트",
    "eventstartdate": "",
    "eventenddate": ""
  },
  {
    "id": "3486684",
    "title": "트렌드 웨이브 2025",
    "address": "인천광역시 서구 봉수대로 806 (연희동)",
    "phone": "02-2675-4538",
    "latitude": "37.5481230092",
    "longitude": "126.6641529930",
    "image": "http://tong.visitkorea.or.kr/cms/resource/64/3486864_image2_1.jpg",
    "category": "대중콘서트",
    "eventstartdate": "",
    "eventenddate": ""
  },
  {
    "id": "3510577",
    "title": "한여름밤의 유성뮤직페스타",
    "address": "대전광역시 유성구 테크노중앙로 123 (용산동)",
    "phone": "042-611-6134",
    "latitude": "36.4234825045",
    "longitude": "127.3985342768",
    "image": "http://tong.visitkorea.or.kr/cms/resource/75/3510575_image2_1.jpg",
    "category": "대중콘서트",
    "eventstartdate": "",
    "eventenddate": ""
  },
  {
    "id": "3496655",
    "title": "1901 라이브로드 페스타",
    "address": "인천광역시 중구 월미로 33 (북성동1가)",
    "phone": "1544-7056",
    "latitude": "37.4761360618",
    "longitude": "126.6146650689",
    "image": "http://tong.visitkorea.or.kr/cms/resource/53/3496653_image2_1.jpg",
    "category": "대중콘서트",
    "eventstartdate": "",
    "eventenddate": ""
  },
  {
    "id": "3021170",
    "title": "2024 K-뮤직 시즌 ‘굿밤 콘서트 in 부산’",
    "address": "부산광역시 해운대구 해운대해변로 226 (우동)",
    "phone": "02-3471-1091",
    "latitude": "35.1576799843",
    "longitude": "129.1559805378",
    "image": "http://tong.visitkorea.or.kr/cms/resource/45/3358845_image2_1.png",
    "category": "대중콘서트",
    "eventstartdate": "",
    "eventenddate": ""
  },
  {
    "id": "630609",
    "title": "2024 아시아송 페스티벌 X 문화잇지오",
    "address": "서울특별시 영등포구 여의도동",
    "phone": "070-4333-2380",
    "latitude": "37.5321517823",
    "longitude": "126.9280154821",
    "image": "http://tong.visitkorea.or.kr/cms/resource/12/3378112_image2_1.jpg",
    "category": "대중콘서트",
    "eventstartdate": "",
    "eventenddate": ""
  },
  {
    "id": "3367338",
    "title": "2025 K-웨이브 댄스 페스티벌",
    "address": "서울특별시 서초구 올림픽대로 2085-14 (반포동)",
    "phone": "010-2874-6881",
    "latitude": "37.5123025381",
    "longitude": "126.9965764639",
    "image": "http://tong.visitkorea.or.kr/cms/resource/65/3546365_image2_1.jpg",
    "category": "대중콘서트",
    "eventstartdate": "",
    "eventenddate": ""
  },
  {
    "id": "3496619",
    "title": "2025 나도 버스커 페스티벌",
    "address": "서울특별시 마포구 양화로 지하188 (동교동)",
    "phone": "02-6238-1770",
    "latitude": "37.5575099286",
    "longitude": "126.9270259684",
    "image": "http://tong.visitkorea.or.kr/cms/resource/18/3496618_image2_1.png",
    "category": "대중콘서트",
    "eventstartdate": "",
    "eventenddate": ""
  },
  {
    "id": "3486898",
    "title": "2025 동행축제와 함께하는 대한민국 상생 영수증 콘서트",
    "address": "제주특별자치도 서귀포시 중문관광로 224 (중문동)",
    "phone": "1551-1613",
    "latitude": "33.2412795735",
    "longitude": "126.4244820031",
    "image": "http://tong.visitkorea.or.kr/cms/resource/03/3525603_image2_1.jpg",
    "category": "대중콘서트",
    "eventstartdate": "",
    "eventenddate": ""
  },
  {
    "id": "3512205",
    "title": "2025 서귀포 원도심 문화페스티벌",
    "address": "제주특별자치도 서귀포시 이중섭로 11 (서귀동)",
    "phone": "064-760-2572",
    "latitude": "33.2471089207",
    "longitude": "126.5644697375",
    "image": "http://tong.visitkorea.or.kr/cms/resource/04/3512204_image2_1.jpg",
    "category": "대중콘서트",
    "eventstartdate": "",
    "eventenddate": ""
  },
  {
    "id": "3544886",
    "title": "2025 서울어텀페스타",
    "address": "서울특별시 중구 세종대로 110 (태평로1가)",
    "phone": "02-758-2045",
    "latitude": "37.5662570431",
    "longitude": "126.9777210995",
    "image": "http://tong.visitkorea.or.kr/cms/resource/85/3544885_image2_1.JPG",
    "category": "대중콘서트",
    "eventstartdate": "",
    "eventenddate": ""
  },
  {
    "id": "3495445",
    "title": "2025 오늘도 무사히 VOL. 1 : 너드커넥션×캔트비블루×에브리데이 먼데이",
    "address": "인천광역시 부평구 아트센터로 166 (십정동)",
    "phone": "032-500-2163",
    "latitude": "37.4822897181",
    "longitude": "126.7049455502",
    "image": "http://tong.visitkorea.or.kr/cms/resource/41/3495441_image2_1.jpg",
    "category": "대중콘서트",
    "eventstartdate": "",
    "eventenddate": ""
  },
  {
    "id": "2993474",
    "title": "2025 울산서머페스티벌",
    "address": "울산광역시 중구 염포로 55 (남외동)",
    "phone": "052-290-1140",
    "latitude": "35.5609133351",
    "longitude": "129.3480525802",
    "image": "http://tong.visitkorea.or.kr/cms/resource/38/3507638_image2_1.jpg",
    "category": "대중콘서트",
    "eventstartdate": "",
    "eventenddate": ""
  },
  {
    "id": "3546882",
    "title": "2025 음악실연자 페스티벌",
    "address": "제주특별자치도 제주시 중앙로 2 (삼도이동)",
    "phone": "070-4242-0838",
    "latitude": "33.5181838831",
    "longitude": "126.5246670689",
    "image": "http://tong.visitkorea.or.kr/cms/resource/81/3546881_image2_1.jpg",
    "category": "대중콘서트",
    "eventstartdate": "",
    "eventenddate": ""
  },
  {
    "id": "2856063",
    "title": "2025 인천공항 스카이페스티벌",
    "address": "인천광역시 중구 공항문화로 127 (운서동)",
    "phone": "070-5226-0759",
    "latitude": "37.4657083226",
    "longitude": "126.3893498220",
    "image": "http://tong.visitkorea.or.kr/cms/resource/01/3553701_image2_1.jpg",
    "category": "대중콘서트",
    "eventstartdate": "",
    "eventenddate": ""
  },
  {
    "id": "3551014",
    "title": "2025 제7회 BMF(블랙뮤직페스티벌)",
    "address": "경기도 의정부시 가능동",
    "phone": "031-828-5841~2",
    "latitude": "37.7481534845",
    "longitude": "127.0297139555",
    "image": "http://tong.visitkorea.or.kr/cms/resource/13/3551013_image2_1.jpg",
    "category": "대중콘서트",
    "eventstartdate": "",
    "eventenddate": ""
  },
  {
    "id": "3497446",
    "title": "2025 제천 골목버스킹",
    "address": "충청북도 제천시 독순로 61 (중앙로2가)",
    "phone": "043-265-1475",
    "latitude": "37.1394040079",
    "longitude": "128.2102440852",
    "image": "http://tong.visitkorea.or.kr/cms/resource/45/3497445_image2_1.jpg",
    "category": "대중콘서트",
    "eventstartdate": "",
    "eventenddate": ""
  },
  {
    "id": "1693879",
    "title": "2025 파주포크페스티벌",
    "address": "경기도 파주시 문산읍 임진각로 164",
    "phone": "031-950-8431~5",
    "latitude": "37.8897734643",
    "longitude": "126.7417751478",
    "image": "http://tong.visitkorea.or.kr/cms/resource/83/3541083_image2_1.jpg",
    "category": "대중콘서트",
    "eventstartdate": "",
    "eventenddate": ""
  },
  {
    "id": "3491413",
    "title": "2025 한강 서래섬 청춘 버스킹 with 히든스테이지",
    "address": "서울특별시 서초구 신반포로11길 40 (반포동)",
    "phone": "02-319-4401",
    "latitude": "37.5077391108",
    "longitude": "126.9927658294",
    "image": "http://tong.visitkorea.or.kr/cms/resource/12/3491412_image2_1.png",
    "category": "대중콘서트",
    "eventstartdate": "",
    "eventenddate": ""
  },
  {
    "id": "1717921",
    "title": "D.FESTA 거리공연축제",
    "address": "서울특별시 종로구 대학로 104 (동숭동)",
    "phone": "02-741-4188",
    "latitude": "37.5805669329",
    "longitude": "127.0023878907",
    "image": "http://tong.visitkorea.or.kr/cms/resource/65/3498465_image2_1.jpg",
    "category": "대중콘서트",
    "eventstartdate": "",
    "eventenddate": ""
  }
]