[
  {
    "id": "142099",
    "title": "제21회 부산국제무용제",
    "address": "부산광역시 해운대구 수영강변대로 120 (우동)",
    "phone": "051-868-7881~2",
    "latitude": "35.1710029572",
    "longitude": "129.1270687971",
    "image": "http://tong.visitkorea.or.kr/cms/resource/84/3489184_image2_1.jpg",
    "category": "무용",
    "eventstartdate": "20250604",
    "eventenddate": "20250608"
  },
  {
    "id": "629023",
    "title": "제27회 서울세계무용축제",
    "address": "서울특별시 종로구 대학로10길 17 (동숭동)",
    "phone": "02-3216-1185",
    "latitude": "37.5821500970",
    "longitude": "127.0031961055",
    "image": "http://tong.visitkorea.or.kr/cms/resource/24/3356724_image2_1.jpg",
    "category": "무용",
    "eventstartdate": "20240901",
    "eventenddate": "20240914"
  },
  {
    "id": "629742",
    "title": "제46회 서울무용제",
    "address": "서울특별시 종로구 대학로8길 7 (동숭동)",
    "phone": "02-744-8066",
    "latitude": "37.5812640855",
    "longitude": "127.0029878163",
    "image": "http://tong.visitkorea.or.kr/cms/resource/87/3567087_image2_1.jpg",
    "category": "무용",
    "eventstartdate": "20251121",
    "eventenddate": "20251207"
  },
  {
    "id": "2558683",
    "title": "2024 대한민국무용대상 & 대한민국무용인의 밤",
    "address": "서울특별시 종로구 대학로8길 7 한국문예회관",
    "phone": "02-744-8066",
    "latitude": "37.5812640855",
    "longitude": "127.0029878163",
    "image": "http://tong.visitkorea.or.kr/cms/resource/32/3442732_image2_1.jpg",
    "category": "무용",
    "eventstartdate": "20241219",
    "eventenddate": "20241219"
  }
]