[
  {
    "id": "825295",
    "title": "강릉커피축제",
    "address": "강원특별자치도 강릉시 창해로14번길 20-1 (견소동)",
    "phone": "033-647-6802",
    "latitude": "37.7726644683",
    "longitude": "128.9473365175",
    "image": "http://tong.visitkorea.or.kr/cms/resource/24/3546224_image2_1.JPG",
    "category": "문화관광축제",
    "eventstartdate": "",
    "eventenddate": ""
  },
  {
    "id": "506766",
    "title": "경북영주 풍기인삼축제",
    "address": "경상북도 영주시 풍기읍 성내리",
    "phone": "054-635-0020",
    "latitude": "36.8687659405",
    "longitude": "128.5215435497",
    "image": "http://tong.visitkorea.or.kr/cms/resource/55/3563955_image2_1.jpg",
    "category": "문화관광축제",
    "eventstartdate": "",
    "eventenddate": ""
  },
  {
    "id": "2667017",
    "title": "고령대가야축제",
    "address": "경상북도 고령군 대가야로 1216 대가야역사테마관광지",
    "phone": "054-950-6427",
    "latitude": "35.7212529077",
    "longitude": "128.2599602256",
    "image": "http://tong.visitkorea.or.kr/cms/resource/25/3476725_image2_1.jpg",
    "category": "문화관광축제",
    "eventstartdate": "",
    "eventenddate": ""
  },
  {
    "id": "1624017",
    "title": "곡성세계장미축제",
    "address": "전라남도 곡성군 오곡면 기차마을로 232",
    "phone": "061-360-8471",
    "latitude": "35.2774167990",
    "longitude": "127.3080309475",
    "image": "http://tong.visitkorea.or.kr/cms/resource/70/3484870_image2_1.JPG",
    "category": "문화관광축제",
    "eventstartdate": "",
    "eventenddate": ""
  },
  {
    "id": "2612274",
    "title": "관악강감찬축제",
    "address": "서울특별시 관악구 낙성대로 77 (봉천동)",
    "phone": "02-828-5767",
    "latitude": "37.4716399155",
    "longitude": "126.9587338341",
    "image": "http://tong.visitkorea.or.kr/cms/resource/75/3528275_image2_1.JPG",
    "category": "문화관광축제",
    "eventstartdate": "",
    "eventenddate": ""
  },
  {
    "id": "506545",
    "title": "광안리어방축제",
    "address": "부산광역시 수영구 광안해변로 219 (광안동)",
    "phone": "051-610-4062",
    "latitude": "35.1538130576",
    "longitude": "129.1185477876",
    "image": "http://tong.visitkorea.or.kr/cms/resource/95/3485995_image2_1.jpg",
    "category": "문화관광축제",
    "eventstartdate": "",
    "eventenddate": ""
  },
  {
    "id": "692682",
    "title": "광주 추억의 충장축제",
    "address": "광주광역시 동구 금남로3가",
    "phone": "062-608-4674",
    "latitude": "35.1502800157",
    "longitude": "126.9158827040",
    "image": "http://tong.visitkorea.or.kr/cms/resource/71/3584471_image2_1.jpg",
    "category": "문화관광축제",
    "eventstartdate": "",
    "eventenddate": ""
  },
  {
    "id": "604097",
    "title": "광주김치축제",
    "address": "광주광역시 서구 내방로 111 (치평동)",
    "phone": "062-613-3955~6",
    "latitude": "35.1590418545",
    "longitude": "126.8530408189",
    "image": "http://tong.visitkorea.or.kr/cms/resource/32/3545732_image2_1.JPG",
    "category": "문화관광축제",
    "eventstartdate": "",
    "eventenddate": ""
  },
  {
    "id": "141234",
    "title": "괴산고추축제",
    "address": "충청북도 괴산군 괴산읍 임꺽정로 75-1",
    "phone": "02-830-3462",
    "latitude": "36.8135281295",
    "longitude": "127.7882218743",
    "image": "http://tong.visitkorea.or.kr/cms/resource/58/3518158_image2_1.jpg",
    "category": "문화관광축제",
    "eventstartdate": "",
    "eventenddate": ""
  },
  {
    "id": "506465",
    "title": "금산세계인삼축제",
    "address": "충청남도 금산군 금산읍 인삼광장로 30",
    "phone": "041-750-2319",
    "latitude": "36.1001990287",
    "longitude": "127.5005394787",
    "image": "http://tong.visitkorea.or.kr/cms/resource/59/3524159_image2_1.JPG",
    "category": "문화관광축제",
    "eventstartdate": "",
    "eventenddate": ""
  },
  {
    "id": "574285",
    "title": "김제지평선축제",
    "address": "전북특별자치도 김제시 부량면 벽골제로 442",
    "phone": "063-540-3037",
    "latitude": "35.7540632714",
    "longitude": "126.8522869016",
    "image": "http://tong.visitkorea.or.kr/cms/resource/54/3516354_image2_1.jpg",
    "category": "문화관광축제",
    "eventstartdate": "",
    "eventenddate": ""
  },
  {
    "id": "506470",
    "title": "김해분청도자기축제",
    "address": "경상남도 김해시 진례면 분청로 17",
    "phone": "055-330-3244",
    "latitude": "35.2517674455",
    "longitude": "128.7459053654",
    "image": "http://tong.visitkorea.or.kr/cms/resource/49/3546549_image2_1.jpg",
    "category": "문화관광축제",
    "eventstartdate": "",
    "eventenddate": ""
  },
  {
    "id": "525292",
    "title": "논산딸기축제",
    "address": "충청남도 논산시 관촉동",
    "phone": "041-730-2973",
    "latitude": "36.1954950859",
    "longitude": "127.1056055127",
    "image": "http://tong.visitkorea.or.kr/cms/resource/91/3479791_image2_1.jpg",
    "category": "문화관광축제",
    "eventstartdate": "",
    "eventenddate": ""
  },
  {
    "id": "506480",
    "title": "담양 대나무축제",
    "address": "전라남도 담양군 담양읍 죽녹원로 134",
    "phone": "061-380-3152",
    "latitude": "35.3256086468",
    "longitude": "126.9880941182",
    "image": "http://tong.visitkorea.or.kr/cms/resource/02/3486702_image2_1.jpg",
    "category": "문화관광축제",
    "eventstartdate": "",
    "eventenddate": ""
  },
  {
    "id": "506516",
    "title": "대구약령시한방문화축제",
    "address": "대구광역시 중구 남성로",
    "phone": "053-254-1658",
    "latitude": "35.8676257211",
    "longitude": "128.5906381638",
    "image": "http://tong.visitkorea.or.kr/cms/resource/80/3516180_image2_1.jpg",
    "category": "문화관광축제",
    "eventstartdate": "",
    "eventenddate": ""
  },
  {
    "id": "1801011",
    "title": "대구치맥페스티벌",
    "address": "대구광역시 달서구 공원순환로 36 (두류동)",
    "phone": "053-248-9998",
    "latitude": "35.8509409125",
    "longitude": "128.5588136530",
    "image": "http://tong.visitkorea.or.kr/cms/resource/95/3532795_image2_1.jpg",
    "category": "문화관광축제",
    "eventstartdate": "",
    "eventenddate": ""
  },
  {
    "id": "981658",
    "title": "대전효문화뿌리축제",
    "address": "대전광역시 중구 뿌리공원로 79 (침산동)",
    "phone": "042-606-6290",
    "latitude": "36.2845065219",
    "longitude": "127.3864280203",
    "image": "http://tong.visitkorea.or.kr/cms/resource/95/3534795_image2_1.jpg",
    "category": "문화관광축제",
    "eventstartdate": "",
    "eventenddate": ""
  },
  {
    "id": "229048",
    "title": "동래읍성역사축제",
    "address": "부산광역시 동래구 문화로 80 (명륜동)",
    "phone": "051-550-4092",
    "latitude": "35.2121198984",
    "longitude": "129.0905625108",
    "image": "http://tong.visitkorea.or.kr/cms/resource/43/3366443_image2_1.jpg",
    "category": "문화관광축제",
    "eventstartdate": "",
    "eventenddate": ""
  },
  {
    "id": "574014",
    "title": "목포항구축제",
    "address": "전라남도 목포시 삼학로92번길 6 (산정동)",
    "phone": "061-270-8441",
    "latitude": "34.7865706743",
    "longitude": "126.3936822230",
    "image": "http://tong.visitkorea.or.kr/cms/resource/90/3498990_image2_1.JPG",
    "category": "문화관광축제",
    "eventstartdate": "",
    "eventenddate": ""
  },
  {
    "id": "506523",
    "title": "무주반딧불축제",
    "address": "전북특별자치도 무주군 무주읍 한풍루로 326-17",
    "phone": "063-324-2440",
    "latitude": "36.0023852718",
    "longitude": "127.6625943629",
    "image": "http://tong.visitkorea.or.kr/cms/resource/69/3520569_image2_1.jpg",
    "category": "문화관광축제",
    "eventstartdate": "",
    "eventenddate": ""
  },
  {
    "id": "506295",
    "title": "문경찻사발축제",
    "address": "경상북도 문경시 새재로 932",
    "phone": "054-571-7677",
    "latitude": "36.7616504930",
    "longitude": "128.0770113639",
    "image": "http://tong.visitkorea.or.kr/cms/resource/33/3479633_image2_1.jpg",
    "category": "문화관광축제",
    "eventstartdate": "",
    "eventenddate": ""
  },
  {
    "id": "715421",
    "title": "밀양아리랑대축제",
    "address": "경상남도 밀양시 삼문동",
    "phone": "055-359-4500",
    "latitude": "35.4899047653",
    "longitude": "128.7571006565",
    "image": "http://tong.visitkorea.or.kr/cms/resource/60/2490860_image2_1.JPG",
    "category": "문화관광축제",
    "eventstartdate": "",
    "eventenddate": ""
  },
  {
    "id": "506534",
    "title": "보령머드축제",
    "address": "충청남도 보령시 신흑동",
    "phone": "041-930-0891",
    "latitude": "36.3148684347",
    "longitude": "126.5150414496",
    "image": "http://tong.visitkorea.or.kr/cms/resource/79/3534979_image2_1.jpg",
    "category": "문화관광축제",
    "eventstartdate": "",
    "eventenddate": ""
  },
  {
    "id": "553299",
    "title": "보성다향대축제",
    "address": "전라남도 보성군 보성읍 녹차로 775",
    "phone": "061-850-5211~4",
    "latitude": "34.7198757111",
    "longitude": "127.0817371312",
    "image": "http://tong.visitkorea.or.kr/cms/resource/32/3485532_image2_1.jpg",
    "category": "문화관광축제",
    "eventstartdate": "",
    "eventenddate": ""
  },
  {
    "id": "140799",
    "title": "부산국제록페스티벌",
    "address": "부산광역시 사상구 삼락동",
    "phone": "1533-5057",
    "latitude": "35.1728970354",
    "longitude": "128.9682186811",
    "image": "http://tong.visitkorea.or.kr/cms/resource/54/3547454_image2_1.jpg",
    "category": "문화관광축제",
    "eventstartdate": "",
    "eventenddate": ""
  },
  {
    "id": "589386",
    "title": "부천국제만화축제",
    "address": "경기도 부천시 원미구 길주로 1 (상동)",
    "phone": "032-310-3071",
    "latitude": "37.5082512500",
    "longitude": "126.7422053159",
    "image": "http://tong.visitkorea.or.kr/cms/resource/75/3557475_image2_1.JPG",
    "category": "문화관광축제",
    "eventstartdate": "",
    "eventenddate": ""
  },
  {
    "id": "1266642",
    "title": "부평풍물대축제",
    "address": "인천광역시 부평구 부평대로 168 (부평동)",
    "phone": "032-509-7516",
    "latitude": "37.5066010711",
    "longitude": "126.7212906034",
    "image": "http://tong.visitkorea.or.kr/cms/resource/48/3542948_image2_1.jpg",
    "category": "문화관광축제",
    "eventstartdate": "",
    "eventenddate": ""
  },
  {
    "id": "506600",
    "title": "산청한방약초축제",
    "address": "경상남도 산청군 금서면 동의보감로555번길 45-6",
    "phone": "055-970-6670",
    "latitude": "35.4411074195",
    "longitude": "127.8293779206",
    "image": "http://tong.visitkorea.or.kr/cms/resource/88/3523088_image2_1.JPG",
    "category": "문화관광축제",
    "eventstartdate": "",
    "eventenddate": ""
  },
  {
    "id": "140752",
    "title": "서산해미읍성축제",
    "address": "충청남도 서산시 해미면 남문2로 143",
    "phone": "041-660-2696",
    "latitude": "36.7136037541",
    "longitude": "126.5503944175",
    "image": "http://tong.visitkorea.or.kr/cms/resource/47/3550747_image2_1.jpg",
    "category": "문화관광축제",
    "eventstartdate": "",
    "eventenddate": ""
  },
  {
    "id": "1849007",
    "title": "세종한글축제",
    "address": "세종특별자치시 다솜로 216 (세종동)",
    "phone": "044-850-0591~0593",
    "latitude": "36.4989993515",
    "longitude": "127.2701992755",
    "image": "http://tong.visitkorea.or.kr/cms/resource/16/3553216_image2_1.jpg",
    "category": "문화관광축제",
    "eventstartdate": "",
    "eventenddate": ""
  },
  {
    "id": "506809",
    "title": "소래포구축제",
    "address": "인천광역시 남동구 장도로 86-17 (논현동)",
    "phone": "070-8820-7793",
    "latitude": "37.3979806750",
    "longitude": "126.7393253184",
    "image": "http://tong.visitkorea.or.kr/cms/resource/65/3549465_image2_1.jpg",
    "category": "문화관광축제",
    "eventstartdate": "",
    "eventenddate": ""
  },
  {
    "id": "914138",
    "title": "수원화성문화제",
    "address": "경기도 수원시 팔달구 신풍동",
    "phone": "031-228-3920",
    "latitude": "37.2819157120",
    "longitude": "127.0156617611",
    "image": "http://tong.visitkorea.or.kr/cms/resource/88/3486388_image2_1.JPG",
    "category": "문화관광축제",
    "eventstartdate": "",
    "eventenddate": ""
  },
  {
    "id": "638241",
    "title": "순창장류축제",
    "address": "전북특별자치도 순창군 순창읍 장류로 55",
    "phone": "063-650-1624",
    "latitude": "35.3687947722",
    "longitude": "127.1123375755",
    "image": "http://tong.visitkorea.or.kr/cms/resource/59/3535559_image2_1.JPG",
    "category": "문화관광축제",
    "eventstartdate": "",
    "eventenddate": ""
  },
  {
    "id": "142197",
    "title": "시흥갯골축제",
    "address": "경기도 시흥시 동서로 287 (장곡동)",
    "phone": "031-310-2920",
    "latitude": "37.3898240311",
    "longitude": "126.7812550601",
    "image": "http://tong.visitkorea.or.kr/cms/resource/09/3528809_image2_1.jpg",
    "category": "문화관광축제",
    "eventstartdate": "",
    "eventenddate": ""
  },
  {
    "id": "506670",
    "title": "안동국제탈춤페스티벌",
    "address": "경상북도 안동시 육사로 239 (운흥동)",
    "phone": "054-840-3400",
    "latitude": "36.5598357689",
    "longitude": "128.7307977849",
    "image": "http://tong.visitkorea.or.kr/cms/resource/04/3520004_image2_1.JPG",
    "category": "문화관광축제",
    "eventstartdate": "",
    "eventenddate": ""
  },
  {
    "id": "506690",
    "title": "안성맞춤 남사당 바우덕이축제",
    "address": "경기도 안성시 보개면 남사당로 198",
    "phone": "031-678-5414",
    "latitude": "37.0336857086",
    "longitude": "127.3054285825",
    "image": "http://tong.visitkorea.or.kr/cms/resource/54/3540554_image2_1.JPG",
    "category": "문화관광축제",
    "eventstartdate": "",
    "eventenddate": ""
  },
  {
    "id": "507599",
    "title": "얼음나라화천 산천어축제",
    "address": "강원특별자치도 화천군 화천읍 산천어길 137",
    "phone": "1688-3005",
    "latitude": "38.1126818434",
    "longitude": "127.7099022603",
    "image": "http://tong.visitkorea.or.kr/cms/resource/00/3064900_image2_1.png",
    "category": "문화관광축제",
    "eventstartdate": "",
    "eventenddate": ""
  },
  {
    "id": "1147035",
    "title": "여주오곡나루축제",
    "address": "경기도 여주시 천송동",
    "phone": "031-881-9694",
    "latitude": "37.2991725260",
    "longitude": "127.6557727420",
    "image": "http://tong.visitkorea.or.kr/cms/resource/63/3546463_image2_1.JPG",
    "category": "문화관광축제",
    "eventstartdate": "",
    "eventenddate": ""
  },
  {
    "id": "534220",
    "title": "연천구석기축제",
    "address": "경기도 연천군 전곡읍 양연로 1510",
    "phone": "1588-7890",
    "latitude": "38.0122815870",
    "longitude": "127.0611506837",
    "image": "http://tong.visitkorea.or.kr/cms/resource/24/3115324_image2_1.jpg",
    "category": "문화관광축제",
    "eventstartdate": "",
    "eventenddate": ""
  },
  {
    "id": "293084",
    "title": "영동난계국악축제",
    "address": "충청북도 영동군 심천면 국악로1길 33",
    "phone": "043-745-8917",
    "latitude": "36.2117843308",
    "longitude": "127.7014657782",
    "image": "http://tong.visitkorea.or.kr/cms/resource/46/3520746_image2_1.jpg",
    "category": "문화관광축제",
    "eventstartdate": "",
    "eventenddate": ""
  },
  {
    "id": "525445",
    "title": "영암왕인문화축제",
    "address": "전라남도 영암군 군서면 왕인로 440",
    "phone": "061-470-2346",
    "latitude": "34.7576444552",
    "longitude": "126.6282150035",
    "image": "http://tong.visitkorea.or.kr/cms/resource/00/3480300_image2_1.jpg",
    "category": "문화관광축제",
    "eventstartdate": "",
    "eventenddate": ""
  },
  {
    "id": "506774",
    "title": "울산옹기축제",
    "address": "울산광역시 울주군 온양읍 외고산3길 36",
    "phone": "052-980-2233",
    "latitude": "35.4351011832",
    "longitude": "129.2795426459",
    "image": "http://tong.visitkorea.or.kr/cms/resource/16/3495316_image2_1.JPG",
    "category": "문화관광축제",
    "eventstartdate": "",
    "eventenddate": ""
  },
  {
    "id": "3104107",
    "title": "울산태화강마두희축제",
    "address": "울산광역시 중구 문화의거리 38 (옥교동)",
    "phone": "052-244-2007",
    "latitude": "35.5569549550",
    "longitude": "129.3219466364",
    "image": "http://tong.visitkorea.or.kr/cms/resource/63/3493263_image2_1.JPG",
    "category": "문화관광축제",
    "eventstartdate": "",
    "eventenddate": ""
  },
  {
    "id": "141731",
    "title": "음성품바축제",
    "address": "충청북도 음성군 음성읍 설성공원길 28",
    "phone": "043-871-3415",
    "latitude": "36.9327654263",
    "longitude": "127.6910022374",
    "image": "http://tong.visitkorea.or.kr/cms/resource/85/3485785_image2_1.jpg",
    "category": "문화관광축제",
    "eventstartdate": "",
    "eventenddate": ""
  },
  {
    "id": "561027",
    "title": "인천펜타포트 락 페스티벌",
    "address": "인천광역시 연수구 센트럴로 350",
    "phone": "032-899-7423",
    "latitude": "37.4078332011",
    "longitude": "126.6324847807",
    "image": "http://tong.visitkorea.or.kr/cms/resource/31/3502831_image2_1.jpg",
    "category": "문화관광축제",
    "eventstartdate": "",
    "eventenddate": ""
  },
  {
    "id": "2031318",
    "title": "임실N치즈축제",
    "address": "전북특별자치도 임실군 성수면 도인2길 50",
    "phone": "063-643-3900",
    "latitude": "35.6316127139",
    "longitude": "127.3017917839",
    "image": "http://tong.visitkorea.or.kr/cms/resource/54/3377054_image2_1.png",
    "category": "문화관광축제",
    "eventstartdate": "",
    "eventenddate": ""
  },
  {
    "id": "763974",
    "title": "장수한우랑사과랑축제",
    "address": "전북특별자치도 장수군 장수읍 한누리로 378",
    "phone": "063-350-2356",
    "latitude": "35.6402571963",
    "longitude": "127.5190834126",
    "image": "http://tong.visitkorea.or.kr/cms/resource/91/3519591_image2_1.jpg",
    "category": "문화관광축제",
    "eventstartdate": "",
    "eventenddate": ""
  },
  {
    "id": "767114",
    "title": "정남진 장흥 물축제",
    "address": "전라남도 장흥군 장흥읍 건산리",
    "phone": "061-864-5770",
    "latitude": "34.6777524686",
    "longitude": "126.9046037311",
    "image": "http://tong.visitkorea.or.kr/cms/resource/08/3497508_image2_1.JPG",
    "category": "문화관광축제",
    "eventstartdate": "",
    "eventenddate": ""
  },
  {
    "id": "506895",
    "title": "정선아리랑제",
    "address": "강원특별자치도 정선군 정선읍 봉양리",
    "phone": "033-560-3013",
    "latitude": "37.3772491246",
    "longitude": "128.6659266757",
    "image": "http://tong.visitkorea.or.kr/cms/resource/81/3524181_image2_1.jpg",
    "category": "문화관광축제",
    "eventstartdate": "",
    "eventenddate": ""
  },
  {
    "id": "506909",
    "title": "진도신비의바닷길축제",
    "address": "전라남도 진도군 고군면 신비의바닷길 74",
    "phone": "061-540-3408",
    "latitude": "34.4337624333",
    "longitude": "126.3529497745",
    "image": "http://tong.visitkorea.or.kr/cms/resource/89/3479589_image2_1.jpg",
    "category": "문화관광축제",
    "eventstartdate": "",
    "eventenddate": ""
  },
  {
    "id": "1718060",
    "title": "진안홍삼축제",
    "address": "전북특별자치도 진안군 진안읍 마이산로 160",
    "phone": "063-430-2392",
    "latitude": "35.7730819880",
    "longitude": "127.4162612489",
    "image": "http://tong.visitkorea.or.kr/cms/resource/02/3535902_image2_1.jpg",
    "category": "문화관광축제",
    "eventstartdate": "",
    "eventenddate": ""
  },
  {
    "id": "506926",
    "title": "진주남강유등축제",
    "address": "경상남도 진주시 남강로 626 (본성동)",
    "phone": "055-755-9111,761-9111",
    "latitude": "35.1905317730",
    "longitude": "128.0801041570",
    "image": "http://tong.visitkorea.or.kr/cms/resource/47/3535847_image2_1.JPG",
    "category": "문화관광축제",
    "eventstartdate": "",
    "eventenddate": ""
  },
  {
    "id": "506935",
    "title": "천안흥타령춤축제",
    "address": "충청남도 천안시 서북구 번영로 208 (백석동)",
    "phone": "1566-0155",
    "latitude": "36.8194930438",
    "longitude": "127.1114686823",
    "image": "http://tong.visitkorea.or.kr/cms/resource/93/3525293_image2_1.jpg",
    "category": "문화관광축제",
    "eventstartdate": "",
    "eventenddate": ""
  },
  {
    "id": "1882134",
    "title": "철원 한탄강 얼음트레킹 축제",
    "address": "강원특별자치도 철원군 동송읍 장흥리 25-203",
    "phone": "033-455-7072",
    "latitude": "38.1891513118",
    "longitude": "127.2949601763",
    "image": "http://tong.visitkorea.or.kr/cms/resource/96/3105196_image2_1.jpg",
    "category": "문화관광축제",
    "eventstartdate": "",
    "eventenddate": ""
  },
  {
    "id": "921212",
    "title": "청송사과축제",
    "address": "경상북도 청송군 청송읍 월막리",
    "phone": "054-870-6237",
    "latitude": "36.4325314295",
    "longitude": "129.0557532489",
    "image": "http://tong.visitkorea.or.kr/cms/resource/98/3533798_image2_1.jpg",
    "category": "문화관광축제",
    "eventstartdate": "",
    "eventenddate": ""
  },
  {
    "id": "506942",
    "title": "춘천마임축제",
    "address": "강원특별자치도 춘천시 중도동",
    "phone": "033-242-0585",
    "latitude": "37.8913435587",
    "longitude": "127.7001042023",
    "image": "http://tong.visitkorea.or.kr/cms/resource/56/3483056_image2_1.jpg",
    "category": "문화관광축제",
    "eventstartdate": "",
    "eventenddate": ""
  },
  {
    "id": "140930",
    "title": "탐라문화제",
    "address": "제주특별자치도 제주시 일도일동",
    "phone": "064-753-3287",
    "latitude": "33.5132372513",
    "longitude": "126.5273030637",
    "image": "http://tong.visitkorea.or.kr/cms/resource/77/3559977_image2_1.jpg",
    "category": "문화관광축제",
    "eventstartdate": "",
    "eventenddate": ""
  },
  {
    "id": "507454",
    "title": "통영한산대첩축제",
    "address": "경상남도 통영시 통영해안로 267 (항남동)",
    "phone": "055-646-1592",
    "latitude": "34.8404410623",
    "longitude": "128.4246527027",
    "image": "http://tong.visitkorea.or.kr/cms/resource/70/3497970_image2_1.jpg",
    "category": "문화관광축제",
    "eventstartdate": "",
    "eventenddate": ""
  },
  {
    "id": "386053",
    "title": "평창송어축제",
    "address": "강원특별자치도 평창군 진부면 경강로 3562",
    "phone": "033-336-4000",
    "latitude": "37.6332341484",
    "longitude": "128.5570176323",
    "image": "http://tong.visitkorea.or.kr/cms/resource/80/3444080_image2_1.jpg",
    "category": "문화관광축제",
    "eventstartdate": "",
    "eventenddate": ""
  },
  {
    "id": "507635",
    "title": "평창효석문화제",
    "address": "강원특별자치도 평창군 봉평면 이효석길 157",
    "phone": "033-335-2323",
    "latitude": "37.6140939318",
    "longitude": "128.3716182694",
    "image": "http://tong.visitkorea.or.kr/cms/resource/28/3523028_image2_1.jpg",
    "category": "문화관광축제",
    "eventstartdate": "",
    "eventenddate": ""
  },
  {
    "id": "588175",
    "title": "포항국제불빛축제",
    "address": "경상북도 포항시 남구 해도동",
    "phone": "054-289-7852~5",
    "latitude": "36.0177762143",
    "longitude": "129.3745066592",
    "image": "http://tong.visitkorea.or.kr/cms/resource/88/3484788_image2_1.jpg",
    "category": "문화관광축제",
    "eventstartdate": "",
    "eventenddate": ""
  },
  {
    "id": "507383",
    "title": "하동야생차문화축제",
    "address": "경상남도 하동군 화개면 쌍계로 571-27",
    "phone": "055-880-6583",
    "latitude": "35.2265144741",
    "longitude": "127.6434693562",
    "image": "http://tong.visitkorea.or.kr/cms/resource/30/3486030_image2_1.png",
    "category": "문화관광축제",
    "eventstartdate": "",
    "eventenddate": ""
  },
  {
    "id": "507480",
    "title": "한산모시문화제",
    "address": "충청남도 서천군 한산면 충절로 1089",
    "phone": "041-957-9045",
    "latitude": "36.0799251950",
    "longitude": "126.7987054614",
    "image": "http://tong.visitkorea.or.kr/cms/resource/56/3490056_image2_1.jpg",
    "category": "문화관광축제",
    "eventstartdate": "",
    "eventenddate": ""
  },
  {
    "id": "507598",
    "title": "함평나비대축제",
    "address": "전라남도 함평군 함평읍 곤재로 27",
    "phone": "061-320-2247",
    "latitude": "35.0592031554",
    "longitude": "126.5222114574",
    "image": "http://tong.visitkorea.or.kr/cms/resource/11/3460511_image2_1.JPG",
    "category": "문화관광축제",
    "eventstartdate": "",
    "eventenddate": ""
  },
  {
    "id": "1811380",
    "title": "화성 뱃놀이 축제",
    "address": "경기도 화성시 서신면 전곡항로 5",
    "phone": "070-7733-0390",
    "latitude": "37.1855870833",
    "longitude": "126.6510336560",
    "image": "http://tong.visitkorea.or.kr/cms/resource/56/3484056_image2_1.jpg",
    "category": "문화관광축제",
    "eventstartdate": "",
    "eventenddate": ""
  }
]