[
  {
    "id": "3553728",
    "title": "경기 김치페스타",
    "address": "경기도 수원시 영통구 광교중앙로 140 (하동)",
    "phone": "031-774-3312",
    "latitude": "37.2858799237",
    "longitude": "127.0594632301",
    "image": "http://tong.visitkorea.or.kr/cms/resource/26/3553726_image2_1.jpg",
    "category": "박람회",
    "eventstartdate": "20251109",
    "eventenddate": "20251109"
  },
  {
    "id": "3368470",
    "title": "경기미디저트페스타",
    "address": "경기도 수원시 영통구 광교중앙로 140 (하동)",
    "phone": "031-774-3312",
    "latitude": "37.2858799237",
    "longitude": "127.0594632301",
    "image": "http://tong.visitkorea.or.kr/cms/resource/35/3531335_image2_1.jpg",
    "category": "박람회",
    "eventstartdate": "20251025",
    "eventenddate": "20251026"
  },
  {
    "id": "2740921",
    "title": "부산과학축전",
    "address": "부산광역시 해운대구 APEC로 55 (우동)",
    "phone": "051-501-3124",
    "latitude": "35.1687450332",
    "longitude": "129.1355209016",
    "image": "http://tong.visitkorea.or.kr/cms/resource/17/3485917_image2_1.png",
    "category": "박람회",
    "eventstartdate": "20250412",
    "eventenddate": "20250413"
  },
  {
    "id": "2736033",
    "title": "부산인디커넥트페스티벌",
    "address": "부산광역시 해운대구 APEC로 55 (우동)",
    "phone": "070-8855-5058",
    "latitude": "35.1687450332",
    "longitude": "129.1355209016",
    "image": "http://tong.visitkorea.or.kr/cms/resource/37/3510437_image2_1.jpg",
    "category": "박람회",
    "eventstartdate": "20250808",
    "eventenddate": "20250829"
  },
  {
    "id": "3492576",
    "title": "부산일러스트레이션페어V.6",
    "address": "부산광역시 해운대구 APEC로 55 (우동)",
    "phone": "02-2602-8602",
    "latitude": "35.1687450332",
    "longitude": "129.1355209016",
    "image": "http://tong.visitkorea.or.kr/cms/resource/70/3492570_image2_1.png",
    "category": "박람회",
    "eventstartdate": "20251121",
    "eventenddate": "20251123"
  },
  {
    "id": "3514951",
    "title": "일러스타 페스 8",
    "address": "부산광역시 해운대구 APEC로 55 (우동)",
    "phone": "070-8287-2270",
    "latitude": "35.1687450332",
    "longitude": "129.1355209016",
    "image": "http://tong.visitkorea.or.kr/cms/resource/48/3514948_image2_1.JPG",
    "category": "박람회",
    "eventstartdate": "20250809",
    "eventenddate": "20250810"
  },
  {
    "id": "2658426",
    "title": "제10회 푸드테크 베지노믹스페어 (비건페스타ㅣ그린페스타ㅣESG푸드페스타)",
    "address": "서울특별시 서초구 강남대로 27 (양재동)",
    "phone": "02-2223-1851~3",
    "latitude": "37.4673918780",
    "longitude": "127.0407514903",
    "image": "http://tong.visitkorea.or.kr/cms/resource/14/3468414_image2_1.png",
    "category": "박람회",
    "eventstartdate": "20250502",
    "eventenddate": "20250504"
  },
  {
    "id": "3553159",
    "title": "제14회 서산 아시아조류박람회",
    "address": "충청남도 서산시 부석면 천수만로 655-73",
    "phone": "041-661-8291",
    "latitude": "36.6295604792",
    "longitude": "126.3783344188",
    "image": "http://tong.visitkorea.or.kr/cms/resource/57/3553157_image2_1.png",
    "category": "박람회",
    "eventstartdate": "20251101",
    "eventenddate": "20251102"
  },
  {
    "id": "2816127",
    "title": "제17회 해피사이언스축제",
    "address": "경기도 과천시 상하벌로 110 (과천동)",
    "phone": "010-5535-6941",
    "latitude": "37.4408665329",
    "longitude": "127.0047138503",
    "image": "http://tong.visitkorea.or.kr/cms/resource/68/3486768_image2_1.png",
    "category": "박람회",
    "eventstartdate": "20250419",
    "eventenddate": "20250420"
  },
  {
    "id": "1907888",
    "title": "제20회 부산도시농업박람회",
    "address": "부산광역시 강서구 대저1동",
    "phone": "051-503-0885",
    "latitude": "35.2074379128",
    "longitude": "128.9847274107",
    "image": "http://tong.visitkorea.or.kr/cms/resource/20/3108920_image2_1.jpg",
    "category": "박람회",
    "eventstartdate": "20240412",
    "eventenddate": "20240414"
  },
  {
    "id": "3318880",
    "title": "제7회 농촌융복합산업 제주국제박람회",
    "address": "제주특별자치도 서귀포시 중문관광로 224 (중문동)",
    "phone": "",
    "latitude": "33.2412795735",
    "longitude": "126.4244820031",
    "image": "http://tong.visitkorea.or.kr/cms/resource/07/3496307_image2_1.png",
    "category": "박람회",
    "eventstartdate": "20250711",
    "eventenddate": "20250713"
  },
  {
    "id": "3516637",
    "title": "제천국제한방천연물산업엑스포",
    "address": "충청북도 제천시 한방엑스포로 19 (왕암동)",
    "phone": "043-640-0808",
    "latitude": "37.1442275073",
    "longitude": "128.1596679322",
    "image": "http://tong.visitkorea.or.kr/cms/resource/36/3516636_image2_1.jpg",
    "category": "박람회",
    "eventstartdate": "20250920",
    "eventenddate": "20251019"
  },
  {
    "id": "3489505",
    "title": "해양레저관광 박람회",
    "address": "서울특별시 강남구 남부순환로 3104 (대치동)",
    "phone": "02-785-5801",
    "latitude": "37.4960890861",
    "longitude": "127.0707673919",
    "image": "http://tong.visitkorea.or.kr/cms/resource/03/3489503_image2_1.jpg",
    "category": "박람회",
    "eventstartdate": "20250507",
    "eventenddate": "20250510"
  },
  {
    "id": "3020205",
    "title": "호캠프 트래블",
    "address": "충청남도 보령시 성주면 심원계곡로 342",
    "phone": "010-4514-7074",
    "latitude": "36.3476480299",
    "longitude": "126.6782814690",
    "image": "http://tong.visitkorea.or.kr/cms/resource/83/3539983_image2_1.png",
    "category": "박람회",
    "eventstartdate": "20251017",
    "eventenddate": "20251019"
  },
  {
    "id": "1427601",
    "title": "2024 내나라 여행박람회",
    "address": "서울특별시 서초구 강남대로 27 (양재동)",
    "phone": "02-3445-1513",
    "latitude": "37.4673918780",
    "longitude": "127.0407514903",
    "image": "http://tong.visitkorea.or.kr/cms/resource/88/3109488_image2_1.jpg",
    "category": "박람회",
    "eventstartdate": "20240328",
    "eventenddate": "20240331"
  },
  {
    "id": "2034306",
    "title": "2024 메이커 페어 서울 (Maker Faire Seoul 2024)",
    "address": "서울특별시 중구 마장로 22 (신당동)",
    "phone": "",
    "latitude": "37.5673186485",
    "longitude": "127.0121262683",
    "image": "http://tong.visitkorea.or.kr/cms/resource/79/3375379_image2_1.jpg",
    "category": "박람회",
    "eventstartdate": "20241012",
    "eventenddate": "20241013"
  },
  {
    "id": "3343389",
    "title": "2024 인천낚시박람회",
    "address": "인천광역시 연수구 센트럴로 123 (송도동)",
    "phone": "02-2284-0019",
    "latitude": "37.3900244069",
    "longitude": "126.6466173186",
    "image": "http://tong.visitkorea.or.kr/cms/resource/88/3343388_image2_1.jpg",
    "category": "박람회",
    "eventstartdate": "20240823",
    "eventenddate": "20240825"
  },
  {
    "id": "3532272",
    "title": "2025 경기콘텐츠페스티벌",
    "address": "경기도 수원시 영통구 광교중앙로 140 (하동)",
    "phone": "070-7575-3102",
    "latitude": "37.2858799237",
    "longitude": "127.0594632301",
    "image": "http://tong.visitkorea.or.kr/cms/resource/67/3532267_image2_1.png",
    "category": "박람회",
    "eventstartdate": "20250926",
    "eventenddate": "20250927"
  },
  {
    "id": "2515174",
    "title": "2025 대한민국 AI교육 페스티벌",
    "address": "경기도 고양시 일산서구 킨텍스로 217-60 (대화동)",
    "phone": "010-4045-6953",
    "latitude": "37.6689881691",
    "longitude": "126.7458171427",
    "image": "http://tong.visitkorea.or.kr/cms/resource/58/3562158_image2_1.jpg",
    "category": "박람회",
    "eventstartdate": "20251121",
    "eventenddate": "20251122"
  },
  {
    "id": "2854855",
    "title": "2025 대한민국 관광기념품 박람회",
    "address": "서울특별시 중구 을지로 281 (을지로7가)",
    "phone": "010-8315-5434",
    "latitude": "37.5661076320",
    "longitude": "127.0095709797",
    "image": "http://tong.visitkorea.or.kr/cms/resource/83/3550583_image2_1.jpg",
    "category": "박람회",
    "eventstartdate": "20251121",
    "eventenddate": "20251123"
  },
  {
    "id": "3445385",
    "title": "2025 대한민국 라면박람회",
    "address": "서울특별시 강서구 마곡중앙로 143 (마곡동)",
    "phone": "1577-3284",
    "latitude": "37.5667792585",
    "longitude": "126.8254071964",
    "image": "http://tong.visitkorea.or.kr/cms/resource/15/3459615_image2_1.jpg",
    "category": "박람회",
    "eventstartdate": "20250404",
    "eventenddate": "20250406"
  },
  {
    "id": "2754710",
    "title": "2025 대한민국 산림박람회",
    "address": "경기도 광주시 곤지암읍 경충대로 727",
    "phone": "02-482-7647",
    "latitude": "37.3526075818",
    "longitude": "127.3276231368",
    "image": "http://tong.visitkorea.or.kr/cms/resource/64/3537064_image2_1.png",
    "category": "박람회",
    "eventstartdate": "20251018",
    "eventenddate": "20251021"
  },
  {
    "id": "2769990",
    "title": "2025 대한민국 우리술 대축제",
    "address": "서울특별시 서초구 강남대로 27 (양재동)",
    "phone": "02-6952-9498",
    "latitude": "37.4673918780",
    "longitude": "127.0407514903",
    "image": "http://tong.visitkorea.or.kr/cms/resource/72/3550272_image2_1.jpg",
    "category": "박람회",
    "eventstartdate": "20251114",
    "eventenddate": "20251116"
  },
  {
    "id": "3494070",
    "title": "2025 대한민국 정원산업박람회",
    "address": "경상남도 진주시 초전동",
    "phone": "070-7954-9396",
    "latitude": "35.2052392689",
    "longitude": "128.1260219643",
    "image": "http://tong.visitkorea.or.kr/cms/resource/64/3494064_image2_1.jpg",
    "category": "박람회",
    "eventstartdate": "20250613",
    "eventenddate": "20250622"
  },
  {
    "id": "2807078",
    "title": "2025 대한민국불교문화엑스포",
    "address": "대구광역시 북구 엑스코로 10 (산격동)",
    "phone": "02-2231-2013",
    "latitude": "35.9071133308",
    "longitude": "128.6130989730",
    "image": "http://tong.visitkorea.or.kr/cms/resource/20/3503220_image2_1.jpg",
    "category": "박람회",
    "eventstartdate": "20250911",
    "eventenddate": "20250914"
  },
  {
    "id": "2488793",
    "title": "2025 도시농업박람회",
    "address": "서울특별시 동작구 여의대방로20길 35 (신대방동)",
    "phone": "02-6358-7775",
    "latitude": "37.4941643613",
    "longitude": "126.9186590718",
    "image": "http://tong.visitkorea.or.kr/cms/resource/47/3493147_image2_1.png",
    "category": "박람회",
    "eventstartdate": "20250530",
    "eventenddate": "20250531"
  },
  {
    "id": "3517340",
    "title": "2025 동서화합 영·호남 문화예술관광박람회",
    "address": "전라남도 담양군 담양읍 죽녹원로 134",
    "phone": "062-945-5670",
    "latitude": "35.3256086468",
    "longitude": "126.9880941182",
    "image": "http://tong.visitkorea.or.kr/cms/resource/38/3517338_image2_1.jpg",
    "category": "박람회",
    "eventstartdate": "20250919",
    "eventenddate": "20250921"
  },
  {
    "id": "2387785",
    "title": "2025 보드게임콘",
    "address": "서울특별시 강남구 영동대로 513 (삼성동)",
    "phone": "070-8611-9803",
    "latitude": "37.5119175967",
    "longitude": "127.0592179950",
    "image": "http://tong.visitkorea.or.kr/cms/resource/49/3500649_image2_1.jpg",
    "category": "박람회",
    "eventstartdate": "20250717",
    "eventenddate": "20250720"
  },
  {
    "id": "2410727",
    "title": "2025 보드게임페스타(세텍)",
    "address": "서울특별시 강남구 남부순환로 3104 (대치동)",
    "phone": "070-8611-9803",
    "latitude": "37.4960890861",
    "longitude": "127.0707673919",
    "image": "http://tong.visitkorea.or.kr/cms/resource/14/3534514_image2_1.jpg",
    "category": "박람회",
    "eventstartdate": "20251025",
    "eventenddate": "20251026"
  },
  {
    "id": "2644679",
    "title": "2025 부산국제불교박람회",
    "address": "부산광역시 해운대구 APEC로 55 (우동)",
    "phone": "02-2231-2013",
    "latitude": "35.1687450332",
    "longitude": "129.1355209016",
    "image": "http://tong.visitkorea.or.kr/cms/resource/32/3504932_image2_1.jpg",
    "category": "박람회",
    "eventstartdate": "20250807",
    "eventenddate": "20250810"
  },
  {
    "id": "3494832",
    "title": "2025 부산국제의료관광컨벤션",
    "address": "부산광역시 해운대구 APEC로 55 (우동)",
    "phone": "070-5221-0047",
    "latitude": "35.1687450332",
    "longitude": "129.1355209016",
    "image": "http://tong.visitkorea.or.kr/cms/resource/28/3494828_image2_1.png",
    "category": "박람회",
    "eventstartdate": "20250905",
    "eventenddate": "20250906"
  },
  {
    "id": "3552019",
    "title": "2025 뷰티썸 수원",
    "address": "경기도 수원시 영통구 광교중앙로 140 (하동)",
    "phone": "02-6121-6418",
    "latitude": "37.2858799237",
    "longitude": "127.0594632301",
    "image": "http://tong.visitkorea.or.kr/cms/resource/08/3552008_image2_1.png",
    "category": "박람회",
    "eventstartdate": "20251031",
    "eventenddate": "20251102"
  },
  {
    "id": "2787200",
    "title": "2025 서울국제정원박람회",
    "address": "서울특별시 동작구 여의대방로20길 33 (신대방동)",
    "phone": "02-521-4626",
    "latitude": "37.4949448412",
    "longitude": "126.9195061947",
    "image": "http://tong.visitkorea.or.kr/cms/resource/16/3484816_image2_1.png",
    "category": "박람회",
    "eventstartdate": "20250522",
    "eventenddate": "20251102"
  },
  {
    "id": "2868776",
    "title": "2025 영호남 전통시장 박람회",
    "address": "부산광역시 부산진구 시민공원로 73 (범전동)",
    "phone": "051-635-5331",
    "latitude": "35.1652745207",
    "longitude": "129.0567056306",
    "image": "http://tong.visitkorea.or.kr/cms/resource/71/3553771_image2_1.jpg",
    "category": "박람회",
    "eventstartdate": "20251031",
    "eventenddate": "20251102"
  },
  {
    "id": "3367339",
    "title": "2025 우리쌀 우리술 K-라이스페스타",
    "address": "경기도 고양시 일산서구 킨텍스로 217-60 (대화동)",
    "phone": "070-4681-5717",
    "latitude": "37.6689881691",
    "longitude": "126.7458171427",
    "image": "http://tong.visitkorea.or.kr/cms/resource/29/3532329_image2_1.jpg",
    "category": "박람회",
    "eventstartdate": "20251128",
    "eventenddate": "20251130"
  },
  {
    "id": "3396705",
    "title": "2025 울산문화박람회",
    "address": "울산광역시 울주군 삼남읍 울산역로 255",
    "phone": "052-255-1943",
    "latitude": "35.5556598644",
    "longitude": "129.1316827314",
    "image": "http://tong.visitkorea.or.kr/cms/resource/38/3567838_image2_1.jpg",
    "category": "박람회",
    "eventstartdate": "20251204",
    "eventenddate": "20251207"
  },
  {
    "id": "1129018",
    "title": "2025 인천국제디자인페어",
    "address": "인천광역시 남동구 예술로 149 (구월동)",
    "phone": "070-4895-0879",
    "latitude": "37.4476658767",
    "longitude": "126.7000414057",
    "image": "http://tong.visitkorea.or.kr/cms/resource/80/3525480_image2_1.jpg",
    "category": "박람회",
    "eventstartdate": "20251030",
    "eventenddate": "20251101"
  },
  {
    "id": "3525093",
    "title": "2025 제주식품대전 with 맥주축제",
    "address": "제주특별자치도 서귀포시 중문관광로 93 (색달동)",
    "phone": "064-805-3353",
    "latitude": "33.2520782258",
    "longitude": "126.4145798438",
    "image": "http://tong.visitkorea.or.kr/cms/resource/92/3525092_image2_1.jpg",
    "category": "박람회",
    "eventstartdate": "20250905",
    "eventenddate": "20250907"
  },
  {
    "id": "3522254",
    "title": "2025 충청북도 정원박람회",
    "address": "충청북도 제천시 한방엑스포로 19 (왕암동)",
    "phone": "043-212-7893",
    "latitude": "37.1442275073",
    "longitude": "128.1596679322",
    "image": "http://tong.visitkorea.or.kr/cms/resource/87/3524987_image2_1.png",
    "category": "박람회",
    "eventstartdate": "20250924",
    "eventenddate": "20250928"
  },
  {
    "id": "2360200",
    "title": "2025 캠핑&피크닉페어",
    "address": "경기도 고양시 일산서구 킨텍스로 217-59 (대화동)",
    "phone": "02-796-8710",
    "latitude": "37.6647497067",
    "longitude": "126.7420787151",
    "image": "http://tong.visitkorea.or.kr/cms/resource/80/3461680_image2_1.jpg",
    "category": "박람회",
    "eventstartdate": "20250313",
    "eventenddate": "20250316"
  },
  {
    "id": "3525030",
    "title": "2025년 제1회 한국 마늘 산업 박람회",
    "address": "경상북도 영천시 운동장로 60 (교촌동)",
    "phone": "044-868-6332",
    "latitude": "35.9674317325",
    "longitude": "128.9242421022",
    "image": "http://tong.visitkorea.or.kr/cms/resource/29/3525029_image2_1.jpg",
    "category": "박람회",
    "eventstartdate": "20250825",
    "eventenddate": "20250827"
  },
  {
    "id": "3369559",
    "title": "K-푸드페스타",
    "address": "서울특별시 강서구 마곡중앙로 143 (마곡동)",
    "phone": "02-761-2514~5",
    "latitude": "37.5667792585",
    "longitude": "126.8254071964",
    "image": "http://tong.visitkorea.or.kr/cms/resource/58/3369558_image2_1.jpg",
    "category": "박람회",
    "eventstartdate": "20250829",
    "eventenddate": "20250831"
  }
]