[
  {
    "id": "2487911",
    "title": "여성마라톤대회",
    "address": "서울특별시 마포구 월드컵로 251 (성산동)",
    "phone": "02-2036-9214",
    "latitude": "37.5659583996",
    "longitude": "126.8964785141",
    "image": "http://tong.visitkorea.or.kr/cms/resource/00/3480400_image2_1.jpg",
    "category": "스포츠경기",
    "eventstartdate": "20250503",
    "eventenddate": "20250503"
  },
  {
    "id": "2617883",
    "title": "전남GT",
    "address": "전라남도 영암군 삼호읍 에프원로 2",
    "phone": "010-5530-9537",
    "latitude": "34.7475337379",
    "longitude": "126.4141813511",
    "image": "http://tong.visitkorea.or.kr/cms/resource/63/3536363_image2_1.jpg",
    "category": "스포츠경기",
    "eventstartdate": "20250920",
    "eventenddate": "20250921"
  },
  {
    "id": "3116038",
    "title": "휠러스페스티벌",
    "address": "충청북도 보은군 회인면 회인로 24",
    "phone": "043-542-3103",
    "latitude": "36.4897534779",
    "longitude": "127.5977035276",
    "image": "http://tong.visitkorea.or.kr/cms/resource/56/3491856_image2_1.png",
    "category": "스포츠경기",
    "eventstartdate": "20250607",
    "eventenddate": "20250608"
  },
  {
    "id": "3497739",
    "title": "2025 K-다트 페스티벌",
    "address": "인천광역시 연수구 센트럴로 123 (송도동)",
    "phone": "02-6124-6721",
    "latitude": "37.3900244069",
    "longitude": "126.6466173186",
    "image": "http://tong.visitkorea.or.kr/cms/resource/36/3497736_image2_1.jpg",
    "category": "스포츠경기",
    "eventstartdate": "20250705",
    "eventenddate": "20250706"
  },
  {
    "id": "3470738",
    "title": "2025 국민고향 남해 마시고 RUN",
    "address": "경상남도 남해군 창선면 동부대로 2308",
    "phone": "070-8893-2437",
    "latitude": "34.8622341614",
    "longitude": "128.0160572268",
    "image": "http://tong.visitkorea.or.kr/cms/resource/43/3478743_image2_1.jpg",
    "category": "스포츠경기",
    "eventstartdate": "20250426",
    "eventenddate": "20250426"
  },
  {
    "id": "2865520",
    "title": "2025 단양레이크파크 수상페스티벌",
    "address": "충청북도 단양군 단양읍 상진리",
    "phone": "043-421-7330",
    "latitude": "36.9799499876",
    "longitude": "128.3514221857",
    "image": "http://tong.visitkorea.or.kr/cms/resource/60/3501060_image2_1.jpeg",
    "category": "스포츠경기",
    "eventstartdate": "20250801",
    "eventenddate": "20250803"
  },
  {
    "id": "3114675",
    "title": "2025 컬러레이스",
    "address": "부산광역시 강서구 가락대로 929 (범방동)",
    "phone": "051-850-9347",
    "latitude": "35.1548752485",
    "longitude": "128.8819461313",
    "image": "http://tong.visitkorea.or.kr/cms/resource/24/3480224_image2_1.png",
    "category": "스포츠경기",
    "eventstartdate": "20250524",
    "eventenddate": "20250524"
  },
  {
    "id": "3420072",
    "title": "2026 선양 맨몸마라톤",
    "address": "대전광역시 유성구 대덕대로 480 (도룡동)",
    "phone": "042-580-1827",
    "latitude": "36.3761070383",
    "longitude": "127.3797705782",
    "image": "http://tong.visitkorea.or.kr/cms/resource/57/3572757_image2_1.png",
    "category": "스포츠경기",
    "eventstartdate": "20260101",
    "eventenddate": "20260101"
  },
  {
    "id": "2992829",
    "title": "2026 인터내셔널 키스포츠페스티벌 대구",
    "address": "대구광역시 북구 엑스코로 10 (산격동)",
    "phone": "1811-6420",
    "latitude": "35.9071133308",
    "longitude": "128.6130989730",
    "image": "http://tong.visitkorea.or.kr/cms/resource/88/3579088_image2_1.png",
    "category": "스포츠경기",
    "eventstartdate": "20260411",
    "eventenddate": "20260412"
  },
  {
    "id": "2852365",
    "title": "DMZ RUN",
    "address": "경기도 파주시 문산읍 마정리",
    "phone": "02-540-3274",
    "latitude": "37.8934536801",
    "longitude": "126.7468134698",
    "image": "http://tong.visitkorea.or.kr/cms/resource/61/3335761_image2_1.png",
    "category": "스포츠경기",
    "eventstartdate": "20241005",
    "eventenddate": "20241006"
  }
]