[
  {
    "id": "3558562",
    "title": "도시숲 예술치유 <고요한 숨의 정원>",
    "address": "경기도 화성시 동탄순환대로 69 (송동)",
    "phone": "02-458-3315",
    "latitude": "37.1669527885",
    "longitude": "127.1024487705",
    "image": "http://tong.visitkorea.or.kr/cms/resource/61/3558561_image2_1.jpg",
    "category": "연극",
    "eventstartdate": "20251028",
    "eventenddate": "20251101"
  },
  {
    "id": "2543724",
    "title": "명주인형극제",
    "address": "강원특별자치도 강릉시 경강로2021번길 9-1 (명주동)",
    "phone": "033-823-3203",
    "latitude": "37.7504520359",
    "longitude": "128.8903006749",
    "image": "http://tong.visitkorea.or.kr/cms/resource/50/3505650_image2_1.jpg",
    "category": "연극",
    "eventstartdate": "20250820",
    "eventenddate": "20250824"
  },
  {
    "id": "142033",
    "title": "서울 아시테지 겨울축제",
    "address": "서울특별시 종로구 대학로12길 46 (동숭동)",
    "phone": "02-745-5863",
    "latitude": "37.5821140004",
    "longitude": "127.0037293912",
    "image": "http://tong.visitkorea.or.kr/cms/resource/38/3428338_image2_1.jpg",
    "category": "연극",
    "eventstartdate": "20241227",
    "eventenddate": "20250105"
  },
  {
    "id": "142193",
    "title": "서울프린지페스티벌2025",
    "address": "서울특별시 마포구 월드컵북로 75 (성산동)",
    "phone": "02-325-8150",
    "latitude": "37.5605066025",
    "longitude": "126.9158380144",
    "image": "http://tong.visitkorea.or.kr/cms/resource/26/3507626_image2_1.jpg",
    "category": "연극",
    "eventstartdate": "20250731",
    "eventenddate": "20250817"
  },
  {
    "id": "2829118",
    "title": "시민창작예술축제 학산마당극놀래",
    "address": "인천광역시 미추홀구 경인로 216-1 (도화동)",
    "phone": "032-866-3994",
    "latitude": "37.4631995872",
    "longitude": "126.6663190490",
    "image": "http://tong.visitkorea.or.kr/cms/resource/97/3525797_image2_1.jpg",
    "category": "연극",
    "eventstartdate": "20250927",
    "eventenddate": "20250927"
  },
  {
    "id": "3488421",
    "title": "쏙쏙들이페스티벌",
    "address": "경기도 파주시 탄현면 헤이리로 16",
    "phone": "031-870-9110",
    "latitude": "37.7833378215",
    "longitude": "126.6946991484",
    "image": "http://tong.visitkorea.or.kr/cms/resource/17/3563317_image2_1.png",
    "category": "연극",
    "eventstartdate": "20250426",
    "eventenddate": "20251227"
  },
  {
    "id": "1824778",
    "title": "제17회 통영연극예술축제",
    "address": "경상남도 통영시 남망공원길 29 (동호동)",
    "phone": "055-645-6379",
    "latitude": "34.8420742637",
    "longitude": "128.4275024122",
    "image": "http://tong.visitkorea.or.kr/cms/resource/11/3495211_image2_1.jpg",
    "category": "연극",
    "eventstartdate": "20250711",
    "eventenddate": "20250720"
  },
  {
    "id": "573459",
    "title": "제24회 유니마총회&춘천세계인형극제",
    "address": "강원특별자치도 춘천시 영서로 3017 (사농동)",
    "phone": "033-242-8452",
    "latitude": "37.9214543287",
    "longitude": "127.7207542053",
    "image": "http://tong.visitkorea.or.kr/cms/resource/19/3486919_image2_1.png",
    "category": "연극",
    "eventstartdate": "20250523",
    "eventenddate": "20250601"
  },
  {
    "id": "3395327",
    "title": "제5회 여주인공 페스티벌",
    "address": "서울특별시 종로구 대학로8가길 129 (동숭동)",
    "phone": "010-2183-1992",
    "latitude": "37.5803641996",
    "longitude": "127.0035405691",
    "image": "http://tong.visitkorea.or.kr/cms/resource/38/3394938_image2_1.jpg",
    "category": "연극",
    "eventstartdate": "20241104",
    "eventenddate": "20241215"
  },
  {
    "id": "2547013",
    "title": "한옥마을전통연희 퍼레이드-노상놀이야",
    "address": "전북특별자치도 전주시 완산구 태조로 44 (풍남동3가)",
    "phone": "063-236-1577 / 010-4348-3130",
    "latitude": "35.8142143363",
    "longitude": "127.1500366062",
    "image": "http://tong.visitkorea.or.kr/cms/resource/68/3485868_image2_1.jpg",
    "category": "연극",
    "eventstartdate": "20250412",
    "eventenddate": "20251025"
  },
  {
    "id": "1809861",
    "title": "2024춘천연극제",
    "address": "강원특별자치도 춘천시 서부대성로 71",
    "phone": "033-241-4345",
    "latitude": "37.8825368301",
    "longitude": "127.7312071874",
    "image": "http://tong.visitkorea.or.kr/cms/resource/13/3329813_image2_1.jpg",
    "category": "연극",
    "eventstartdate": "20240628",
    "eventenddate": "20241019"
  },
  {
    "id": "1825520",
    "title": "2025 경기인형극제",
    "address": "경기도 수원시 권선구 서둔로 166 (서둔동)",
    "phone": "070-4681-0675",
    "latitude": "37.2665807612",
    "longitude": "126.9811903187",
    "image": "http://tong.visitkorea.or.kr/cms/resource/88/3497488_image2_1.jpg",
    "category": "연극",
    "eventstartdate": "20250716",
    "eventenddate": "20250727"
  },
  {
    "id": "577335",
    "title": "2025 수원연극축제",
    "address": "경기도 수원시 권선구 서둔로 166 (서둔동)",
    "phone": "1588-4929",
    "latitude": "37.2665807612",
    "longitude": "126.9811903187",
    "image": "http://tong.visitkorea.or.kr/cms/resource/78/3487778_image2_1.jpg",
    "category": "연극",
    "eventstartdate": "20250517",
    "eventenddate": "20250518"
  }
]