[
  {
    "id": "2661307",
    "title": "국제해양영화제 (KIOFF)",
    "address": "부산광역시 영도구 해양로195번길 180 (동삼동)",
    "phone": "051-790-9433",
    "latitude": "35.0864309380",
    "longitude": "129.0767532647",
    "image": "http://tong.visitkorea.or.kr/cms/resource/78/3321078_image2_1.jpg",
    "category": "영화",
    "eventstartdate": "20240719",
    "eventenddate": "20240721"
  },
  {
    "id": "2874304",
    "title": "금천패션영화제",
    "address": "서울특별시 금천구 디지털로10길 9 (가산동)",
    "phone": "070-4118-3352",
    "latitude": "37.4776713039",
    "longitude": "126.8890705637",
    "image": "http://tong.visitkorea.or.kr/cms/resource/68/3520968_image2_1.jpg",
    "category": "영화",
    "eventstartdate": "20250912",
    "eventenddate": "20250914"
  },
  {
    "id": "3012429",
    "title": "남도영화제 시즌2 광양",
    "address": "전라남도 광양시 중마중앙로 99 (중동)",
    "phone": "061-727-2272",
    "latitude": "34.9390810874",
    "longitude": "127.6976497858",
    "image": "http://tong.visitkorea.or.kr/cms/resource/59/3536359_image2_1.jpg",
    "category": "영화",
    "eventstartdate": "20251023",
    "eventenddate": "20251027"
  },
  {
    "id": "3383748",
    "title": "다대포 선셋 영화 축제",
    "address": "부산광역시 사하구 다대로 지하692 (다대동)",
    "phone": "010-8859-2115",
    "latitude": "35.0482331719",
    "longitude": "128.9658500566",
    "image": "http://tong.visitkorea.or.kr/cms/resource/05/3502005_image2_1.jpg",
    "category": "영화",
    "eventstartdate": "20250808",
    "eventenddate": "20250810"
  },
  {
    "id": "3343831",
    "title": "대한민국AI국제영화제(KAIFF)",
    "address": "경기도 고양시 일산서구 킨텍스로 217-59 (대화동)",
    "phone": "1666-4598",
    "latitude": "37.6647497067",
    "longitude": "126.7420787151",
    "image": "http://tong.visitkorea.or.kr/cms/resource/25/3343825_image2_1.jpg",
    "category": "영화",
    "eventstartdate": "20241025",
    "eventenddate": "20241025"
  },
  {
    "id": "3515311",
    "title": "부산국제AI영화제",
    "address": "부산광역시 해운대구 수영강변대로 120 (우동)",
    "phone": "051-780-6115",
    "latitude": "35.1710029572",
    "longitude": "129.1270687971",
    "image": "http://tong.visitkorea.or.kr/cms/resource/10/3515310_image2_1.jpg",
    "category": "영화",
    "eventstartdate": "20251204",
    "eventenddate": "20251206"
  },
  {
    "id": "2719122",
    "title": "부산푸드필름페스타",
    "address": "부산광역시 해운대구 수영강변대로 120 (우동)",
    "phone": "051-710-6948",
    "latitude": "35.1710029572",
    "longitude": "129.1270687971",
    "image": "http://tong.visitkorea.or.kr/cms/resource/17/3492817_image2_1.jpg",
    "category": "영화",
    "eventstartdate": "20250613",
    "eventenddate": "20250615"
  },
  {
    "id": "2872078",
    "title": "인천 영화 주간 2025",
    "address": "인천광역시 연수구 청능대로 210 (동춘동)",
    "phone": "032-435-7172",
    "latitude": "37.4060509763",
    "longitude": "126.6836357236",
    "image": "http://tong.visitkorea.or.kr/cms/resource/64/3537264_image2_1.png",
    "category": "영화",
    "eventstartdate": "20251017",
    "eventenddate": "20251023"
  },
  {
    "id": "2555932",
    "title": "제10회 울산울주세계산악영화제",
    "address": "울산광역시 울주군 상북면 알프스온천5길 103-8",
    "phone": "055-248-6451",
    "latitude": "35.5565058027",
    "longitude": "129.0680049403",
    "image": "http://tong.visitkorea.or.kr/cms/resource/88/3513688_image2_1.jpg",
    "category": "영화",
    "eventstartdate": "20250926",
    "eventenddate": "20250930"
  },
  {
    "id": "3097834",
    "title": "제13회 디아스포라영화제",
    "address": "인천광역시 중구 제물량로218번길 3 (해안동1가)",
    "phone": "032-435-7172",
    "latitude": "37.4726449029",
    "longitude": "126.6204590814",
    "image": "http://tong.visitkorea.or.kr/cms/resource/40/3482340_image2_1.png",
    "category": "영화",
    "eventstartdate": "20250516",
    "eventenddate": "20250520"
  },
  {
    "id": "1855589",
    "title": "제19회 전북청소년영화제",
    "address": "전북특별자치도 전주시 완산구 전주객사3길 34 (고사동)",
    "phone": "063-253-4045",
    "latitude": "35.8188247887",
    "longitude": "127.1423260609",
    "image": "http://tong.visitkorea.or.kr/cms/resource/64/3563364_image2_1.jpg",
    "category": "영화",
    "eventstartdate": "20251107",
    "eventenddate": "20251108"
  },
  {
    "id": "1852075",
    "title": "제21회 EBS국제다큐영화제(EIDF2024)",
    "address": "경기도 고양시 일산동구 한류월드로 281",
    "phone": "02-526-2556",
    "latitude": "37.6617780539",
    "longitude": "126.7546387618",
    "image": "http://tong.visitkorea.or.kr/cms/resource/16/3341416_image2_1.jpg",
    "category": "영화",
    "eventstartdate": "20240819",
    "eventenddate": "20240825"
  },
  {
    "id": "3031265",
    "title": "제4회 성북청춘불패영화제 “Deep Focus”",
    "address": "서울특별시 성북구 아리랑로 82 (돈암동)",
    "phone": "02-6906-3116, 3117",
    "latitude": "37.6001120917",
    "longitude": "127.0139418391",
    "image": "",
    "category": "영화",
    "eventstartdate": "20241107",
    "eventenddate": "20241113"
  },
  {
    "id": "2622679",
    "title": "제7회 예천국제스마트폰영화제",
    "address": "경상북도 예천군 호명읍 다온로 24",
    "phone": "054-655-8082",
    "latitude": "36.5716465473",
    "longitude": "128.4887745090",
    "image": "http://tong.visitkorea.or.kr/cms/resource/15/3487615_image2_1.jpg",
    "category": "영화",
    "eventstartdate": "20250927",
    "eventenddate": "20250928"
  },
  {
    "id": "2828029",
    "title": "제8회 전주가족영화제",
    "address": "전북특별자치도 전주시 완산구 전주객사3길 74-25 (고사동)",
    "phone": "062-253-4045",
    "latitude": "35.8210967513",
    "longitude": "127.1422621184",
    "image": "http://tong.visitkorea.or.kr/cms/resource/00/3492600_image2_1.jpg",
    "category": "영화",
    "eventstartdate": "20250529",
    "eventenddate": "20250531"
  },
  {
    "id": "2861680",
    "title": "제8회 전주국제단편영화제",
    "address": "전북특별자치도 전주시 완산구 전주객사3길 72 (고사동)",
    "phone": "063-253-4045",
    "latitude": "35.8203690535",
    "longitude": "127.1420954850",
    "image": "http://tong.visitkorea.or.kr/cms/resource/33/3539533_image2_1.png",
    "category": "영화",
    "eventstartdate": "20250925",
    "eventenddate": "20250929"
  },
  {
    "id": "3517184",
    "title": "한강 다리밑 영화제",
    "address": "서울특별시 영등포구 여의동로 330 (여의도동)",
    "phone": "02-120",
    "latitude": "37.5263997727",
    "longitude": "126.9336095794",
    "image": "http://tong.visitkorea.or.kr/cms/resource/83/3517183_image2_1.jpg",
    "category": "영화",
    "eventstartdate": "20250809",
    "eventenddate": "20250823"
  },
  {
    "id": "3391958",
    "title": "2024 JOCHIWON FILM ROMANCE",
    "address": "세종특별자치시 조치원읍 평리",
    "phone": "044-862-1620",
    "latitude": "36.6069486170",
    "longitude": "127.3005158320",
    "image": "http://tong.visitkorea.or.kr/cms/resource/54/3391954_image2_1.jpg",
    "category": "영화",
    "eventstartdate": "20241019",
    "eventenddate": "20241020"
  },
  {
    "id": "2830695",
    "title": "2025 부산여행영화제",
    "address": "부산광역시 해운대구 수영강변대로 120 (우동)",
    "phone": "0770-7525-3658",
    "latitude": "35.1710029572",
    "longitude": "129.1270687971",
    "image": "http://tong.visitkorea.or.kr/cms/resource/85/3502985_image2_1.png",
    "category": "영화",
    "eventstartdate": "20250726",
    "eventenddate": "20250727"
  },
  {
    "id": "2843892",
    "title": "2025 원주옥상영화제",
    "address": "강원특별자치도 원주시 세계로 10 (반곡동)",
    "phone": "010-4781-7786",
    "latitude": "37.3247979621",
    "longitude": "127.9898307316",
    "image": "http://tong.visitkorea.or.kr/cms/resource/67/3522467_image2_1.jpg",
    "category": "영화",
    "eventstartdate": "20250828",
    "eventenddate": "20250830"
  },
  {
    "id": "3016265",
    "title": "2025 유니카 코리아 국제영화제",
    "address": "경상북도 경산시 대학로28길 6-5 (중방동)",
    "phone": "053-818-4055",
    "latitude": "35.8331017706",
    "longitude": "128.7366762706",
    "image": "http://tong.visitkorea.or.kr/cms/resource/01/3533601_image2_1.jpg",
    "category": "영화",
    "eventstartdate": "20251011",
    "eventenddate": "20251012"
  }
]