[
  {
    "id": "3113671",
    "title": "가락몰 빵축제 전국빵지자랑",
    "address": "서울특별시 송파구 양재대로 932 (가락동)",
    "phone": "02-3435-0286",
    "latitude": "37.4960786971",
    "longitude": "127.1107693087",
    "image": "http://tong.visitkorea.or.kr/cms/resource/91/3484791_image2_1.jpg",
    "category": "일반축제",
    "eventstartdate": "20250509",
    "eventenddate": "20250511"
  },
  {
    "id": "3379778",
    "title": "가락옥토버페스트 미식야행",
    "address": "서울특별시 송파구 양재대로 932 (가락동)",
    "phone": "02-3435-0455",
    "latitude": "37.4960786971",
    "longitude": "127.1107693087",
    "image": "http://tong.visitkorea.or.kr/cms/resource/73/3553073_image2_1.png",
    "category": "일반축제",
    "eventstartdate": "20251024",
    "eventenddate": "20251026"
  },
  {
    "id": "694576",
    "title": "가야문화축제",
    "address": "경상남도 김해시 분성로261번길 35 (봉황동)",
    "phone": "055-330-6840",
    "latitude": "35.2350661468",
    "longitude": "128.8759611362",
    "image": "http://tong.visitkorea.or.kr/cms/resource/23/3482523_image2_1.jpg",
    "category": "일반축제",
    "eventstartdate": "20250410",
    "eventenddate": "20250413"
  },
  {
    "id": "712175",
    "title": "가파도청보리축제",
    "address": "제주특별자치도 서귀포시 대정읍",
    "phone": "064-764-7130",
    "latitude": "33.1701766897",
    "longitude": "126.2717384970",
    "image": "http://tong.visitkorea.or.kr/cms/resource/21/3484921_image2_1.JPG",
    "category": "일반축제",
    "eventstartdate": "20250404",
    "eventenddate": "20250506"
  },
  {
    "id": "3503909",
    "title": "가평 양떼목장 수국축제",
    "address": "경기도 가평군 설악면 유명로 1209",
    "phone": "031-585-1155",
    "latitude": "37.6438848073",
    "longitude": "127.4739042663",
    "image": "http://tong.visitkorea.or.kr/cms/resource/87/3503887_image2_1.jpg",
    "category": "일반축제",
    "eventstartdate": "20250627",
    "eventenddate": "20251029"
  },
  {
    "id": "3495989",
    "title": "가평 양떼목장 유채꽃축제",
    "address": "경기도 가평군 설악면 유명로 1209",
    "phone": "031-585-1155",
    "latitude": "37.6438848073",
    "longitude": "127.4739042663",
    "image": "http://tong.visitkorea.or.kr/cms/resource/69/3495969_image2_1.jpg",
    "category": "일반축제",
    "eventstartdate": "20250525",
    "eventenddate": "20250619"
  },
  {
    "id": "3490945",
    "title": "가평군 반려동물 문화행사 활짝펫",
    "address": "경기도 가평군 가평읍 자라섬로 60",
    "phone": "070-8233-0333",
    "latitude": "37.8209234278",
    "longitude": "127.5208753809",
    "image": "http://tong.visitkorea.or.kr/cms/resource/17/3493917_image2_1.jpg",
    "category": "일반축제",
    "eventstartdate": "20250607",
    "eventenddate": "20250607"
  },
  {
    "id": "2746930",
    "title": "감악산 꽃별 여행",
    "address": "경상남도 거창군 신원면 연수사길 452",
    "phone": "055-940-8227",
    "latitude": "35.5896644164",
    "longitude": "127.9175273118",
    "image": "http://tong.visitkorea.or.kr/cms/resource/19/3539719_image2_1.jpg",
    "category": "일반축제",
    "eventstartdate": "20250919",
    "eventenddate": "20251012"
  },
  {
    "id": "506376",
    "title": "강경젓갈축제",
    "address": "충청남도 논산시 강경읍 금백로 45",
    "phone": "041-730-2928",
    "latitude": "36.1575977477",
    "longitude": "127.0098123087",
    "image": "http://tong.visitkorea.or.kr/cms/resource/99/3538099_image2_1.jpg",
    "category": "일반축제",
    "eventstartdate": "20251023",
    "eventenddate": "20251026"
  },
  {
    "id": "3439947",
    "title": "강남 미디어 윈터페스타",
    "address": "서울특별시 강남구 영동대로 511 (삼성동)",
    "phone": "02-6000-0114",
    "latitude": "37.5103955843",
    "longitude": "127.0610512042",
    "image": "http://tong.visitkorea.or.kr/cms/resource/54/3579654_image2_1.jpg",
    "category": "일반축제",
    "eventstartdate": "20251219",
    "eventenddate": "20260103"
  },
  {
    "id": "3541003",
    "title": "강남청년축제",
    "address": "서울특별시 강남구 도산대로45길 20 (신사동)",
    "phone": "010-9771-2090",
    "latitude": "37.5240046579",
    "longitude": "127.0356170227",
    "image": "http://tong.visitkorea.or.kr/cms/resource/97/3540997_image2_1.jpg",
    "category": "일반축제",
    "eventstartdate": "20250919",
    "eventenddate": "20250919"
  },
  {
    "id": "1806376",
    "title": "강동북페스티벌",
    "address": "서울특별시 강동구 양재대로84길 63 (둔촌동)",
    "phone": "02-2045-7919",
    "latitude": "37.5244036592",
    "longitude": "127.1369827856",
    "image": "http://tong.visitkorea.or.kr/cms/resource/89/3567889_image2_1.jpg",
    "category": "일반축제",
    "eventstartdate": "20251101",
    "eventenddate": "20251101"
  },
  {
    "id": "1307813",
    "title": "강동선사문화축제",
    "address": "서울특별시 강동구 올림픽로 875 (암사동)",
    "phone": "02-3425-5240",
    "latitude": "37.5591134023",
    "longitude": "127.1306157102",
    "image": "http://tong.visitkorea.or.kr/cms/resource/77/3541977_image2_1.jpg",
    "category": "일반축제",
    "eventstartdate": "20251017",
    "eventenddate": "20251019"
  },
  {
    "id": "2541883",
    "title": "강릉 국가유산 야행",
    "address": "강원특별자치도 강릉시 임영로131번길 6",
    "phone": "033-823-3212",
    "latitude": "37.7532767444",
    "longitude": "128.8921226461",
    "image": "http://tong.visitkorea.or.kr/cms/resource/77/3317777_image2_1.jpg",
    "category": "일반축제",
    "eventstartdate": "20250814",
    "eventenddate": "20250816"
  },
  {
    "id": "2930716",
    "title": "강릉누들축제",
    "address": "강원특별자치도 강릉시 경강로 2111 (임당동)",
    "phone": "033-640-5130",
    "latitude": "37.7558321116",
    "longitude": "128.8976276267",
    "image": "http://tong.visitkorea.or.kr/cms/resource/11/3556811_image2_1.jpg",
    "category": "일반축제",
    "eventstartdate": "20251030",
    "eventenddate": "20251102"
  },
  {
    "id": "531391",
    "title": "강릉단오제",
    "address": "강원특별자치도 강릉시 단오장길 1",
    "phone": "033-641-1593",
    "latitude": "37.7482134974",
    "longitude": "128.8950169869",
    "image": "http://tong.visitkorea.or.kr/cms/resource/54/3484354_image2_1.jpg",
    "category": "일반축제",
    "eventstartdate": "20250527",
    "eventenddate": "20250603"
  },
  {
    "id": "2607445",
    "title": "강릉비치비어페스티벌",
    "address": "강원특별자치도 강릉시 강문동",
    "phone": "010-6285-8138",
    "latitude": "37.8054932352",
    "longitude": "128.9080112640",
    "image": "http://tong.visitkorea.or.kr/cms/resource/43/2607443_image2_1.JPG",
    "category": "일반축제",
    "eventstartdate": "20250627",
    "eventenddate": "20250629"
  },
  {
    "id": "3493120",
    "title": "강릉해양레저 펫가족 힐링페스티벌",
    "address": "강원특별자치도 강릉시 송정동",
    "phone": "033-643-9959",
    "latitude": "37.7871457573",
    "longitude": "128.9284433256",
    "image": "http://tong.visitkorea.or.kr/cms/resource/17/3493117_image2_1.jpg",
    "category": "일반축제",
    "eventstartdate": "20250607",
    "eventenddate": "20250608"
  },
  {
    "id": "3114696",
    "title": "강북구 어린이날 대축제",
    "address": "서울특별시 강북구 월계로 173 (번동)",
    "phone": "02-554-9795",
    "latitude": "37.6197242510",
    "longitude": "127.0445440464",
    "image": "http://tong.visitkorea.or.kr/cms/resource/55/3487455_image2_1.jpg",
    "category": "일반축제",
    "eventstartdate": "20250503",
    "eventenddate": "20250503"
  },
  {
    "id": "3354973",
    "title": "강북청소년축제 강추",
    "address": "서울특별시 강북구 도봉로76가길 55 (미아동)",
    "phone": "02-901-2503",
    "latitude": "37.6321225012",
    "longitude": "127.0274174771",
    "image": "http://tong.visitkorea.or.kr/cms/resource/50/3539950_image2_1.jpg",
    "category": "일반축제",
    "eventstartdate": "20250927",
    "eventenddate": "20250927"
  },
  {
    "id": "3489679",
    "title": "강서 아이들 까치까치 페스티벌",
    "address": "서울특별시 강서구 우장산로 66 (내발산동)",
    "phone": "02-2600-6970",
    "latitude": "37.5534894617",
    "longitude": "126.8436392403",
    "image": "http://tong.visitkorea.or.kr/cms/resource/73/3489673_image2_1.JPG",
    "category": "일반축제",
    "eventstartdate": "20250524",
    "eventenddate": "20250524"
  },
  {
    "id": "3489706",
    "title": "강서구 다문화축제",
    "address": "서울특별시 강서구 강서로5길 50 (화곡동)",
    "phone": "02-2600-6763<br>02-2606-2017",
    "latitude": "37.5291062796",
    "longitude": "126.8489199998",
    "image": "http://tong.visitkorea.or.kr/cms/resource/01/3489701_image2_1.jpg",
    "category": "일반축제",
    "eventstartdate": "20250524",
    "eventenddate": "20250524"
  },
  {
    "id": "3483016",
    "title": "강서봄빛페스타",
    "address": "서울특별시 강서구 금낭화로 178 (방화동)",
    "phone": "02-2600-6634",
    "latitude": "37.5810885136",
    "longitude": "126.8146355542",
    "image": "http://tong.visitkorea.or.kr/cms/resource/06/3483006_image2_1.jpg",
    "category": "일반축제",
    "eventstartdate": "20250412",
    "eventenddate": "20250412"
  },
  {
    "id": "3487939",
    "title": "강서어린이 동화축제",
    "address": "서울특별시 강서구 방화동",
    "phone": "02-2600-6975",
    "latitude": "37.5816995274",
    "longitude": "126.8132078893",
    "image": "http://tong.visitkorea.or.kr/cms/resource/19/3495419_image2_1.jpg",
    "category": "일반축제",
    "eventstartdate": "20250503",
    "eventenddate": "20250503"
  },
  {
    "id": "2597638",
    "title": "강원n 홍천 산나물축제",
    "address": "강원특별자치도 홍천군 홍천읍 태학여내길 27",
    "phone": "033-439-5800",
    "latitude": "37.7079409142",
    "longitude": "127.9048299252",
    "image": "http://tong.visitkorea.or.kr/cms/resource/99/3301599_image2_1.jpg",
    "category": "일반축제",
    "eventstartdate": "20250503",
    "eventenddate": "20250505"
  },
  {
    "id": "3114721",
    "title": "강원한우데이",
    "address": "강원특별자치도 춘천시 시청길 11 (옥천동)",
    "phone": "033-242-1825",
    "latitude": "37.8810508584",
    "longitude": "127.7293935081",
    "image": "http://tong.visitkorea.or.kr/cms/resource/54/3495954_image2_1.jpg",
    "category": "일반축제",
    "eventstartdate": "20250613",
    "eventenddate": "20250615"
  },
  {
    "id": "3333177",
    "title": "강정마을 생태축제",
    "address": "제주특별자치도 서귀포시 이어도로 669 (강정동)",
    "phone": "010-4749-3790",
    "latitude": "33.2345451931",
    "longitude": "126.4870795041",
    "image": "http://tong.visitkorea.or.kr/cms/resource/27/3492627_image2_1.jpg",
    "category": "일반축제",
    "eventstartdate": "20250613",
    "eventenddate": "20250615"
  },
  {
    "id": "2755016",
    "title": "강주해바라기 축제",
    "address": "경상남도 함안군 강주4길 16",
    "phone": "010-4452-3452",
    "latitude": "35.3208688405",
    "longitude": "128.3322313624",
    "image": "http://tong.visitkorea.or.kr/cms/resource/70/3497270_image2_1.jpg",
    "category": "일반축제",
    "eventstartdate": "20250618",
    "eventenddate": "20250706"
  },
  {
    "id": "3486674",
    "title": "강진 전라병영성축제",
    "address": "전라남도 강진군 대구면 청자촌길 33",
    "phone": "061-430-3352",
    "latitude": "34.5078809074",
    "longitude": "126.8009780747",
    "image": "http://tong.visitkorea.or.kr/cms/resource/64/3486664_image2_1.jpg",
    "category": "일반축제",
    "eventstartdate": "20250418",
    "eventenddate": "20250420"
  },
  {
    "id": "2435280",
    "title": "강진만 춤추는 갈대축제",
    "address": "전라남도 강진군 강진읍 생태공원길 47",
    "phone": "061-430-3352",
    "latitude": "34.6205428186",
    "longitude": "126.7734749863",
    "image": "http://tong.visitkorea.or.kr/cms/resource/70/3017570_image2_1.JPG",
    "category": "일반축제",
    "eventstartdate": "20251025",
    "eventenddate": "20251102"
  },
  {
    "id": "3304617",
    "title": "강진수국길축제",
    "address": "전라남도 강진군 강진읍 고성길 174",
    "phone": "061-430-3354",
    "latitude": "34.6522557433",
    "longitude": "126.7624529636",
    "image": "http://tong.visitkorea.or.kr/cms/resource/36/3492636_image2_1.jpg",
    "category": "일반축제",
    "eventstartdate": "20250627",
    "eventenddate": "20250629"
  },
  {
    "id": "3530308",
    "title": "강화 별밤 야행",
    "address": "인천광역시 강화군 강화읍 관청리",
    "phone": "032-930-3563",
    "latitude": "37.7487853655",
    "longitude": "126.4854137407",
    "image": "http://tong.visitkorea.or.kr/cms/resource/91/3530291_image2_1.jpg",
    "category": "일반축제",
    "eventstartdate": "20250905",
    "eventenddate": "20250906"
  },
  {
    "id": "1340294",
    "title": "거문도백도 은빛바다체험행사",
    "address": "전라남도 여수시 삼산면 삼호교길 50",
    "phone": "061-659-4744",
    "latitude": "34.0244905368",
    "longitude": "127.3099202680",
    "image": "http://tong.visitkorea.or.kr/cms/resource/42/3513042_image2_1.jpeg",
    "category": "일반축제",
    "eventstartdate": "20250801",
    "eventenddate": "20250802"
  },
  {
    "id": "1327778",
    "title": "거제 옥포대첩 축제",
    "address": "경상남도 거제시 옥포로2길 14 (옥포동)",
    "phone": "055-639-3393",
    "latitude": "34.8905347934",
    "longitude": "128.6966193745",
    "image": "http://tong.visitkorea.or.kr/cms/resource/59/3492659_image2_1.jpg",
    "category": "일반축제",
    "eventstartdate": "20250613",
    "eventenddate": "20250615"
  },
  {
    "id": "667236",
    "title": "거제도 국제펭귄수영축제",
    "address": "경상남도 거제시 덕포5길 32",
    "phone": "055-687-4580",
    "latitude": "34.9116687968",
    "longitude": "128.7107009190",
    "image": "http://tong.visitkorea.or.kr/cms/resource/51/3473051_image2_1.jpg",
    "category": "일반축제",
    "eventstartdate": "20250111",
    "eventenddate": "20250111"
  },
  {
    "id": "3360113",
    "title": "게임문화축제",
    "address": "서울특별시 중구 청계천로 40 (다동)",
    "phone": "02-554-6763",
    "latitude": "37.5685818430",
    "longitude": "126.9816428989",
    "image": "http://tong.visitkorea.or.kr/cms/resource/32/3530432_image2_1.png",
    "category": "일반축제",
    "eventstartdate": "20250905",
    "eventenddate": "20250914"
  },
  {
    "id": "2785797",
    "title": "겨울, 청계천의 빛",
    "address": "서울특별시 중구 태평로1가 1",
    "phone": "02-904-1159",
    "latitude": "37.5691317067",
    "longitude": "126.9776154729",
    "image": "http://tong.visitkorea.or.kr/cms/resource/36/3567636_image2_1.jpg",
    "category": "일반축제",
    "eventstartdate": "20251212",
    "eventenddate": "20251231"
  },
  {
    "id": "2531702",
    "title": "겨울공주 군밤축제",
    "address": "충청남도 공주시 금벽로 368 (신관동)",
    "phone": "041-840-8401",
    "latitude": "36.4702917892",
    "longitude": "127.1275545162",
    "image": "http://tong.visitkorea.or.kr/cms/resource/60/3472360_image2_1.jpg",
    "category": "일반축제",
    "eventstartdate": "20250116",
    "eventenddate": "20250120"
  },
  {
    "id": "2490376",
    "title": "겸재문화예술제",
    "address": "서울특별시 강서구 양천로 291 (마곡동)",
    "phone": "02-2659-2207, 02-2600-6581",
    "latitude": "37.5722343802",
    "longitude": "126.8366643489",
    "image": "http://tong.visitkorea.or.kr/cms/resource/49/3495349_image2_1.jpg",
    "category": "일반축제",
    "eventstartdate": "20250510",
    "eventenddate": "20250510"
  },
  {
    "id": "3486730",
    "title": "경기미 김밥페스타",
    "address": "경기도 수원시 영통구 광교중앙로 140 (하동)",
    "phone": "031-774-3312",
    "latitude": "37.2858799237",
    "longitude": "127.0594632301",
    "image": "http://tong.visitkorea.or.kr/cms/resource/23/3486723_image2_1.jpg",
    "category": "일반축제",
    "eventstartdate": "20250621",
    "eventenddate": "20250621"
  },
  {
    "id": "141105",
    "title": "경남고성공룡세계엑스포",
    "address": "경상남도 고성군 당항만로 1116",
    "phone": "055-670-7400",
    "latitude": "35.0533471834",
    "longitude": "128.3915388600",
    "image": "http://tong.visitkorea.or.kr/cms/resource/62/2987562_image2_1.png",
    "category": "일반축제",
    "eventstartdate": "20251001",
    "eventenddate": "20251109"
  },
  {
    "id": "2648460",
    "title": "경복궁 별빛야행",
    "address": "서울특별시 종로구 사직로 161 (세종로)",
    "phone": "1522-2295",
    "latitude": "37.5760836609",
    "longitude": "126.9767375783",
    "image": "http://tong.visitkorea.or.kr/cms/resource/24/3349624_image2_1.png",
    "category": "일반축제",
    "eventstartdate": "20251015",
    "eventenddate": "20251102"
  },
  {
    "id": "3495363",
    "title": "경북 WOW(와)보이소",
    "address": "서울특별시 중구 태평로1가",
    "phone": "02-797-8760",
    "latitude": "37.5692566951",
    "longitude": "126.9777682330",
    "image": "http://tong.visitkorea.or.kr/cms/resource/48/3495348_image2_1.jpg",
    "category": "일반축제",
    "eventstartdate": "20250620",
    "eventenddate": "20250622"
  },
  {
    "id": "140897",
    "title": "경산 갓바위소원성취축제",
    "address": "경상북도 경산시 와촌면 대한리",
    "phone": "053-819-0332",
    "latitude": "35.9850459218",
    "longitude": "128.7495653181",
    "image": "http://tong.visitkorea.or.kr/cms/resource/90/3550790_image2_1.jpg",
    "category": "일반축제",
    "eventstartdate": "20250926",
    "eventenddate": "20250928"
  },
  {
    "id": "2759249",
    "title": "경산 대추축제 & 농산물 한마당",
    "address": "경상북도 경산시 남매로 100 (상방동)",
    "phone": "053-819-0334, 0338",
    "latitude": "35.8199172753",
    "longitude": "128.7434010472",
    "image": "http://tong.visitkorea.or.kr/cms/resource/22/3566322_image2_1.jpg",
    "category": "일반축제",
    "eventstartdate": "20251017",
    "eventenddate": "20251019"
  },
  {
    "id": "1642876",
    "title": "경산자인단오제",
    "address": "경상북도 경산시 자인면 계정길 68",
    "phone": "053-856-5765",
    "latitude": "35.8178883523",
    "longitude": "128.8190222342",
    "image": "http://tong.visitkorea.or.kr/cms/resource/99/2718299_image2_1.jpg",
    "category": "일반축제",
    "eventstartdate": "20250530",
    "eventenddate": "20250601"
  },
  {
    "id": "3497502",
    "title": "경산카페축제",
    "address": "경상북도 경산시 압량읍 압독1로 100-5",
    "phone": "053-819-0332",
    "latitude": "35.8410071265",
    "longitude": "128.7741060914",
    "image": "http://tong.visitkorea.or.kr/cms/resource/85/3497485_image2_1.png",
    "category": "일반축제",
    "eventstartdate": "20250620",
    "eventenddate": "20250704"
  },
  {
    "id": "2485128",
    "title": "경주 대릉원돌담길 축제",
    "address": "경상북도 경주시 황남동",
    "phone": "054-776-5267",
    "latitude": "35.8401959957",
    "longitude": "129.2133231098",
    "image": "http://tong.visitkorea.or.kr/cms/resource/14/3482114_image2_1.jpg",
    "category": "일반축제",
    "eventstartdate": "20250404",
    "eventenddate": "20250406"
  },
  {
    "id": "2614760",
    "title": "경주국가유산야행",
    "address": "경상북도 경주시 교동",
    "phone": "054-743-7182",
    "latitude": "35.8313803696",
    "longitude": "129.2157425929",
    "image": "http://tong.visitkorea.or.kr/cms/resource/05/3529605_image2_1.JPG",
    "category": "일반축제",
    "eventstartdate": "20250926",
    "eventenddate": "20250928"
  },
  {
    "id": "3114588",
    "title": "경춘선 공릉숲길 커피축제",
    "address": "서울특별시 노원구 동일로 지하1074 (공릉동)",
    "phone": "02-976-9110<br>02-2116-3488",
    "latitude": "37.6255296448",
    "longitude": "127.0730218414",
    "image": "http://tong.visitkorea.or.kr/cms/resource/14/3490514_image2_1.jpg",
    "category": "일반축제",
    "eventstartdate": "20250607",
    "eventenddate": "20250608"
  },
  {
    "id": "3329992",
    "title": "계양아라온워터축제",
    "address": "인천광역시 계양구 아라로 548 (장기동)",
    "phone": "032-450-4103",
    "latitude": "37.5746907004",
    "longitude": "126.7395953613",
    "image": "http://tong.visitkorea.or.kr/cms/resource/69/3539269_image2_1.jpg",
    "category": "일반축제",
    "eventstartdate": "20250726",
    "eventenddate": "20250727"
  },
  {
    "id": "421977",
    "title": "고성명태축제",
    "address": "강원특별자치도 고성군 거진읍 해오름해변길 125",
    "phone": "033-681-0121,0122",
    "latitude": "38.4395884550",
    "longitude": "128.4542770506",
    "image": "http://tong.visitkorea.or.kr/cms/resource/90/3578590_image2_1.jpg",
    "category": "일반축제",
    "eventstartdate": "20251017",
    "eventenddate": "20251019"
  },
  {
    "id": "292950",
    "title": "고싸움놀이축제",
    "address": "광주광역시 남구 고싸움로 2",
    "phone": "062-374-3839",
    "latitude": "35.0696294584",
    "longitude": "126.8371305664",
    "image": "http://tong.visitkorea.or.kr/cms/resource/64/3467664_image2_1.JPG",
    "category": "일반축제",
    "eventstartdate": "20250207",
    "eventenddate": "20250209"
  },
  {
    "id": "3025858",
    "title": "고양 동물교감치유 문화제",
    "address": "경기도 고양시 일산동구 중앙로 1271-4 (장항동)",
    "phone": "031-8075-4603",
    "latitude": "37.6579815492",
    "longitude": "126.7700763468",
    "image": "http://tong.visitkorea.or.kr/cms/resource/11/3549011_image2_1.jpg",
    "category": "일반축제",
    "eventstartdate": "20251025",
    "eventenddate": "20251025"
  },
  {
    "id": "1725993",
    "title": "고양가을꽃축제",
    "address": "경기도 고양시 일산동구 호수로 595",
    "phone": "031-908-7750",
    "latitude": "37.6538792239",
    "longitude": "126.7686654803",
    "image": "http://tong.visitkorea.or.kr/cms/resource/57/3529657_image2_1.jpg",
    "category": "일반축제",
    "eventstartdate": "20250919",
    "eventenddate": "20250930"
  },
  {
    "id": "141799",
    "title": "고양국제꽃박람회",
    "address": "경기도 고양시 일산동구 호수로 595",
    "phone": "031-908-7750",
    "latitude": "37.6539736577",
    "longitude": "126.7686849202",
    "image": "http://tong.visitkorea.or.kr/cms/resource/28/3502728_image2_1.jpg",
    "category": "일반축제",
    "eventstartdate": "20250425",
    "eventenddate": "20250511"
  },
  {
    "id": "530450",
    "title": "고양행주문화제",
    "address": "경기도 고양시 덕양구 행주로15번길 89 (행주외동)",
    "phone": "1577-7766",
    "latitude": "37.6004808800",
    "longitude": "126.8246035434",
    "image": "http://tong.visitkorea.or.kr/cms/resource/87/3486487_image2_1.jpg",
    "category": "일반축제",
    "eventstartdate": "20250614",
    "eventenddate": "20250615"
  },
  {
    "id": "3383613",
    "title": "고양행주한우 숯불구이축제",
    "address": "경기도 고양시 덕양구 원당로 16 (주교동)",
    "phone": "031-960-3034,3050",
    "latitude": "37.6547247137",
    "longitude": "126.8327790436",
    "image": "http://tong.visitkorea.or.kr/cms/resource/14/3489014_image2_1.jpg",
    "category": "일반축제",
    "eventstartdate": "20250607",
    "eventenddate": "20250608"
  },
  {
    "id": "1100492",
    "title": "고양호수예술축제",
    "address": "경기도 고양시 일산동구 호수로 595 (장항동)",
    "phone": "1588-7766",
    "latitude": "37.6553373919",
    "longitude": "126.7689209714",
    "image": "http://tong.visitkorea.or.kr/cms/resource/74/3489874_image2_1.JPG",
    "category": "일반축제",
    "eventstartdate": "20250926",
    "eventenddate": "20250928"
  },
  {
    "id": "2952761",
    "title": "고창 벚꽃축제",
    "address": "전북특별자치도 고창군 고창읍 석정2로 171",
    "phone": "063-560-2950",
    "latitude": "35.4315952113",
    "longitude": "126.7398828946",
    "image": "http://tong.visitkorea.or.kr/cms/resource/09/3108509_image2_1.jpg",
    "category": "일반축제",
    "eventstartdate": "20250404",
    "eventenddate": "20250406"
  },
  {
    "id": "738857",
    "title": "고창 복분자와 수박축제",
    "address": "전북특별자치도 고창군 아산면 선운사로 242-86",
    "phone": "063-560-2531",
    "latitude": "35.4995514576",
    "longitude": "126.5790260407",
    "image": "http://tong.visitkorea.or.kr/cms/resource/07/3491407_image2_1.PNG",
    "category": "일반축제",
    "eventstartdate": "20250620",
    "eventenddate": "20250622"
  },
  {
    "id": "1835137",
    "title": "고창갯벌축제",
    "address": "전북특별자치도 고창군 애향갯벌로 320 갯벌체험학습장",
    "phone": "063-560-2632",
    "latitude": "35.5302941195",
    "longitude": "126.5153781572",
    "image": "http://tong.visitkorea.or.kr/cms/resource/23/3495023_image2_1.png",
    "category": "일반축제",
    "eventstartdate": "20250613",
    "eventenddate": "20250615"
  },
  {
    "id": "3489042",
    "title": "고창국가유산야행",
    "address": "전북특별자치도 고창군 고창읍 읍내리",
    "phone": "063-560-2461",
    "latitude": "35.4299836923",
    "longitude": "126.7048777110",
    "image": "http://tong.visitkorea.or.kr/cms/resource/20/3489020_image2_1.jpg",
    "category": "일반축제",
    "eventstartdate": "20250613",
    "eventenddate": "20250614"
  },
  {
    "id": "604454",
    "title": "고창모양성제",
    "address": "전북특별자치도 고창군 고창읍 모양성로 11",
    "phone": "063-560-2949",
    "latitude": "35.4331888616",
    "longitude": "126.7035138626",
    "image": "http://tong.visitkorea.or.kr/cms/resource/30/3519730_image2_1.jpg",
    "category": "일반축제",
    "eventstartdate": "20251029",
    "eventenddate": "20251102"
  },
  {
    "id": "511801",
    "title": "고창청보리밭 축제",
    "address": "전북특별자치도 고창군 공음면 학원농장길 150",
    "phone": "063-563-9897",
    "latitude": "35.3754177213",
    "longitude": "126.5432906580",
    "image": "http://tong.visitkorea.or.kr/cms/resource/11/3110011_image2_1.jpg",
    "category": "일반축제",
    "eventstartdate": "20250419",
    "eventenddate": "20250511"
  },
  {
    "id": "1591019",
    "title": "고흥우주항공축제",
    "address": "전라남도 고흥군 봉래면 하반로 490",
    "phone": "061-830-5347",
    "latitude": "34.4540350904",
    "longitude": "127.5182610504",
    "image": "http://tong.visitkorea.or.kr/cms/resource/14/3495714_image2_1.jpg",
    "category": "일반축제",
    "eventstartdate": "20250503",
    "eventenddate": "20250506"
  },
  {
    "id": "2872215",
    "title": "고흥유자축제",
    "address": "전라남도 고흥군 풍양면 한동리",
    "phone": "061-830-5442",
    "latitude": "34.5751278163",
    "longitude": "127.2326774665",
    "image": "http://tong.visitkorea.or.kr/cms/resource/60/3545360_image2_1.jpg",
    "category": "일반축제",
    "eventstartdate": "20251106",
    "eventenddate": "20251109"
  },
  {
    "id": "1322668",
    "title": "곡성심청어린이대축제",
    "address": "전라남도 곡성군 오곡면 기차마을로 232",
    "phone": "061-360-8471",
    "latitude": "35.2774167990",
    "longitude": "127.3080309475",
    "image": "http://tong.visitkorea.or.kr/cms/resource/94/2757194_image2_1.JPG",
    "category": "일반축제",
    "eventstartdate": "20251023",
    "eventenddate": "20251026"
  },
  {
    "id": "3482354",
    "title": "골체오름 벚꽃축제",
    "address": "제주특별자치도 제주시 조천읍 선흘리",
    "phone": "064-782-5479",
    "latitude": "33.4496832240",
    "longitude": "126.7043085822",
    "image": "http://tong.visitkorea.or.kr/cms/resource/39/3482339_image2_1.png",
    "category": "일반축제",
    "eventstartdate": "20250329",
    "eventenddate": "20250330"
  },
  {
    "id": "2862358",
    "title": "공공미술 빛조각축제 <노원 달빛산책>",
    "address": "서울특별시 노원구 동일로 1322-70 (상계동)",
    "phone": "02-2289-3466",
    "latitude": "37.6494961706",
    "longitude": "127.0657023804",
    "image": "http://tong.visitkorea.or.kr/cms/resource/35/3547735_image2_1.jpg",
    "category": "일반축제",
    "eventstartdate": "20251017",
    "eventenddate": "20251116"
  },
  {
    "id": "3490789",
    "title": "공공한옥 밤마실",
    "address": "서울특별시 종로구 계동길 37 (계동)",
    "phone": "02-741-1033",
    "latitude": "37.5790529392",
    "longitude": "126.9867060298",
    "image": "http://tong.visitkorea.or.kr/cms/resource/74/3490774_image2_1.jpg",
    "category": "일반축제",
    "eventstartdate": "20250521",
    "eventenddate": "20250531"
  },
  {
    "id": "2996726",
    "title": "공근 소맥축제",
    "address": "강원특별자치도 횡성군 공근면 매곡리",
    "phone": "010-3188-3103",
    "latitude": "37.5353676907",
    "longitude": "127.9700513414",
    "image": "http://tong.visitkorea.or.kr/cms/resource/58/3523658_image2_1.png",
    "category": "일반축제",
    "eventstartdate": "20250905",
    "eventenddate": "20250907"
  },
  {
    "id": "1947006",
    "title": "공주 석장리 구석기축제",
    "address": "충청남도 공주시 금벽로 990",
    "phone": "041-840-8090",
    "latitude": "36.4479454091",
    "longitude": "127.1875830683",
    "image": "http://tong.visitkorea.or.kr/cms/resource/50/3475250_image2_1.jpg",
    "category": "일반축제",
    "eventstartdate": "20250503",
    "eventenddate": "20250506"
  },
  {
    "id": "2821437",
    "title": "공주 유구 색동수국정원 꽃 축제",
    "address": "충청남도 공주시 유구읍 창말길 44",
    "phone": "041-840-8090",
    "latitude": "36.5544513454",
    "longitude": "126.9562759705",
    "image": "http://tong.visitkorea.or.kr/cms/resource/42/2989942_image2_1.png",
    "category": "일반축제",
    "eventstartdate": "20250627",
    "eventenddate": "20250629"
  },
  {
    "id": "3520310",
    "title": "공주야밤 맥주축제",
    "address": "충청남도 공주시 금벽로 368 (신관동)",
    "phone": "041-840-8404",
    "latitude": "36.4702917892",
    "longitude": "127.1275545162",
    "image": "http://tong.visitkorea.or.kr/cms/resource/09/3520309_image2_1.jpg",
    "category": "일반축제",
    "eventstartdate": "20250815",
    "eventenddate": "20250817"
  },
  {
    "id": "3538633",
    "title": "과천청년축제",
    "address": "경기도 과천시 도서관길 36 (별양동)",
    "phone": "010-9771-2090",
    "latitude": "37.4323812611",
    "longitude": "126.9966203812",
    "image": "http://tong.visitkorea.or.kr/cms/resource/80/3540280_image2_1.JPG",
    "category": "일반축제",
    "eventstartdate": "20250927",
    "eventenddate": "20250927"
  },
  {
    "id": "2778088",
    "title": "관악별빛산책",
    "address": "서울특별시 관악구 신림동 1642-7",
    "phone": "02-828-5743",
    "latitude": "37.4827825101",
    "longitude": "126.9276196866",
    "image": "http://tong.visitkorea.or.kr/cms/resource/88/3580588_image2_1.jpg",
    "category": "일반축제",
    "eventstartdate": "20251201",
    "eventenddate": "20251231"
  },
  {
    "id": "3551206",
    "title": "광명동굴 빛 축제",
    "address": "경기도 광명시 가학로85번길 142 (가학동)",
    "phone": "010-2163-3522",
    "latitude": "37.4243548415",
    "longitude": "126.8648909266",
    "image": "http://tong.visitkorea.or.kr/cms/resource/96/3551196_image2_1.png",
    "category": "일반축제",
    "eventstartdate": "20251024",
    "eventenddate": "20251025"
  },
  {
    "id": "3520789",
    "title": "광복 80년 기념 빛 축제",
    "address": "서울특별시 종로구 세종대로 지하172 (세종로)",
    "phone": "044-202-5539",
    "latitude": "37.5716786179",
    "longitude": "126.9767821434",
    "image": "http://tong.visitkorea.or.kr/cms/resource/88/3520788_image2_1.png",
    "category": "일반축제",
    "eventstartdate": "20250815",
    "eventenddate": "20250823"
  },
  {
    "id": "3518539",
    "title": "광복 80년 전야제 - 대한이 살았다!",
    "address": "서울특별시 영등포구 의사당대로 1 (여의도동)",
    "phone": "010-8311-5791",
    "latitude": "37.5294241180",
    "longitude": "126.9166304856",
    "image": "http://tong.visitkorea.or.kr/cms/resource/37/3518537_image2_1.jpg",
    "category": "일반축제",
    "eventstartdate": "20250814",
    "eventenddate": "20250814"
  },
  {
    "id": "3576410",
    "title": "광복로 겨울빛 트리축제",
    "address": "부산광역시 중구 광복로 72-1 (광복동2가)",
    "phone": "051-714-4758",
    "latitude": "35.0986398717",
    "longitude": "129.0327400915",
    "image": "http://tong.visitkorea.or.kr/cms/resource/05/3576405_image2_1.JPG",
    "category": "일반축제",
    "eventstartdate": "20251205",
    "eventenddate": "20260222"
  },
  {
    "id": "141020",
    "title": "광양 매화축제",
    "address": "전라남도 광양시 다압면 지막1길 55",
    "phone": "061-797-2721",
    "latitude": "35.0758049399",
    "longitude": "127.7164723947",
    "image": "http://tong.visitkorea.or.kr/cms/resource/35/3094835_image2_1.jpg",
    "category": "일반축제",
    "eventstartdate": "20250307",
    "eventenddate": "20250316"
  },
  {
    "id": "2608888",
    "title": "광주국가유산야행",
    "address": "광주광역시 동구 문화전당로 38 (광산동)",
    "phone": "062-608-2403",
    "latitude": "35.1460861028",
    "longitude": "126.9192936186",
    "image": "http://tong.visitkorea.or.kr/cms/resource/56/3482656_image2_1.jpg",
    "category": "일반축제",
    "eventstartdate": "20250425",
    "eventenddate": "20250426"
  },
  {
    "id": "2561700",
    "title": "광주서창억새축제",
    "address": "광주광역시 서구 서창둑길 377 (벽진동)",
    "phone": "062-350-4792",
    "latitude": "35.1385326507",
    "longitude": "126.8287740332",
    "image": "http://tong.visitkorea.or.kr/cms/resource/22/3546722_image2_1.jpg",
    "category": "일반축제",
    "eventstartdate": "20251016",
    "eventenddate": "20251019"
  },
  {
    "id": "624181",
    "title": "광주시 남한산성문화제",
    "address": "경기도 광주시 남한산성면 남한산성로 731",
    "phone": "031-789-5741~5",
    "latitude": "37.4767712288",
    "longitude": "127.1885044553",
    "image": "http://tong.visitkorea.or.kr/cms/resource/01/3550901_image2_1.jpg",
    "category": "일반축제",
    "eventstartdate": "20250919",
    "eventenddate": "20250921"
  },
  {
    "id": "629718",
    "title": "광주왕실도자페스티벌",
    "address": "경기도 광주시 곤지암읍 경충대로 727",
    "phone": "031-760-1729",
    "latitude": "37.3526075818",
    "longitude": "127.3276231368",
    "image": "http://tong.visitkorea.or.kr/cms/resource/20/3481720_image2_1.jpg",
    "category": "일반축제",
    "eventstartdate": "20250425",
    "eventenddate": "20250506"
  },
  {
    "id": "3110383",
    "title": "괴산빨간맛페스티벌",
    "address": "충청북도 괴산군 괴산읍 임꺽정로 92",
    "phone": "043-830-3463",
    "latitude": "36.8145640909",
    "longitude": "127.7865442181",
    "image": "http://tong.visitkorea.or.kr/cms/resource/44/3482644_image2_1.jpg",
    "category": "일반축제",
    "eventstartdate": "20250523",
    "eventenddate": "20250525"
  },
  {
    "id": "3110031",
    "title": "구례300리 벚꽃축제",
    "address": "전라남도 구례군 구례읍 서시천로 84-11",
    "phone": "061-780-2255",
    "latitude": "35.2154404229",
    "longitude": "127.4665991088",
    "image": "http://tong.visitkorea.or.kr/cms/resource/52/3482052_image2_1.jpg",
    "category": "일반축제",
    "eventstartdate": "20250328",
    "eventenddate": "20250330"
  },
  {
    "id": "506398",
    "title": "구례산수유꽃축제",
    "address": "전라남도 구례군 산동면 상관1길 45",
    "phone": "061-780-2390",
    "latitude": "35.3196509498",
    "longitude": "127.4703072042",
    "image": "http://tong.visitkorea.or.kr/cms/resource/71/3478771_image2_1.jpg",
    "category": "일반축제",
    "eventstartdate": "20250315",
    "eventenddate": "20250323"
  },
  {
    "id": "2039869",
    "title": "구로G페스티벌",
    "address": "서울특별시 구로구 구로동",
    "phone": "02-860-2282",
    "latitude": "37.5001766935",
    "longitude": "126.8705493966",
    "image": "http://tong.visitkorea.or.kr/cms/resource/77/3519677_image2_1.jpg",
    "category": "일반축제",
    "eventstartdate": "20250926",
    "eventenddate": "20250928"
  },
  {
    "id": "2618971",
    "title": "구로청소년축제",
    "address": "서울특별시 구로구 구로중앙로 48 (구로동)",
    "phone": "02-860-2140",
    "latitude": "37.4941610735",
    "longitude": "126.8900783422",
    "image": "http://tong.visitkorea.or.kr/cms/resource/06/3562606_image2_1.jpg",
    "category": "일반축제",
    "eventstartdate": "20251018",
    "eventenddate": "20251018"
  },
  {
    "id": "3563531",
    "title": "구리 빛 축제",
    "address": "경기도 구리시 교문동",
    "phone": "031-550-2485",
    "latitude": "37.5825191614",
    "longitude": "127.1386448674",
    "image": "http://tong.visitkorea.or.kr/cms/resource/27/3563527_image2_1.JPG",
    "category": "일반축제",
    "eventstartdate": "20251018",
    "eventenddate": "20251225"
  },
  {
    "id": "526160",
    "title": "구리 유채꽃 축제",
    "address": "경기도 구리시 코스모스길14번길 249 (토평동)",
    "phone": "031-550-2065",
    "latitude": "37.5745310968",
    "longitude": "127.1328789538",
    "image": "http://tong.visitkorea.or.kr/cms/resource/00/3114300_image2_1.JPG",
    "category": "일반축제",
    "eventstartdate": "20250509",
    "eventenddate": "20250511"
  },
  {
    "id": "622946",
    "title": "구리 코스모스 축제",
    "address": "경기도 구리시 코스모스길14번길 249 (토평동)",
    "phone": "031-550-2065",
    "latitude": "37.5745310968",
    "longitude": "127.1328789538",
    "image": "http://tong.visitkorea.or.kr/cms/resource/33/3378833_image2_1.JPG",
    "category": "일반축제",
    "eventstartdate": "20250926",
    "eventenddate": "20250928"
  },
  {
    "id": "3107804",
    "title": "구미 청춘, 금오천 벚꽃 페스티벌",
    "address": "경상북도 구미시 산책길 105 (남통동)",
    "phone": "054-480-6612",
    "latitude": "36.1229140932",
    "longitude": "128.3248461967",
    "image": "http://tong.visitkorea.or.kr/cms/resource/81/3489281_image2_1.jpg",
    "category": "일반축제",
    "eventstartdate": "20250402",
    "eventenddate": "20250406"
  },
  {
    "id": "3028462",
    "title": "구미라면 축제",
    "address": "경상북도 구미시 원평동",
    "phone": "054-480-2652",
    "latitude": "36.1294495821",
    "longitude": "128.3314454298",
    "image": "http://tong.visitkorea.or.kr/cms/resource/40/3497640_image2_1.jpg",
    "category": "일반축제",
    "eventstartdate": "20251107",
    "eventenddate": "20251109"
  },
  {
    "id": "3485078",
    "title": "국가유산 미디어아트",
    "address": "전북특별자치도 군산시 해망로 244-7 (장미동)",
    "phone": "02-2270-1277",
    "latitude": "35.9911921664",
    "longitude": "126.7113961359",
    "image": "http://tong.visitkorea.or.kr/cms/resource/72/3485072_image2_1.jpg",
    "category": "일반축제",
    "eventstartdate": "20250808",
    "eventenddate": "20251116"
  },
  {
    "id": "2756253",
    "title": "국가유산 미디어아트 부여 정림사지",
    "address": "충청남도 부여군 부여읍 정림로 83",
    "phone": "041-837-1722",
    "latitude": "36.2790710570",
    "longitude": "126.9128955516",
    "image": "http://tong.visitkorea.or.kr/cms/resource/27/3563827_image2_1.jpg",
    "category": "일반축제",
    "eventstartdate": "20251002",
    "eventenddate": "20251012"
  },
  {
    "id": "1199173",
    "title": "국토정중앙 달맞이축제",
    "address": "강원특별자치도 양구군 양구읍 박수근로 366-33",
    "phone": "033-481-2681",
    "latitude": "38.1064460195",
    "longitude": "127.9814860049",
    "image": "http://tong.visitkorea.or.kr/cms/resource/72/3108372_image2_1.jpg",
    "category": "일반축제",
    "eventstartdate": "20250212",
    "eventenddate": "20250212"
  },
  {
    "id": "1018971",
    "title": "국토정중앙 청춘양구 배꼽축제",
    "address": "강원특별자치도 양구군 양구읍 박수근로 366-11",
    "phone": "033-482-9172",
    "latitude": "38.1045851442",
    "longitude": "127.9824831927",
    "image": "http://tong.visitkorea.or.kr/cms/resource/51/3346451_image2_1.jpg",
    "category": "일반축제",
    "eventstartdate": "20250829",
    "eventenddate": "20250831"
  },
  {
    "id": "2853719",
    "title": "군산 수제맥주&블루스 페스티벌",
    "address": "전북특별자치도 군산시 해망로 224 (장미동)",
    "phone": "063-454-5252",
    "latitude": "35.9898145759",
    "longitude": "126.7131626804",
    "image": "http://tong.visitkorea.or.kr/cms/resource/40/3489940_image2_1.jpg",
    "category": "일반축제",
    "eventstartdate": "20250620",
    "eventenddate": "20250622"
  },
  {
    "id": "1846797",
    "title": "군산시간여행축제",
    "address": "전북특별자치도 군산시 중앙로1가",
    "phone": "063-454-3300",
    "latitude": "35.9878342213",
    "longitude": "126.7116850862",
    "image": "http://tong.visitkorea.or.kr/cms/resource/48/3561448_image2_1.jpg",
    "category": "일반축제",
    "eventstartdate": "20251009",
    "eventenddate": "20251012"
  },
  {
    "id": "3364857",
    "title": "군산짬뽕페스티벌",
    "address": "전북특별자치도 군산시 해망로 214 (장미동)",
    "phone": "063-454-3912",
    "latitude": "35.9892174387",
    "longitude": "126.7141403863",
    "image": "http://tong.visitkorea.or.kr/cms/resource/05/3568605_image2_1.jpg",
    "category": "일반축제",
    "eventstartdate": "20251009",
    "eventenddate": "20251012"
  },
  {
    "id": "2876799",
    "title": "군위 사랑과 나눔 문화축전",
    "address": "대구광역시 군위군 군위읍 군위금성로 307-14",
    "phone": "010-2318-8808",
    "latitude": "36.2347481860",
    "longitude": "128.6030406458",
    "image": "http://tong.visitkorea.or.kr/cms/resource/45/3485545_image2_1.jpg",
    "category": "일반축제",
    "eventstartdate": "20250510",
    "eventenddate": "20250510"
  },
  {
    "id": "1804396",
    "title": "군포 철쭉축제",
    "address": "경기도 군포시 고산로 470 (산본동)",
    "phone": "031-390-3558",
    "latitude": "37.3565526959",
    "longitude": "126.9266205400",
    "image": "http://tong.visitkorea.or.kr/cms/resource/99/3484599_image2_1.JPG",
    "category": "일반축제",
    "eventstartdate": "20250419",
    "eventenddate": "20250427"
  },
  {
    "id": "1998564",
    "title": "궁중문화축전",
    "address": "서울특별시 종로구 사직로 161",
    "phone": "1522-2295",
    "latitude": "37.5788222356",
    "longitude": "126.9769930325",
    "image": "http://tong.visitkorea.or.kr/cms/resource/65/3468365_image2_1.jpg",
    "category": "일반축제",
    "eventstartdate": "20251008",
    "eventenddate": "20251012"
  },
  {
    "id": "3495688",
    "title": "귀어귀촌 어촌관광 한마당",
    "address": "서울특별시 종로구 세종대로 175 (세종로)",
    "phone": "070-4419-9558",
    "latitude": "37.5720618985",
    "longitude": "126.9763210635",
    "image": "http://tong.visitkorea.or.kr/cms/resource/87/3495687_image2_1.png",
    "category": "일반축제",
    "eventstartdate": "20250617",
    "eventenddate": "20250619"
  },
  {
    "id": "2826964",
    "title": "그루브 인 관악",
    "address": "서울특별시 관악구 관천로 53 (신림동)",
    "phone": "02-828-5764",
    "latitude": "37.4841656500",
    "longitude": "126.9257892588",
    "image": "http://tong.visitkorea.or.kr/cms/resource/18/3303118_image2_1.jpg",
    "category": "일반축제",
    "eventstartdate": "20250830",
    "eventenddate": "20250831"
  },
  {
    "id": "3386681",
    "title": "근대역사문화축제",
    "address": "전북특별자치도 익산시 중앙로 12-151 (중앙동2가)",
    "phone": "063-843-8816",
    "latitude": "35.9381550596",
    "longitude": "126.9480235933",
    "image": "http://tong.visitkorea.or.kr/cms/resource/76/3497076_image2_1.png",
    "category": "일반축제",
    "eventstartdate": "20250606",
    "eventenddate": "20250607"
  },
  {
    "id": "2841074",
    "title": "글로벌 영도커피페스티벌",
    "address": "부산광역시 영도구 해양로301번길 55",
    "phone": "051-717-0236",
    "latitude": "35.0772042891",
    "longitude": "129.0819836173",
    "image": "http://tong.visitkorea.or.kr/cms/resource/97/2846997_image2_1.jpg",
    "category": "일반축제",
    "eventstartdate": "20250523",
    "eventenddate": "20250525"
  },
  {
    "id": "3400856",
    "title": "글로벌 콘텐츠 페스티벌 in 순천",
    "address": "전라남도 순천시 오천동",
    "phone": "061-749-3886",
    "latitude": "34.9335115902",
    "longitude": "127.4979341176",
    "image": "http://tong.visitkorea.or.kr/cms/resource/92/3545492_image2_1.jpg",
    "category": "일반축제",
    "eventstartdate": "20251017",
    "eventenddate": "20251019"
  },
  {
    "id": "3020552",
    "title": "글로컬 문화 in(人) 남산 페스티벌",
    "address": "부산광역시 금정구 남산로 27 (남산동)",
    "phone": "051-714-4674",
    "latitude": "35.2668415191",
    "longitude": "129.0893638877",
    "image": "http://tong.visitkorea.or.kr/cms/resource/48/3552448_image2_1.jpg",
    "category": "일반축제",
    "eventstartdate": "20251101",
    "eventenddate": "20251101"
  },
  {
    "id": "2555759",
    "title": "금능원담축제",
    "address": "제주특별자치도 제주시 한림읍 협재리",
    "phone": "064-796-2011",
    "latitude": "33.3888630479",
    "longitude": "126.2340841383",
    "image": "http://tong.visitkorea.or.kr/cms/resource/40/3518240_image2_1.JPG",
    "category": "일반축제",
    "eventstartdate": "20250823",
    "eventenddate": "20250824"
  },
  {
    "id": "2950952",
    "title": "금산 보곡산골 산벚꽃 축제",
    "address": "충청남도 금산군 군북면 자진뱅이길 39",
    "phone": "041-750-2307",
    "latitude": "36.1943616874",
    "longitude": "127.5667171482",
    "image": "http://tong.visitkorea.or.kr/cms/resource/48/2950948_image2_1.jpg",
    "category": "일반축제",
    "eventstartdate": "20250412",
    "eventenddate": "20250420"
  },
  {
    "id": "2719507",
    "title": "금산 삼계탕축제",
    "address": "충청남도 금산군 금산읍 인삼광장로 30",
    "phone": "041-750-2316",
    "latitude": "36.1002101508",
    "longitude": "127.5012171957",
    "image": "http://tong.visitkorea.or.kr/cms/resource/12/3116212_image2_1.jpg",
    "category": "일반축제",
    "eventstartdate": "20250718",
    "eventenddate": "20250720"
  },
  {
    "id": "1275743",
    "title": "금정산성축제",
    "address": "부산광역시 금정구 산성로 501-2 (금성동)",
    "phone": "051-715-6884",
    "latitude": "35.2453211119",
    "longitude": "129.0570561824",
    "image": "http://tong.visitkorea.or.kr/cms/resource/56/3487556_image2_1.jpg",
    "category": "일반축제",
    "eventstartdate": "20250613",
    "eventenddate": "20250615"
  },
  {
    "id": "3530641",
    "title": "금천GC페스타",
    "address": "서울특별시 금천구 디지털로10길 9 (가산동)",
    "phone": "02-2627-1442",
    "latitude": "37.4776713039",
    "longitude": "126.8890705637",
    "image": "http://tong.visitkorea.or.kr/cms/resource/23/3530623_image2_1.jpg",
    "category": "일반축제",
    "eventstartdate": "20250912",
    "eventenddate": "20250914"
  },
  {
    "id": "3370146",
    "title": "금천청년축제",
    "address": "서울특별시 금천구 시흥대로73길 70 (시흥동)",
    "phone": "010-9771-2090",
    "latitude": "37.4564933229",
    "longitude": "126.8955205706",
    "image": "http://tong.visitkorea.or.kr/cms/resource/34/3530334_image2_1.jpg",
    "category": "일반축제",
    "eventstartdate": "20250920",
    "eventenddate": "20250920"
  },
  {
    "id": "2761411",
    "title": "금천하모니축제",
    "address": "서울특별시 금천구 시흥대로73길 70 (시흥동)",
    "phone": "070-4114-6351<br>070-4118-3352",
    "latitude": "37.4564933229",
    "longitude": "126.8955205706",
    "image": "http://tong.visitkorea.or.kr/cms/resource/92/3483192_image2_1.jpg",
    "category": "일반축제",
    "eventstartdate": "20251018",
    "eventenddate": "20251019"
  },
  {
    "id": "2560741",
    "title": "금호강 바람소리길 축제",
    "address": "대구광역시 북구 산격동",
    "phone": "053-320-5120",
    "latitude": "35.9114710201",
    "longitude": "128.6049579024",
    "image": "http://tong.visitkorea.or.kr/cms/resource/16/3538016_image2_1.JPG",
    "category": "일반축제",
    "eventstartdate": "20250927",
    "eventenddate": "20250928"
  },
  {
    "id": "3493864",
    "title": "기장군반려동물문화축제",
    "address": "부산광역시 기장군 정관읍 구연3로 27",
    "phone": "010-3880-4966",
    "latitude": "35.3222286938",
    "longitude": "129.1819237392",
    "image": "http://tong.visitkorea.or.kr/cms/resource/63/3493863_image2_1.JPG",
    "category": "일반축제",
    "eventstartdate": "20250607",
    "eventenddate": "20250607"
  },
  {
    "id": "2860868",
    "title": "기장붕장어축제in칠암",
    "address": "부산광역시 기장군 일광읍 칠암리",
    "phone": "051-721-8050",
    "latitude": "35.2983189421",
    "longitude": "129.2599953837",
    "image": "http://tong.visitkorea.or.kr/cms/resource/29/3553829_image2_1.JPG",
    "category": "일반축제",
    "eventstartdate": "20251024",
    "eventenddate": "20251026"
  },
  {
    "id": "2614130",
    "title": "기장임랑썸머뮤직페스티벌",
    "address": "부산광역시 기장군 장안읍 임랑리",
    "phone": "051-727-7328",
    "latitude": "35.3185806381",
    "longitude": "129.2642527829",
    "image": "http://tong.visitkorea.or.kr/cms/resource/82/3516182_image2_1.png",
    "category": "일반축제",
    "eventstartdate": "20250815",
    "eventenddate": "20250816"
  },
  {
    "id": "141704",
    "title": "기지시줄다리기 축제",
    "address": "충청남도 당진시 송악읍 안틀모시길 11",
    "phone": "041-358-4646",
    "latitude": "36.8962157548",
    "longitude": "126.6947486805",
    "image": "http://tong.visitkorea.or.kr/cms/resource/54/3482754_image2_1.jpg",
    "category": "일반축제",
    "eventstartdate": "20250410",
    "eventenddate": "20250413"
  },
  {
    "id": "141252",
    "title": "김삿갓 문화제",
    "address": "강원특별자치도 영월군 김삿갓면 김삿갓로 216-22",
    "phone": "033-375-6379, 033-375-6364",
    "latitude": "37.0795432684",
    "longitude": "128.6017551925",
    "image": "http://tong.visitkorea.or.kr/cms/resource/56/3541356_image2_1.JPG",
    "category": "일반축제",
    "eventstartdate": "20251017",
    "eventenddate": "20251019"
  },
  {
    "id": "2953096",
    "title": "김제 꽃빛드리 축제",
    "address": "전북특별자치도 김제시 도작로 220 (검산동)",
    "phone": "063-542-5203",
    "latitude": "35.8130212655",
    "longitude": "126.8999144686",
    "image": "http://tong.visitkorea.or.kr/cms/resource/82/3107882_image2_1.jpg",
    "category": "일반축제",
    "eventstartdate": "20250404",
    "eventenddate": "20250406"
  },
  {
    "id": "3018929",
    "title": "김포 라베니체축제",
    "address": "경기도 김포시 초당로 54 (장기동)",
    "phone": "031-980-5113",
    "latitude": "37.6437176409",
    "longitude": "126.6755687199",
    "image": "http://tong.visitkorea.or.kr/cms/resource/70/3480370_image2_1.png",
    "category": "일반축제",
    "eventstartdate": "20251018",
    "eventenddate": "20251018"
  },
  {
    "id": "3480383",
    "title": "김포 벚꽃축제",
    "address": "경기도 김포시 북변동",
    "phone": "031-980-5113",
    "latitude": "37.6254538568",
    "longitude": "126.7181764487",
    "image": "http://tong.visitkorea.or.kr/cms/resource/61/3489661_image2_1.jpg",
    "category": "일반축제",
    "eventstartdate": "20250411",
    "eventenddate": "20250412"
  },
  {
    "id": "3401306",
    "title": "김포 해병대 문화축제",
    "address": "경기도 김포시 대곶면 대명항1로 110-36",
    "phone": "031-980-5110",
    "latitude": "37.6400684369",
    "longitude": "126.5394646034",
    "image": "http://tong.visitkorea.or.kr/cms/resource/76/3480376_image2_1.jpg",
    "category": "일반축제",
    "eventstartdate": "20251101",
    "eventenddate": "20251101"
  },
  {
    "id": "3551127",
    "title": "김해뮤직페스티벌 연어",
    "address": "경상남도 김해시 가야테마길 161 (어방동)",
    "phone": "055-340-7900~01",
    "latitude": "35.2522311829",
    "longitude": "128.8920398207",
    "image": "http://tong.visitkorea.or.kr/cms/resource/06/3551006_image2_1.JPG",
    "category": "일반축제",
    "eventstartdate": "20251018",
    "eventenddate": "20251018"
  },
  {
    "id": "2394844",
    "title": "나라꽃 무궁화 대축제",
    "address": "세종특별자치시 수목원로 136 (세종동)",
    "phone": "02-545-0633",
    "latitude": "36.4986579981",
    "longitude": "127.2857090051",
    "image": "http://tong.visitkorea.or.kr/cms/resource/65/3513265_image2_1.JPG",
    "category": "일반축제",
    "eventstartdate": "20250814",
    "eventenddate": "20250817"
  },
  {
    "id": "3488869",
    "title": "난설헌문화제",
    "address": "강원특별자치도 강릉시 난설헌로193번길 1-16 (초당동)",
    "phone": "070-8802-9009",
    "latitude": "37.7917948539",
    "longitude": "128.9097365341",
    "image": "http://tong.visitkorea.or.kr/cms/resource/60/3488860_image2_1.jpg",
    "category": "일반축제",
    "eventstartdate": "20250501",
    "eventenddate": "20250506"
  },
  {
    "id": "2748395",
    "title": "남구청년예술제",
    "address": "대구광역시 남구 앞산순환로 478 (대명동)",
    "phone": "053-664-3118",
    "latitude": "35.8313351328",
    "longitude": "128.5769959299",
    "image": "http://tong.visitkorea.or.kr/cms/resource/16/3526916_image2_1.JPG",
    "category": "일반축제",
    "eventstartdate": "20250925",
    "eventenddate": "20250926"
  },
  {
    "id": "3544888",
    "title": "남도국제미식산업박람회",
    "address": "전라남도 목포시 남농로 102 (용해동)",
    "phone": "070-7703-1238",
    "latitude": "34.7925231794",
    "longitude": "126.4179466031",
    "image": "http://tong.visitkorea.or.kr/cms/resource/74/3544874_image2_1.jpg",
    "category": "일반축제",
    "eventstartdate": "20251001",
    "eventenddate": "20251026"
  },
  {
    "id": "2552582",
    "title": "남부면 수국축제",
    "address": "경상남도 거제시 남부면 저구해안길 60",
    "phone": "055-639-6532",
    "latitude": "34.7308204572",
    "longitude": "128.6067925207",
    "image": "http://tong.visitkorea.or.kr/cms/resource/57/3497357_image2_1.jpg",
    "category": "일반축제",
    "eventstartdate": "20250628",
    "eventenddate": "20250629"
  },
  {
    "id": "3488279",
    "title": "남양주 어린이 축제",
    "address": "경기도 남양주시 다산지금로 91 (이패동)",
    "phone": "031-566-0544",
    "latitude": "37.6050172019",
    "longitude": "127.1748020436",
    "image": "http://tong.visitkorea.or.kr/cms/resource/77/3488277_image2_1.jpg",
    "category": "일반축제",
    "eventstartdate": "20250503",
    "eventenddate": "20250503"
  },
  {
    "id": "2593221",
    "title": "남이섬 벗(友)꽃놀자",
    "address": "강원특별자치도 춘천시 남산면 남이섬길 1",
    "phone": "031-580-8114",
    "latitude": "37.7963208193",
    "longitude": "127.5255090138",
    "image": "http://tong.visitkorea.or.kr/cms/resource/79/3484979_image2_1.jpg",
    "category": "일반축제",
    "eventstartdate": "20250405",
    "eventenddate": "20250420"
  },
  {
    "id": "2544286",
    "title": "남이섬 어쿠스틱 청춘 페스티벌",
    "address": "강원특별자치도 춘천시 남산면 남이섬길 1",
    "phone": "031-580-8015",
    "latitude": "37.7901159965",
    "longitude": "127.5261035858",
    "image": "http://tong.visitkorea.or.kr/cms/resource/66/3483166_image2_1.JPG",
    "category": "일반축제",
    "eventstartdate": "20250606",
    "eventenddate": "20250615"
  },
  {
    "id": "2994352",
    "title": "내인생의 한방축제",
    "address": "대전광역시 동구 태전로 1 (중동)",
    "phone": "042-221-1551",
    "latitude": "36.3309297860",
    "longitude": "127.4311616537",
    "image": "http://tong.visitkorea.or.kr/cms/resource/10/3518010_image2_1.jpg",
    "category": "일반축제",
    "eventstartdate": "20250808",
    "eventenddate": "20250816"
  },
  {
    "id": "2865258",
    "title": "노원 북 페스티벌",
    "address": "서울특별시 노원구 공릉로55길 88 (하계동)",
    "phone": "02-2116-0701",
    "latitude": "37.6320954567",
    "longitude": "127.0679693368",
    "image": "http://tong.visitkorea.or.kr/cms/resource/61/3559561_image2_1.png",
    "category": "일반축제",
    "eventstartdate": "20251017",
    "eventenddate": "20251102"
  },
  {
    "id": "3520705",
    "title": "노원수제맥주축제",
    "address": "서울특별시 노원구 화랑로 608 (공릉동)",
    "phone": "02-2289-3478, 3447",
    "latitude": "37.6245051267",
    "longitude": "127.0931061506",
    "image": "http://tong.visitkorea.or.kr/cms/resource/10/3520610_image2_1.jpg",
    "category": "일반축제",
    "eventstartdate": "20250829",
    "eventenddate": "20250831"
  },
  {
    "id": "1139979",
    "title": "논산양촌곶감축제",
    "address": "충청남도 논산시 양촌면 양촌리",
    "phone": "041-730-2928",
    "latitude": "36.1291829140",
    "longitude": "127.2469224300",
    "image": "http://tong.visitkorea.or.kr/cms/resource/87/3574987_image2_1.JPG",
    "category": "일반축제",
    "eventstartdate": "20251212",
    "eventenddate": "20251214"
  },
  {
    "id": "3468894",
    "title": "다리안 온(溫) 축제",
    "address": "충청북도 단양군 단양읍 소백산등산길 12",
    "phone": "043-421-7891",
    "latitude": "36.9649224612",
    "longitude": "128.4208914066",
    "image": "http://tong.visitkorea.or.kr/cms/resource/93/3468893_image2_1.jpg",
    "category": "일반축제",
    "eventstartdate": "20250212",
    "eventenddate": "20250226"
  },
  {
    "id": "557329",
    "title": "단양 소백산 철쭉제",
    "address": "충청북도 단양군 단양읍 수변로 38",
    "phone": "070-4912-9765",
    "latitude": "36.9789893297",
    "longitude": "128.3696983554",
    "image": "http://tong.visitkorea.or.kr/cms/resource/82/2989682_image2_1.jpg",
    "category": "일반축제",
    "eventstartdate": "20250522",
    "eventenddate": "20250525"
  },
  {
    "id": "292835",
    "title": "단종문화제",
    "address": "강원특별자치도 영월군 영월읍 하송리",
    "phone": "033-375-6353",
    "latitude": "37.1781071928",
    "longitude": "128.4687003093",
    "image": "http://tong.visitkorea.or.kr/cms/resource/70/3114470_image2_1.jpg",
    "category": "일반축제",
    "eventstartdate": "20250425",
    "eventenddate": "20250427"
  },
  {
    "id": "2816928",
    "title": "달빛가득 부평향교",
    "address": "인천광역시 계양구 향교로 19 부평향교(지정문화재)",
    "phone": "032-450-5754",
    "latitude": "37.5395472304",
    "longitude": "126.7207175131",
    "image": "http://tong.visitkorea.or.kr/cms/resource/52/3526752_image2_1.jpg",
    "category": "일반축제",
    "eventstartdate": "20250906",
    "eventenddate": "20250906"
  },
  {
    "id": "1846905",
    "title": "달성 100대 피아노",
    "address": "대구광역시 달성군 화원읍 사문진로1길 33-18",
    "phone": "053-668-4253",
    "latitude": "35.8087913858",
    "longitude": "128.4760693326",
    "image": "http://tong.visitkorea.or.kr/cms/resource/59/3525359_image2_1.jpg",
    "category": "일반축제",
    "eventstartdate": "20250927",
    "eventenddate": "20250927"
  },
  {
    "id": "391883",
    "title": "대관령눈꽃축제",
    "address": "강원특별자치도 평창군 대관령로 135-9",
    "phone": "033-335-3995",
    "latitude": "37.6726020057",
    "longitude": "128.7110497723",
    "image": "http://tong.visitkorea.or.kr/cms/resource/89/3458289_image2_1.JPG",
    "category": "일반축제",
    "eventstartdate": "20250124",
    "eventenddate": "20250202"
  },
  {
    "id": "2396313",
    "title": "대구 국가유산 야행",
    "address": "대구광역시 중구 경상감영길 99 (포정동)",
    "phone": "053-661-2195",
    "latitude": "35.8719391638",
    "longitude": "128.5929267304",
    "image": "http://tong.visitkorea.or.kr/cms/resource/09/3520409_image2_1.JPG",
    "category": "일반축제",
    "eventstartdate": "20250829",
    "eventenddate": "20250830"
  },
  {
    "id": "3548867",
    "title": "대구 동구 어울림한마당 두두다동",
    "address": "대구광역시 동구 금호강변로 278 (율하동)",
    "phone": "053-662-4072",
    "latitude": "35.8599618100",
    "longitude": "128.6928627093",
    "image": "http://tong.visitkorea.or.kr/cms/resource/63/3548863_image2_1.jpg",
    "category": "일반축제",
    "eventstartdate": "20251018",
    "eventenddate": "20251018"
  },
  {
    "id": "3507102",
    "title": "대구 동구 여름축제 두두썸동",
    "address": "대구광역시 동구 검사동",
    "phone": "053-662-4072",
    "latitude": "35.8851692832",
    "longitude": "128.6504212976",
    "image": "http://tong.visitkorea.or.kr/cms/resource/79/3507079_image2_1.png",
    "category": "일반축제",
    "eventstartdate": "20250726",
    "eventenddate": "20250726"
  },
  {
    "id": "2826992",
    "title": "대구데이 페스티벌",
    "address": "대구광역시 수성구 두산동",
    "phone": "053-763-1908",
    "latitude": "35.8294194470",
    "longitude": "128.6184867738",
    "image": "http://tong.visitkorea.or.kr/cms/resource/28/3485728_image2_1.jpg",
    "category": "일반축제",
    "eventstartdate": "20250620",
    "eventenddate": "20250621"
  },
  {
    "id": "2375382",
    "title": "대구앞산축제",
    "address": "대구광역시 남구 고산4길 71 (봉덕동)",
    "phone": "053-664-3262",
    "latitude": "35.8323326744",
    "longitude": "128.6004605022",
    "image": "http://tong.visitkorea.or.kr/cms/resource/28/3488928_image2_1.jpg",
    "category": "일반축제",
    "eventstartdate": "20250517",
    "eventenddate": "20250518"
  },
  {
    "id": "2952467",
    "title": "대덕물빛축제",
    "address": "대전광역시 대덕구 미호동",
    "phone": "070-4140-6544<br>070-4140-6543",
    "latitude": "36.4731698294",
    "longitude": "127.4741317078",
    "image": "http://tong.visitkorea.or.kr/cms/resource/60/2952460_image2_1.jpg",
    "category": "일반축제",
    "eventstartdate": "20250328",
    "eventenddate": "20250426"
  },
  {
    "id": "3363436",
    "title": "대덕힐링콘서트",
    "address": "대전광역시 대덕구 동춘당로 80 (송촌동)",
    "phone": "042-936-2400",
    "latitude": "36.3648816382",
    "longitude": "127.4412987135",
    "image": "http://tong.visitkorea.or.kr/cms/resource/85/3546985_image2_1.png",
    "category": "일반축제",
    "eventstartdate": "20251018",
    "eventenddate": "20251018"
  },
  {
    "id": "3019716",
    "title": "대장경기록문화축제",
    "address": "경상남도 합천군 가야면 가야산로 1160",
    "phone": "055-930-4697",
    "latitude": "35.7673871185",
    "longitude": "128.1365143052",
    "image": "http://tong.visitkorea.or.kr/cms/resource/75/3559875_image2_1.JPG",
    "category": "일반축제",
    "eventstartdate": "20251024",
    "eventenddate": "20251102"
  },
  {
    "id": "2990597",
    "title": "대전 0시 축제",
    "address": "대전광역시 중구 중앙로 148",
    "phone": "042-120",
    "latitude": "36.3284549844",
    "longitude": "127.4263982574",
    "image": "http://tong.visitkorea.or.kr/cms/resource/27/3489027_image2_1.jpg",
    "category": "일반축제",
    "eventstartdate": "20250808",
    "eventenddate": "20250816"
  },
  {
    "id": "3113001",
    "title": "대전 동구동락 축제",
    "address": "대전광역시 동구 철갑2길 2 (소제동)",
    "phone": "042-251-6673",
    "latitude": "36.3350238727",
    "longitude": "127.4374054282",
    "image": "http://tong.visitkorea.or.kr/cms/resource/14/3532414_image2_1.jpg",
    "category": "일반축제",
    "eventstartdate": "20251024",
    "eventenddate": "20251026"
  },
  {
    "id": "2618730",
    "title": "대전ART마임페스티벌",
    "address": "대전광역시 중구 중앙로 101",
    "phone": "042-257-1231",
    "latitude": "36.3267634148",
    "longitude": "127.4209793431",
    "image": "http://tong.visitkorea.or.kr/cms/resource/17/3349617_image2_1.jpg",
    "category": "일반축제",
    "eventstartdate": "20250919",
    "eventenddate": "20250920"
  },
  {
    "id": "3373075",
    "title": "대전무악연희축제",
    "address": "대전광역시 서구 둔산대로 181 (만년동)",
    "phone": "042-256-4958",
    "latitude": "36.3663860994",
    "longitude": "127.3894005357",
    "image": "http://tong.visitkorea.or.kr/cms/resource/12/3502912_image2_1.jpg",
    "category": "일반축제",
    "eventstartdate": "20250711",
    "eventenddate": "20250712"
  },
  {
    "id": "3114341",
    "title": "대전시민천문대 별축제",
    "address": "대전광역시 유성구 대덕대로 480 (도룡동)",
    "phone": "042-863-8763",
    "latitude": "36.3759931713",
    "longitude": "127.3802705364",
    "image": "http://tong.visitkorea.or.kr/cms/resource/11/3486411_image2_1.jpg",
    "category": "일반축제",
    "eventstartdate": "20250416",
    "eventenddate": "20250420"
  },
  {
    "id": "2867330",
    "title": "대전한우숯불구이축제",
    "address": "대전광역시 유성구 월드컵대로 32 (노은동)",
    "phone": "1899-9501<br>010-2111-7215",
    "latitude": "36.3638797168",
    "longitude": "127.3266089995",
    "image": "http://tong.visitkorea.or.kr/cms/resource/13/3484613_image2_1.jpg",
    "category": "일반축제",
    "eventstartdate": "20250409",
    "eventenddate": "20250413"
  },
  {
    "id": "3067459",
    "title": "대천겨울바다사랑축제",
    "address": "충청남도 보령시 고잠2길 55 (신흑동)",
    "phone": "041-930-0891",
    "latitude": "36.3150378323",
    "longitude": "126.5134277011",
    "image": "http://tong.visitkorea.or.kr/cms/resource/44/3583844_image2_1.jpg",
    "category": "일반축제",
    "eventstartdate": "20251224",
    "eventenddate": "20251228"
  },
  {
    "id": "2591747",
    "title": "대청호 벚꽃 축제",
    "address": "대전광역시 동구 신상동",
    "phone": "042-251-6674",
    "latitude": "36.3544921697",
    "longitude": "127.4979550424",
    "image": "http://tong.visitkorea.or.kr/cms/resource/13/3111413_image2_1.jpg",
    "category": "일반축제",
    "eventstartdate": "20250328",
    "eventenddate": "20250406"
  },
  {
    "id": "2952027",
    "title": "대한민국 과학기술축제",
    "address": "대전광역시 서구 둔산대로 169 (만년동)",
    "phone": "02-333-4723",
    "latitude": "36.3659250159",
    "longitude": "127.3879840082",
    "image": "http://tong.visitkorea.or.kr/cms/resource/28/3482328_image2_1.JPG",
    "category": "일반축제",
    "eventstartdate": "20250416",
    "eventenddate": "20250420"
  },
  {
    "id": "2019366",
    "title": "대한민국 국제해양레저위크(KIMA WEEK)",
    "address": "부산광역시 사하구 다대동",
    "phone": "051-760-1130",
    "latitude": "35.0572211857",
    "longitude": "128.9729408629",
    "image": "http://tong.visitkorea.or.kr/cms/resource/21/2553821_image2_1.jpg",
    "category": "일반축제",
    "eventstartdate": "20250814",
    "eventenddate": "20250817"
  },
  {
    "id": "638576",
    "title": "대한민국 국향대전",
    "address": "전라남도 함평군 함평읍 곤재로 27",
    "phone": "061-320-2238",
    "latitude": "35.0562284540",
    "longitude": "126.5199617294",
    "image": "http://tong.visitkorea.or.kr/cms/resource/90/3460490_image2_1.JPG",
    "category": "일반축제",
    "eventstartdate": "20251024",
    "eventenddate": "20251109"
  },
  {
    "id": "3543595",
    "title": "대한민국 조아용 페스티벌",
    "address": "경기도 용인시 처인구 동백죽전대로 61 (삼가동)",
    "phone": "031-6193-2064",
    "latitude": "37.2496832314",
    "longitude": "127.1651741040",
    "image": "http://tong.visitkorea.or.kr/cms/resource/88/3543588_image2_1.png",
    "category": "일반축제",
    "eventstartdate": "20250927",
    "eventenddate": "20250928"
  },
  {
    "id": "3302702",
    "title": "대한민국 펫캉스",
    "address": "경상북도 구미시 산동읍 첨단기업1로 49",
    "phone": "053-567-4497",
    "latitude": "36.1416419026",
    "longitude": "128.4422575010",
    "image": "http://tong.visitkorea.or.kr/cms/resource/05/3491105_image2_1.jpg",
    "category": "일반축제",
    "eventstartdate": "20250725",
    "eventenddate": "20250727"
  },
  {
    "id": "1118680",
    "title": "대한민국와인축제",
    "address": "충청북도 영동군 영동읍 매천리",
    "phone": "043-745-8922",
    "latitude": "36.1610388563",
    "longitude": "127.7860179709",
    "image": "http://tong.visitkorea.or.kr/cms/resource/94/3521294_image2_1.png",
    "category": "일반축제",
    "eventstartdate": "20250912",
    "eventenddate": "20251011"
  },
  {
    "id": "2554931",
    "title": "댄싱노원 거리페스티벌",
    "address": "서울특별시 노원구 노해로 487-3 (상계동)",
    "phone": "02-2289-3464",
    "latitude": "37.6548371522",
    "longitude": "127.0621664390",
    "image": "http://tong.visitkorea.or.kr/cms/resource/56/3528456_image2_1.JPG",
    "category": "일반축제",
    "eventstartdate": "20250920",
    "eventenddate": "20250921"
  },
  {
    "id": "2756396",
    "title": "덕수궁 밤의 석조전",
    "address": "서울특별시 중구 세종대로 99 (정동)",
    "phone": "1522-2295 (궁능 활용 프로그램 전화 상담실)",
    "latitude": "37.5651071556",
    "longitude": "126.9765906796",
    "image": "http://tong.visitkorea.or.kr/cms/resource/74/3115374_image2_1.jpg",
    "category": "일반축제",
    "eventstartdate": "20250910",
    "eventenddate": "20251026"
  },
  {
    "id": "3018924",
    "title": "도곡 메타세쿼이아 로드 페스타",
    "address": "서울특별시 강남구 양재천로 199 (도곡동)",
    "phone": "02-3423-7552",
    "latitude": "37.4831568326",
    "longitude": "127.0472810057",
    "image": "http://tong.visitkorea.or.kr/cms/resource/62/3543062_image2_1.jpg",
    "category": "일반축제",
    "eventstartdate": "20250927",
    "eventenddate": "20250927"
  },
  {
    "id": "2725188",
    "title": "도봉옛길 문화제",
    "address": "서울특별시 도봉구 도봉동",
    "phone": "02-905-4026",
    "latitude": "37.6912271199",
    "longitude": "127.0486721864",
    "image": "http://tong.visitkorea.or.kr/cms/resource/46/3488546_image2_1.JPG",
    "category": "일반축제",
    "eventstartdate": "20250616",
    "eventenddate": "20250621"
  },
  {
    "id": "2601242",
    "title": "도봉한글잔치",
    "address": "서울특별시 도봉구 해등로32가길 16 (방학동)",
    "phone": "02-905-4026",
    "latitude": "37.6603441259",
    "longitude": "127.0222810312",
    "image": "http://tong.visitkorea.or.kr/cms/resource/25/3550325_image2_1.JPG",
    "category": "일반축제",
    "eventstartdate": "20251002",
    "eventenddate": "20251019"
  },
  {
    "id": "3093268",
    "title": "도서관의 날 · 도서관주간",
    "address": "서울특별시 서초구 반포대로 201 (반포동)",
    "phone": "070-5159-5447",
    "latitude": "37.4976821568",
    "longitude": "127.0045483736",
    "image": "http://tong.visitkorea.or.kr/cms/resource/29/3482429_image2_1.png",
    "category": "일반축제",
    "eventstartdate": "20250412",
    "eventenddate": "20250418"
  },
  {
    "id": "2991731",
    "title": "도시캠핑대전",
    "address": "대전광역시 유성구 대덕대로 480 (도룡동)",
    "phone": "1577-2265",
    "latitude": "36.3759931713",
    "longitude": "127.3802705364",
    "image": "http://tong.visitkorea.or.kr/cms/resource/51/3479351_image2_1.jpg",
    "category": "일반축제",
    "eventstartdate": "20250530",
    "eventenddate": "20250608"
  },
  {
    "id": "1472205",
    "title": "도심속 바다축제",
    "address": "서울특별시 동작구 노들로 688 (노량진동)",
    "phone": "02-820-9401",
    "latitude": "0",
    "longitude": "0",
    "image": "http://tong.visitkorea.or.kr/cms/resource/17/3555917_image2_1.jpg",
    "category": "일반축제",
    "eventstartdate": "20251025",
    "eventenddate": "20251026"
  },
  {
    "id": "581063",
    "title": "동강뗏목축제",
    "address": "강원특별자치도 영월군 영월읍 하송리",
    "phone": "033-375-6353",
    "latitude": "37.1780849728",
    "longitude": "128.4686780897",
    "image": "http://tong.visitkorea.or.kr/cms/resource/12/3513812_image2_1.jpg",
    "category": "일반축제",
    "eventstartdate": "20250801",
    "eventenddate": "20250803"
  },
  {
    "id": "3572025",
    "title": "동궐동락",
    "address": "서울특별시 종로구 창경궁로 185 (와룡동)",
    "phone": "1522-2295",
    "latitude": "37.5789336838",
    "longitude": "126.9964634775",
    "image": "http://tong.visitkorea.or.kr/cms/resource/22/3572022_image2_1.jpg",
    "category": "일반축제",
    "eventstartdate": "20251111",
    "eventenddate": "20251116"
  },
  {
    "id": "3351268",
    "title": "동대문구 맥주축제",
    "address": "서울특별시 동대문구 장안동",
    "phone": "02-3295-5568",
    "latitude": "37.5666448642",
    "longitude": "127.0753483058",
    "image": "http://tong.visitkorea.or.kr/cms/resource/70/3513270_image2_1.png",
    "category": "일반축제",
    "eventstartdate": "20250829",
    "eventenddate": "20250830"
  },
  {
    "id": "1592837",
    "title": "동대문구 봄꽃축제",
    "address": "서울특별시 동대문구 장안동",
    "phone": "02-2127-4711",
    "latitude": "37.5668642825",
    "longitude": "127.0753566318",
    "image": "http://tong.visitkorea.or.kr/cms/resource/75/3483575_image2_1.jpg",
    "category": "일반축제",
    "eventstartdate": "20250405",
    "eventenddate": "20250406"
  },
  {
    "id": "3304765",
    "title": "동두천 예맥축제",
    "address": "경기도 동두천시 상패로216번길 28 (보산동)",
    "phone": "031-863-0351",
    "latitude": "37.9165621140",
    "longitude": "127.0562233532",
    "image": "http://tong.visitkorea.or.kr/cms/resource/37/3498337_image2_1.jpg",
    "category": "일반축제",
    "eventstartdate": "20250621",
    "eventenddate": "20250621"
  },
  {
    "id": "3553639",
    "title": "동명커피산책",
    "address": "광주광역시 동구 제봉로110번길 4 (장동)",
    "phone": "062-608-2762",
    "latitude": "35.1483331250",
    "longitude": "126.9224655042",
    "image": "http://tong.visitkorea.or.kr/cms/resource/09/3553609_image2_1.jpg",
    "category": "일반축제",
    "eventstartdate": "20251108",
    "eventenddate": "20251108"
  },
  {
    "id": "985816",
    "title": "동심한마당",
    "address": "서울특별시 영등포구 의사당대로 1",
    "phone": "02-595-3325",
    "latitude": "37.5320321034",
    "longitude": "126.9141334174",
    "image": "http://tong.visitkorea.or.kr/cms/resource/91/3485891_image2_1.jpg",
    "category": "일반축제",
    "eventstartdate": "20250517",
    "eventenddate": "20250517"
  },
  {
    "id": "2560781",
    "title": "동인천 낭만축제",
    "address": "인천광역시 동구 화도진로 53 (송현동)",
    "phone": "032-899-7429",
    "latitude": "37.4765252097",
    "longitude": "126.6319301493",
    "image": "http://tong.visitkorea.or.kr/cms/resource/40/3013740_image2_1.jpg",
    "category": "일반축제",
    "eventstartdate": "20251018",
    "eventenddate": "20251019"
  },
  {
    "id": "3370427",
    "title": "동작댄싱데이 페스티벌",
    "address": "서울특별시 동작구 노들로 688 (노량진동)",
    "phone": "070-7204-3251",
    "latitude": "37.5154094998",
    "longitude": "126.9401731800",
    "image": "http://tong.visitkorea.or.kr/cms/resource/43/3546043_image2_1.jpg",
    "category": "일반축제",
    "eventstartdate": "20250928",
    "eventenddate": "20250928"
  },
  {
    "id": "1079577",
    "title": "동춘당 문화제",
    "address": "대전광역시 대덕구 동춘당로 80 (송촌동)",
    "phone": "042-627-7517",
    "latitude": "36.3648816382",
    "longitude": "127.4412987135",
    "image": "http://tong.visitkorea.or.kr/cms/resource/21/3486121_image2_1.jpg",
    "category": "일반축제",
    "eventstartdate": "20250510",
    "eventenddate": "20250510"
  },
  {
    "id": "3497275",
    "title": "동터스트릿페스타",
    "address": "대구광역시 동구 동부로30길 24 (신천동)",
    "phone": "053-767-8880",
    "latitude": "35.8750950220",
    "longitude": "128.6286929365",
    "image": "http://tong.visitkorea.or.kr/cms/resource/74/3497274_image2_1.jpg",
    "category": "일반축제",
    "eventstartdate": "20250613",
    "eventenddate": "20250614"
  },
  {
    "id": "2492537",
    "title": "동편제국악축제",
    "address": "전북특별자치도 남원시 운봉읍 가산화수길 84",
    "phone": "010-2814-1055",
    "latitude": "35.4578119261",
    "longitude": "127.5613650169",
    "image": "http://tong.visitkorea.or.kr/cms/resource/37/3540937_image2_1.jpg",
    "category": "일반축제",
    "eventstartdate": "20250913",
    "eventenddate": "20250913"
  },
  {
    "id": "1266490",
    "title": "동학농민혁명기념제",
    "address": "전북특별자치도 정읍시 천변로 233 (시기동)",
    "phone": "063-538-1894",
    "latitude": "35.5616851570",
    "longitude": "126.8535222764",
    "image": "http://tong.visitkorea.or.kr/cms/resource/69/3486769_image2_1.jpg",
    "category": "일반축제",
    "eventstartdate": "20250510",
    "eventenddate": "20250511"
  },
  {
    "id": "734219",
    "title": "동해 무릉제",
    "address": "강원특별자치도 동해시 덕골길 10 (천곡동)",
    "phone": "033-532-1945",
    "latitude": "37.5149722608",
    "longitude": "129.1028194007",
    "image": "http://tong.visitkorea.or.kr/cms/resource/65/3528665_image2_1.jpg",
    "category": "일반축제",
    "eventstartdate": "20250918",
    "eventenddate": "20250921"
  },
  {
    "id": "3112269",
    "title": "두릅봄나물여행",
    "address": "경기도 가평군 설악면 묵안로 906",
    "phone": "031-584-9959<br>010-3717-5053",
    "latitude": "37.6034071069",
    "longitude": "127.5247674871",
    "image": "http://tong.visitkorea.or.kr/cms/resource/59/3112259_image2_1.jpg",
    "category": "일반축제",
    "eventstartdate": "20250426",
    "eventenddate": "20250427"
  },
  {
    "id": "1684261",
    "title": "둔내고랭지토마토축제",
    "address": "강원특별자치도 횡성군 둔내면 경강로 4708",
    "phone": "033-340-2774",
    "latitude": "37.5175743300",
    "longitude": "128.2139131688",
    "image": "http://tong.visitkorea.or.kr/cms/resource/85/3509885_image2_1.jpg",
    "category": "일반축제",
    "eventstartdate": "20250814",
    "eventenddate": "20250816"
  },
  {
    "id": "3113995",
    "title": "드론봇 페스티벌",
    "address": "경기도 양주시 광적면 삼일로 52",
    "phone": "031-8082-6161",
    "latitude": "19.6944274800",
    "longitude": "117.9925662504",
    "image": "http://tong.visitkorea.or.kr/cms/resource/93/3113993_image2_1.jpg",
    "category": "일반축제",
    "eventstartdate": "20251031",
    "eventenddate": "20251102"
  },
  {
    "id": "3479800",
    "title": "드림파크 벚꽃축제",
    "address": "인천광역시 서구 자원순환로 170 (백석동)",
    "phone": "032-560-9940",
    "latitude": "37.5731448144",
    "longitude": "126.6481259803",
    "image": "http://tong.visitkorea.or.kr/cms/resource/44/3480144_image2_1.jpg",
    "category": "일반축제",
    "eventstartdate": "20250414",
    "eventenddate": "20250420"
  },
  {
    "id": "2828537",
    "title": "떡볶이 페스티벌",
    "address": "대구광역시 북구 고성로 191 (고성동3가)",
    "phone": "070-7510-3091",
    "latitude": "35.8804436428",
    "longitude": "128.5867964789",
    "image": "http://tong.visitkorea.or.kr/cms/resource/31/3563131_image2_1.jpg",
    "category": "일반축제",
    "eventstartdate": "20251024",
    "eventenddate": "20251026"
  },
  {
    "id": "2484237",
    "title": "라라라 페스티벌",
    "address": "부산광역시 금정구 장전온천천로 48 (장전동)",
    "phone": "051-519-4422",
    "latitude": "35.2296540211",
    "longitude": "129.0893371356",
    "image": "http://tong.visitkorea.or.kr/cms/resource/03/3405703_image2_1.jpg",
    "category": "일반축제",
    "eventstartdate": "20251024",
    "eventenddate": "20251026"
  },
  {
    "id": "3346838",
    "title": "렛츠런파크 서울 가을야간축제 별밤마중 Festival",
    "address": "경기도 과천시 경마공원대로 107 (주암동)",
    "phone": "010-6237-6620",
    "latitude": "37.4440606773",
    "longitude": "127.0086578462",
    "image": "http://tong.visitkorea.or.kr/cms/resource/26/3532126_image2_1.jpg",
    "category": "일반축제",
    "eventstartdate": "20250906",
    "eventenddate": "20250921"
  },
  {
    "id": "525883",
    "title": "렛츠런파크 서울 벚꽃축제",
    "address": "경기도 과천시 경마공원대로 107 (주암동)",
    "phone": "02-3448-0095",
    "latitude": "37.4441273360",
    "longitude": "127.0086495110",
    "image": "http://tong.visitkorea.or.kr/cms/resource/46/3108646_image2_1.jpg",
    "category": "일반축제",
    "eventstartdate": "20250404",
    "eventenddate": "20250413"
  },
  {
    "id": "3026189",
    "title": "리얼 트레저 페스티벌",
    "address": "경기도 수원시 팔달구 효원로 1 (매산로3가)",
    "phone": "070-8706-1099",
    "latitude": "37.2738832007",
    "longitude": "127.0096292000",
    "image": "http://tong.visitkorea.or.kr/cms/resource/59/3547559_image2_1.jpg",
    "category": "일반축제",
    "eventstartdate": "20251101",
    "eventenddate": "20251101"
  },
  {
    "id": "2755544",
    "title": "릴랙스위크",
    "address": "서울특별시 강남구 남부순환로 3104 SETEC",
    "phone": "02-2231-2011",
    "latitude": "37.4960890861",
    "longitude": "127.0707673919",
    "image": "http://tong.visitkorea.or.kr/cms/resource/86/3479486_image2_1.jpg",
    "category": "일반축제",
    "eventstartdate": "20250317",
    "eventenddate": "20250430"
  },
  {
    "id": "1841539",
    "title": "마토예술제",
    "address": "경기도 평택시 팽성읍 안정쇼핑로 11",
    "phone": "070-8874-3037",
    "latitude": "36.9596645817",
    "longitude": "127.0441570141",
    "image": "http://tong.visitkorea.or.kr/cms/resource/50/3537650_image2_1.png",
    "category": "일반축제",
    "eventstartdate": "20250927",
    "eventenddate": "20250927"
  },
  {
    "id": "3492561",
    "title": "만석거 새빛축제",
    "address": "경기도 수원시 장안구 정조로 1085 (송죽동)",
    "phone": "031-228-3084",
    "latitude": "37.3012410248",
    "longitude": "127.0030151463",
    "image": "http://tong.visitkorea.or.kr/cms/resource/56/3492556_image2_1.jpg",
    "category": "일반축제",
    "eventstartdate": "20250605",
    "eventenddate": "20250615"
  },
  {
    "id": "3489087",
    "title": "말마랑 HAPPY 패밀리 데이",
    "address": "경기도 과천시 경마공원대로 107 (주암동)",
    "phone": "010-2455-7519",
    "latitude": "37.4441273360",
    "longitude": "127.0086495110",
    "image": "http://tong.visitkorea.or.kr/cms/resource/64/3489064_image2_1.jpg",
    "category": "일반축제",
    "eventstartdate": "20250503",
    "eventenddate": "20250504"
  },
  {
    "id": "2559006",
    "title": "목포 문화유산 야행",
    "address": "전라남도 목포시 번화로 18 (중앙동2가)",
    "phone": "061-270-8321",
    "latitude": "34.7860010944",
    "longitude": "126.3815027569",
    "image": "http://tong.visitkorea.or.kr/cms/resource/16/3546816_image2_1.jpeg",
    "category": "일반축제",
    "eventstartdate": "20251017",
    "eventenddate": "20251019"
  },
  {
    "id": "2824374",
    "title": "목포뮤직플레이",
    "address": "전라남도 목포시 대양산단로 23 (대양동)",
    "phone": "02-6358-7774",
    "latitude": "34.8263995748",
    "longitude": "126.3969504197",
    "image": "http://tong.visitkorea.or.kr/cms/resource/30/3495430_image2_1.jpg",
    "category": "일반축제",
    "eventstartdate": "20250523",
    "eventenddate": "20250525"
  },
  {
    "id": "1828270",
    "title": "목포세계마당페스티벌",
    "address": "전라남도 목포시 죽동",
    "phone": "061-243-9786",
    "latitude": "34.7907894836",
    "longitude": "126.3839107624",
    "image": "http://tong.visitkorea.or.kr/cms/resource/69/3489269_image2_1.jpg",
    "category": "일반축제",
    "eventstartdate": "20250530",
    "eventenddate": "20250601"
  },
  {
    "id": "3488689",
    "title": "몽생이 5월 대모험",
    "address": "제주특별자치도 제주시 애월읍 평화로 2144",
    "phone": "010-7620-3306",
    "latitude": "33.4100215464",
    "longitude": "126.3932726013",
    "image": "http://tong.visitkorea.or.kr/cms/resource/83/3488683_image2_1.jpg",
    "category": "일반축제",
    "eventstartdate": "20250503",
    "eventenddate": "20250525"
  },
  {
    "id": "3345548",
    "title": "몽생이 WATER WORLD",
    "address": "제주특별자치도 제주시 애월읍 평화로 2144",
    "phone": "064-712-8851",
    "latitude": "33.4100215464",
    "longitude": "126.3932726013",
    "image": "http://tong.visitkorea.or.kr/cms/resource/22/3345522_image2_1.jpg",
    "category": "일반축제",
    "eventstartdate": "20250726",
    "eventenddate": "20250817"
  },
  {
    "id": "2988364",
    "title": "무등산 인문축제",
    "address": "광주광역시 동구 증심사길 32 (운림동)",
    "phone": "062-608-2173",
    "latitude": "35.1340103095",
    "longitude": "126.9560128987",
    "image": "http://tong.visitkorea.or.kr/cms/resource/15/3489115_image2_1.jpg",
    "category": "일반축제",
    "eventstartdate": "20250531",
    "eventenddate": "20250601"
  },
  {
    "id": "2660242",
    "title": "무등울림축제",
    "address": "광주광역시 동구 의재로 222 전통문화관",
    "phone": "062-670-8511",
    "latitude": "35.1337324867",
    "longitude": "126.9514994153",
    "image": "http://tong.visitkorea.or.kr/cms/resource/49/3487949_image2_1.JPG",
    "category": "일반축제",
    "eventstartdate": "20250524",
    "eventenddate": "20250525"
  },
  {
    "id": "3304231",
    "title": "무릉별유천지 라벤더축제",
    "address": "강원특별자치도 동해시 이기로 97 (삼화동)",
    "phone": "033-532-1945",
    "latitude": "37.4760087233",
    "longitude": "129.0330712952",
    "image": "http://tong.visitkorea.or.kr/cms/resource/37/3492937_image2_1.JPG",
    "category": "일반축제",
    "eventstartdate": "20250614",
    "eventenddate": "20250622"
  },
  {
    "id": "3107440",
    "title": "무브살롱 시즌4: 벚꽃 아틀리에",
    "address": "서울특별시 서초구 양재동",
    "phone": "070-4266-5367",
    "latitude": "37.4751548200",
    "longitude": "127.0381848379",
    "image": "http://tong.visitkorea.or.kr/cms/resource/10/3479110_image2_1.jpg",
    "category": "일반축제",
    "eventstartdate": "20250403",
    "eventenddate": "20250406"
  },
  {
    "id": "3301415",
    "title": "무안 YD 페스티벌",
    "address": "전라남도 무안군 삼향읍 대죽서로16번길 16",
    "phone": "061-450-5474",
    "latitude": "34.8111801483",
    "longitude": "126.4628227454",
    "image": "http://tong.visitkorea.or.kr/cms/resource/08/3560008_image2_1.jpg",
    "category": "일반축제",
    "eventstartdate": "20251114",
    "eventenddate": "20251116"
  },
  {
    "id": "1953493",
    "title": "무안 황토 갯벌축제",
    "address": "전라남도 무안군 해제면 황토갯벌길 88",
    "phone": "061-450-5473",
    "latitude": "35.1022396210",
    "longitude": "126.3336521164",
    "image": "http://tong.visitkorea.or.kr/cms/resource/43/3516043_image2_1.jpg",
    "category": "일반축제",
    "eventstartdate": "20250913",
    "eventenddate": "20250921"
  },
  {
    "id": "2986574",
    "title": "무주국가유산야행",
    "address": "전북특별자치도 무주군 무주읍 한풍루로 326-5",
    "phone": "063-320-2542",
    "latitude": "36.0040267475",
    "longitude": "127.6623693393",
    "image": "http://tong.visitkorea.or.kr/cms/resource/12/3483412_image2_1.jpg",
    "category": "일반축제",
    "eventstartdate": "20250613",
    "eventenddate": "20250614"
  },
  {
    "id": "1071143",
    "title": "무창포 신비의바닷길축제",
    "address": "충청남도 보령시 웅천읍 열린바다1길 30",
    "phone": "041-930-0891",
    "latitude": "36.2431575598",
    "longitude": "126.5354192632",
    "image": "http://tong.visitkorea.or.kr/cms/resource/24/3539224_image2_1.jpg",
    "category": "일반축제",
    "eventstartdate": "20250919",
    "eventenddate": "20250921"
  },
  {
    "id": "704055",
    "title": "무창포 주꾸미 도다리 대잔치",
    "address": "충청남도 보령시 웅천읍 열린바다1길 28",
    "phone": "041-936-3510",
    "latitude": "36.2432492183",
    "longitude": "126.5355553599",
    "image": "http://tong.visitkorea.or.kr/cms/resource/97/2591597_image2_1.JPG",
    "category": "일반축제",
    "eventstartdate": "20250322",
    "eventenddate": "20250413"
  },
  {
    "id": "3330805",
    "title": "묵호 도째비페스타",
    "address": "강원특별자치도 동해시 일출로 22 (발한동)",
    "phone": "033-532-1945",
    "latitude": "37.5503655931",
    "longitude": "129.1125285496",
    "image": "http://tong.visitkorea.or.kr/cms/resource/82/3506582_image2_1.JPG",
    "category": "일반축제",
    "eventstartdate": "20250718",
    "eventenddate": "20250720"
  },
  {
    "id": "635451",
    "title": "문경사과축제",
    "address": "경상북도 문경시 문경읍 새재로 932",
    "phone": "054-571-7677",
    "latitude": "36.7616504930",
    "longitude": "128.0770113639",
    "image": "http://tong.visitkorea.or.kr/cms/resource/23/3531723_image2_1.jpg",
    "category": "일반축제",
    "eventstartdate": "20251018",
    "eventenddate": "20251026"
  },
  {
    "id": "3486686",
    "title": "문학정원 with 사이언스",
    "address": "대전광역시 서구 둔산대로 169 (만년동)",
    "phone": "042-626-5023",
    "latitude": "36.3659250159",
    "longitude": "127.3879840082",
    "image": "http://tong.visitkorea.or.kr/cms/resource/85/3486685_image2_1.jpg",
    "category": "일반축제",
    "eventstartdate": "20250418",
    "eventenddate": "20250420"
  },
  {
    "id": "3014969",
    "title": "문화의 달 행사",
    "address": "제주특별자치도 서귀포시 남성중로 2-9 (서홍동)",
    "phone": "064-760-0901",
    "latitude": "33.2438675382",
    "longitude": "126.5598424335",
    "image": "http://tong.visitkorea.or.kr/cms/resource/69/3562069_image2_1.jpg",
    "category": "일반축제",
    "eventstartdate": "20251017",
    "eventenddate": "20251019"
  },
  {
    "id": "2562080",
    "title": "뮤직 플로우 페스티벌",
    "address": "인천광역시 부평구 아트센터로 166 (십정동)",
    "phone": "032-500-2163",
    "latitude": "37.4822897181",
    "longitude": "126.7049455502",
    "image": "http://tong.visitkorea.or.kr/cms/resource/80/3507180_image2_1.jpg",
    "category": "일반축제",
    "eventstartdate": "20250829",
    "eventenddate": "20250830"
  },
  {
    "id": "3416371",
    "title": "미리미리 크리스마스",
    "address": "전라남도 화순군 화순읍 진각로 85",
    "phone": "070-8839-6145",
    "latitude": "35.0584332246",
    "longitude": "126.9855677373",
    "image": "http://tong.visitkorea.or.kr/cms/resource/39/3567539_image2_1.jpg",
    "category": "일반축제",
    "eventstartdate": "20251121",
    "eventenddate": "20251123"
  },
  {
    "id": "2873622",
    "title": "미지,세계와의 만남",
    "address": "서울특별시 광진구 능동로 216 어린이대공원",
    "phone": "070-4667-3782",
    "latitude": "37.5493552228",
    "longitude": "127.0762792676",
    "image": "http://tong.visitkorea.or.kr/cms/resource/97/3486497_image2_1.jpg",
    "category": "일반축제",
    "eventstartdate": "20250505",
    "eventenddate": "20250505"
  },
  {
    "id": "3535742",
    "title": "미추홀미디어문화축제",
    "address": "인천광역시 미추홀구 독정이로 87 (숭의동)",
    "phone": "032-880-7978",
    "latitude": "37.4625938235",
    "longitude": "126.6505427270",
    "image": "http://tong.visitkorea.or.kr/cms/resource/59/3574759_image2_1.jpg",
    "category": "일반축제",
    "eventstartdate": "20250920",
    "eventenddate": "20250921"
  },
  {
    "id": "3563444",
    "title": "방배카페 골목페스타",
    "address": "서울특별시 서초구 방배중앙로 193 (방배동)",
    "phone": "070-4266-5368",
    "latitude": "37.4963319705",
    "longitude": "126.9854168201",
    "image": "http://tong.visitkorea.or.kr/cms/resource/52/3564652_image2_1.png",
    "category": "일반축제",
    "eventstartdate": "20251115",
    "eventenddate": "20251115"
  },
  {
    "id": "3537267",
    "title": "백년시장 백년나이트 오컬트디스코",
    "address": "서울특별시 강북구 한천로144길 12 (수유동)",
    "phone": "02-903-9110",
    "latitude": "37.6416074792",
    "longitude": "127.0257562475",
    "image": "http://tong.visitkorea.or.kr/cms/resource/70/3553370_image2_1.png",
    "category": "일반축제",
    "eventstartdate": "20251024",
    "eventenddate": "20251025"
  },
  {
    "id": "2667583",
    "title": "백두대간 봉자페스티벌",
    "address": "경상북도 봉화군 춘양면 춘양로 1501",
    "phone": "054-679-1000",
    "latitude": "37.0081974711",
    "longitude": "128.8299396966",
    "image": "http://tong.visitkorea.or.kr/cms/resource/14/3544414_image2_1.JPG",
    "category": "일반축제",
    "eventstartdate": "20251002",
    "eventenddate": "20251012"
  },
  {
    "id": "3482677",
    "title": "벚꽃과 함께하는 청주 푸드트럭 축제",
    "address": "충청북도 청주시 상당구 사직대로 343 (영동)",
    "phone": "043-201-2056",
    "latitude": "36.6368123838",
    "longitude": "127.4854845219",
    "image": "http://tong.visitkorea.or.kr/cms/resource/75/3482675_image2_1.JPG",
    "category": "일반축제",
    "eventstartdate": "20250404",
    "eventenddate": "20250406"
  },
  {
    "id": "2811508",
    "title": "벽초지수목원 튤립 봄꽃축제",
    "address": "경기도 파주시 광탄면 부흥로 242",
    "phone": "031-957-2004",
    "latitude": "37.8014139252",
    "longitude": "126.8742905293",
    "image": "http://tong.visitkorea.or.kr/cms/resource/02/3304702_image2_1.jpg",
    "category": "일반축제",
    "eventstartdate": "20250412",
    "eventenddate": "20250506"
  },
  {
    "id": "3410210",
    "title": "별빛주막 : 소양점",
    "address": "전북특별자치도 완주군 소양면 송광수만로 472-23",
    "phone": "070-4740-2135",
    "latitude": "35.9031141763",
    "longitude": "127.2433009708",
    "image": "http://tong.visitkorea.or.kr/cms/resource/29/3567029_image2_1.jpg",
    "category": "일반축제",
    "eventstartdate": "20251115",
    "eventenddate": "20251115"
  },
  {
    "id": "3468431",
    "title": "보령 석탄 에너지전환 축제",
    "address": "충청남도 보령시 성주면 성주산로 500",
    "phone": "010-3438-5881",
    "latitude": "36.3265166563",
    "longitude": "126.6513122257",
    "image": "http://tong.visitkorea.or.kr/cms/resource/30/3468430_image2_1.jpg",
    "category": "일반축제",
    "eventstartdate": "20250125",
    "eventenddate": "20250125"
  },
  {
    "id": "3489255",
    "title": "보령 어린이 대축제",
    "address": "충청남도 보령시 신흑동",
    "phone": "041-930-3481",
    "latitude": "36.3148073304",
    "longitude": "126.5150525613",
    "image": "http://tong.visitkorea.or.kr/cms/resource/76/3489276_image2_1.png",
    "category": "일반축제",
    "eventstartdate": "20250503",
    "eventenddate": "20250505"
  },
  {
    "id": "3107206",
    "title": "보령·AMC 국제 모터 페스티벌",
    "address": "충청남도 보령시 신흑동",
    "phone": "010-5676-8573",
    "latitude": "36.3146517934",
    "longitude": "126.5150525654",
    "image": "http://tong.visitkorea.or.kr/cms/resource/93/3107193_image2_1.jpg",
    "category": "일반축제",
    "eventstartdate": "20250503",
    "eventenddate": "20250505"
  },
  {
    "id": "3113775",
    "title": "보령국가유산야행",
    "address": "충청남도 보령시 오천면 소성리",
    "phone": "041-930-0891",
    "latitude": "36.4396931273",
    "longitude": "126.5227735986",
    "image": "http://tong.visitkorea.or.kr/cms/resource/69/3113769_image2_1.jpg",
    "category": "일반축제",
    "eventstartdate": "20250425",
    "eventenddate": "20250427"
  },
  {
    "id": "1265750",
    "title": "보물섬 해산물축제",
    "address": "경상남도 남해군 미조면 미송로 11-19",
    "phone": "055-860-8987",
    "latitude": "34.7160648942",
    "longitude": "128.0436363664",
    "image": "http://tong.visitkorea.or.kr/cms/resource/59/3488559_image2_1.jpg",
    "category": "일반축제",
    "eventstartdate": "20250509",
    "eventenddate": "20250510"
  },
  {
    "id": "2860545",
    "title": "보물찾기 축제 - 금괴를 찾아라 !",
    "address": "전북특별자치도 익산시 인북로12길 28 (주현동)",
    "phone": "070-4116-7828",
    "latitude": "35.9335834631",
    "longitude": "126.9541092806",
    "image": "http://tong.visitkorea.or.kr/cms/resource/91/3536391_image2_1.jpg",
    "category": "일반축제",
    "eventstartdate": "20251101",
    "eventenddate": "20251102"
  },
  {
    "id": "3113469",
    "title": "보배섬 유채꽃 축제",
    "address": "전라남도 진도군 조도면 관매도리",
    "phone": "061-540-3404",
    "latitude": "34.2390600248",
    "longitude": "126.0551471804",
    "image": "http://tong.visitkorea.or.kr/cms/resource/65/3482365_image2_1.JPG",
    "category": "일반축제",
    "eventstartdate": "20250411",
    "eventenddate": "20250413"
  },
  {
    "id": "3109655",
    "title": "보은 벚꽃길 축제",
    "address": "충청북도 보은군 보은읍 이평리",
    "phone": "043-540-3392",
    "latitude": "36.4814289276",
    "longitude": "127.7239619129",
    "image": "http://tong.visitkorea.or.kr/cms/resource/52/3109652_image2_1.jpg",
    "category": "일반축제",
    "eventstartdate": "20250404",
    "eventenddate": "20250413"
  },
  {
    "id": "2858917",
    "title": "보은 회인 국가유산 야행",
    "address": "충청북도 보은군 회인면 중앙리",
    "phone": "043-540-3406~9",
    "latitude": "36.4914477395",
    "longitude": "127.5983173147",
    "image": "http://tong.visitkorea.or.kr/cms/resource/67/3547467_image2_1.JPG",
    "category": "일반축제",
    "eventstartdate": "20250912",
    "eventenddate": "20250914"
  },
  {
    "id": "3021124",
    "title": "보현사 산사천년문화제",
    "address": "강원특별자치도 강릉시 성산면 보현길 396",
    "phone": "033-648-9431",
    "latitude": "37.7366262830",
    "longitude": "128.7693064482",
    "image": "http://tong.visitkorea.or.kr/cms/resource/75/3529875_image2_1.jpg",
    "category": "일반축제",
    "eventstartdate": "20251025",
    "eventenddate": "20251026"
  },
  {
    "id": "3486535",
    "title": "봄꽃포레 숲숲라이브",
    "address": "경기도 수원시 권선구 서둔로 166 (서둔동)",
    "phone": "031-296-1987",
    "latitude": "37.2665807612",
    "longitude": "126.9811903187",
    "image": "http://tong.visitkorea.or.kr/cms/resource/34/3486534_image2_1.jpg",
    "category": "일반축제",
    "eventstartdate": "20250419",
    "eventenddate": "20250420"
  },
  {
    "id": "506544",
    "title": "봉화송이축제",
    "address": "경상북도 봉화군 봉화읍 내성리",
    "phone": "054-674-3053",
    "latitude": "36.8892259685",
    "longitude": "128.7351766678",
    "image": "http://tong.visitkorea.or.kr/cms/resource/92/2620592_image2_1.jpg",
    "category": "일반축제",
    "eventstartdate": "20251016",
    "eventenddate": "20251019"
  },
  {
    "id": "3492041",
    "title": "부산 1부두 문전성시 페스타",
    "address": "부산광역시 중구 중앙동4가",
    "phone": "070-5117-3756",
    "latitude": "35.1046421300",
    "longitude": "129.0409753226",
    "image": "http://tong.visitkorea.or.kr/cms/resource/40/3492040_image2_1.jpg",
    "category": "일반축제",
    "eventstartdate": "20250614",
    "eventenddate": "20250614"
  },
  {
    "id": "3303393",
    "title": "부산 밀 페스티벌",
    "address": "부산광역시 북구 화명동",
    "phone": "051-713-5000",
    "latitude": "35.2313411422",
    "longitude": "129.0038973083",
    "image": "http://tong.visitkorea.or.kr/cms/resource/94/3485694_image2_1.JPG",
    "category": "일반축제",
    "eventstartdate": "20250505",
    "eventenddate": "20250506"
  },
  {
    "id": "3532971",
    "title": "부산 서구 의료관광축제",
    "address": "부산광역시 서구 송도해변로 36 (암남동)",
    "phone": "051-240-4017",
    "latitude": "35.0727563766",
    "longitude": "129.0174754570",
    "image": "http://tong.visitkorea.or.kr/cms/resource/55/3532955_image2_1.jpg",
    "category": "일반축제",
    "eventstartdate": "20250912",
    "eventenddate": "20250913"
  },
  {
    "id": "3556962",
    "title": "부산 스트릿 페스타 인 광복",
    "address": "부산광역시 중구 광복로 72-1 (광복동2가)",
    "phone": "070-4808-2875",
    "latitude": "35.0986398717",
    "longitude": "129.0327400915",
    "image": "http://tong.visitkorea.or.kr/cms/resource/44/3556944_image2_1.png",
    "category": "일반축제",
    "eventstartdate": "20251101",
    "eventenddate": "20251102"
  },
  {
    "id": "2818494",
    "title": "부산가족축제",
    "address": "부산광역시 부산진구 시민공원로 73 (범전동)",
    "phone": "051-580-9009",
    "latitude": "35.1652745207",
    "longitude": "129.0567056306",
    "image": "http://tong.visitkorea.or.kr/cms/resource/93/3114793_image2_1.jpg",
    "category": "일반축제",
    "eventstartdate": "20250517",
    "eventenddate": "20250517"
  },
  {
    "id": "1399532",
    "title": "부산고등어축제",
    "address": "부산광역시 서구 송도해변로 100 (암남동)",
    "phone": "051-231-4085",
    "latitude": "35.0768587065",
    "longitude": "129.0180752934",
    "image": "http://tong.visitkorea.or.kr/cms/resource/36/3547136_image2_1.jpg",
    "category": "일반축제",
    "eventstartdate": "20251031",
    "eventenddate": "20251102"
  },
  {
    "id": "3006246",
    "title": "부산국제공연예술마켓",
    "address": "부산광역시 남구 유엔평화로76번길 1 (대연동)",
    "phone": "051-745-7298",
    "latitude": "35.1285070990",
    "longitude": "129.0937450823",
    "image": "http://tong.visitkorea.or.kr/cms/resource/43/3537143_image2_1.jpg",
    "category": "일반축제",
    "eventstartdate": "20250924",
    "eventenddate": "20250928"
  },
  {
    "id": "2558735",
    "title": "부산국제공연예술제",
    "address": "부산광역시 금정구 장전온천천로 48 (장전동)",
    "phone": "051-715-6984",
    "latitude": "35.2296540211",
    "longitude": "129.0893371356",
    "image": "http://tong.visitkorea.or.kr/cms/resource/24/3534524_image2_1.jpg",
    "category": "일반축제",
    "eventstartdate": "20250926",
    "eventenddate": "20250928"
  },
  {
    "id": "3345610",
    "title": "부산국제아동도서전",
    "address": "부산광역시 해운대구 APEC로 55 (우동)",
    "phone": "02-733-8402",
    "latitude": "35.1687450332",
    "longitude": "129.1355209016",
    "image": "http://tong.visitkorea.or.kr/cms/resource/25/3536625_image2_1.jpg",
    "category": "일반축제",
    "eventstartdate": "20251211",
    "eventenddate": "20251214"
  },
  {
    "id": "2873292",
    "title": "부산글로벌웹툰페스티벌",
    "address": "부산광역시 해운대구 수영강변대로 140 (우동)",
    "phone": "070-5080-2804",
    "latitude": "35.1727527343",
    "longitude": "129.1256077644",
    "image": "http://tong.visitkorea.or.kr/cms/resource/04/3531704_image2_1.png",
    "category": "일반축제",
    "eventstartdate": "20250925",
    "eventenddate": "20250928"
  },
  {
    "id": "142080",
    "title": "부산바다축제",
    "address": "부산광역시 사하구 다대동",
    "phone": "051-713-5000",
    "latitude": "35.0470333131",
    "longitude": "128.9662222789",
    "image": "http://tong.visitkorea.or.kr/cms/resource/58/3504958_image2_1.jpg",
    "category": "일반축제",
    "eventstartdate": "20250801",
    "eventenddate": "20250803"
  },
  {
    "id": "2757747",
    "title": "부산세계시민축제",
    "address": "부산광역시 해운대구 수영강변대로 120 영화의전당",
    "phone": "051-711-6843",
    "latitude": "35.1710029572",
    "longitude": "129.1270687971",
    "image": "http://tong.visitkorea.or.kr/cms/resource/97/3500597_image2_1.jpg",
    "category": "일반축제",
    "eventstartdate": "20250524",
    "eventenddate": "20250524"
  },
  {
    "id": "2856938",
    "title": "부산수제맥주마스터스챌린지",
    "address": "부산광역시 해운대구 APEC로 55 (우동)",
    "phone": "051-714-4758",
    "latitude": "35.1687450332",
    "longitude": "129.1355209016",
    "image": "http://tong.visitkorea.or.kr/cms/resource/53/3536453_image2_1.jpg",
    "category": "일반축제",
    "eventstartdate": "20250920",
    "eventenddate": "20250924"
  },
  {
    "id": "2950857",
    "title": "부산스텝업댄스페스티벌",
    "address": "부산광역시 해운대구 수영강변대로 120 (우동)",
    "phone": "051-461-4437",
    "latitude": "35.1710029572",
    "longitude": "129.1270687971",
    "image": "http://tong.visitkorea.or.kr/cms/resource/61/3480361_image2_1.jpg",
    "category": "일반축제",
    "eventstartdate": "20250516",
    "eventenddate": "20250518"
  },
  {
    "id": "1553601",
    "title": "부산연등회",
    "address": "부산광역시 부산진구 동성로112번길 121-1",
    "phone": "051-867-0501",
    "latitude": "35.1651997173",
    "longitude": "129.0669047455",
    "image": "http://tong.visitkorea.or.kr/cms/resource/21/2811021_image2_1.JPG",
    "category": "일반축제",
    "eventstartdate": "20250418",
    "eventenddate": "20250506"
  },
  {
    "id": "2438928",
    "title": "부산원도심활성화축제 [택슐랭]",
    "address": "부산광역시 동구 중앙대로 210 (초량동)",
    "phone": "051-713-5000",
    "latitude": "35.1151853926",
    "longitude": "129.0408611560",
    "image": "http://tong.visitkorea.or.kr/cms/resource/49/3480349_image2_1.jpg",
    "category": "일반축제",
    "eventstartdate": "20250516",
    "eventenddate": "20250518"
  },
  {
    "id": "3016659",
    "title": "부산종합민속예술제",
    "address": "부산광역시 부산진구 시민공원로 73 (범전동)",
    "phone": "051-714-1508",
    "latitude": "35.1654495102",
    "longitude": "129.0572361352",
    "image": "http://tong.visitkorea.or.kr/cms/resource/47/3359047_image2_1.jpg",
    "category": "일반축제",
    "eventstartdate": "20251025",
    "eventenddate": "20251026"
  },
  {
    "id": "3559571",
    "title": "부산중구반려동물축제",
    "address": "부산광역시 중구 용두산길 37-30 (광복동2가)",
    "phone": "070-8893-2437",
    "latitude": "35.1011951345",
    "longitude": "129.0323594995",
    "image": "http://tong.visitkorea.or.kr/cms/resource/63/3559563_image2_1.jpg",
    "category": "일반축제",
    "eventstartdate": "20251101",
    "eventenddate": "20251101"
  },
  {
    "id": "2930662",
    "title": "부안 설(雪)숭어 축제",
    "address": "전북특별자치도 부안군 부안읍 서외리",
    "phone": "010-4679-3810",
    "latitude": "35.7272448141",
    "longitude": "126.7312455993",
    "image": "http://tong.visitkorea.or.kr/cms/resource/47/3575947_image2_1.jpg",
    "category": "일반축제",
    "eventstartdate": "20251205",
    "eventenddate": "20251206"
  },
  {
    "id": "2841087",
    "title": "부안국가유산야행",
    "address": "전북특별자치도 부안군 부안읍 당산로 91",
    "phone": "063-278-5714",
    "latitude": "35.7317582207",
    "longitude": "126.7330897643",
    "image": "http://tong.visitkorea.or.kr/cms/resource/09/3526909_image2_1.jpg",
    "category": "일반축제",
    "eventstartdate": "20250919",
    "eventenddate": "20250920"
  },
  {
    "id": "1560363",
    "title": "부안마실축제",
    "address": "전북특별자치도 부안군 부안읍 별천지로 3",
    "phone": "063-580-4774",
    "latitude": "35.7258451509",
    "longitude": "126.7416641514",
    "image": "http://tong.visitkorea.or.kr/cms/resource/55/2646255_image2_1.JPG",
    "category": "일반축제",
    "eventstartdate": "20250502",
    "eventenddate": "20250505"
  },
  {
    "id": "2933008",
    "title": "부안붉은노을축제",
    "address": "전북특별자치도 부안군 변산면 대항리",
    "phone": "063-580-4774",
    "latitude": "35.6753000532",
    "longitude": "126.5272901102",
    "image": "http://tong.visitkorea.or.kr/cms/resource/14/3560714_image2_1.jpg",
    "category": "일반축제",
    "eventstartdate": "20251024",
    "eventenddate": "20251026"
  },
  {
    "id": "2540959",
    "title": "부여 국가유산 야행",
    "address": "충청남도 부여군 부여읍 정림로 83",
    "phone": "041-837-1722",
    "latitude": "36.2790710570",
    "longitude": "126.9128955516",
    "image": "http://tong.visitkorea.or.kr/cms/resource/15/3491115_image2_1.JPG",
    "category": "일반축제",
    "eventstartdate": "20250404",
    "eventenddate": "20250406"
  },
  {
    "id": "574047",
    "title": "부여서동연꽃축제",
    "address": "충청남도 부여군 부여읍 동남리",
    "phone": "041-830-2207",
    "latitude": "36.2720857064",
    "longitude": "126.9106403824",
    "image": "http://tong.visitkorea.or.kr/cms/resource/51/3342251_image2_1.jpg",
    "category": "일반축제",
    "eventstartdate": "20250704",
    "eventenddate": "20250706"
  },
  {
    "id": "2758734",
    "title": "부여세도 방울토마토 & 유채꽃축제",
    "address": "충청남도 부여군 세도면 가회리",
    "phone": "041-830-6723",
    "latitude": "36.1538590878",
    "longitude": "126.9983995397",
    "image": "http://tong.visitkorea.or.kr/cms/resource/43/3114043_image2_1.jpg",
    "category": "일반축제",
    "eventstartdate": "20250418",
    "eventenddate": "20250420"
  },
  {
    "id": "3542109",
    "title": "북내 금당천 삼색별미축제",
    "address": "경기도 여주시 북내면 당우리",
    "phone": "031-887-3483",
    "latitude": "37.3277002492",
    "longitude": "127.6811224070",
    "image": "http://tong.visitkorea.or.kr/cms/resource/56/3568656_image2_1.jpg",
    "category": "일반축제",
    "eventstartdate": "20250926",
    "eventenddate": "20250927"
  },
  {
    "id": "2753551",
    "title": "북촌의 날",
    "address": "서울특별시 종로구 계동길 37",
    "phone": "02-741-1033",
    "latitude": "37.5791307002",
    "longitude": "126.9862893990",
    "image": "http://tong.visitkorea.or.kr/cms/resource/45/3540045_image2_1.jpg",
    "category": "일반축제",
    "eventstartdate": "20250926",
    "eventenddate": "20251005"
  },
  {
    "id": "2598791",
    "title": "비어페스트 광주",
    "address": "광주광역시 서구 상무누리로 30 (치평동)",
    "phone": "062-611-2162",
    "latitude": "35.1467152588",
    "longitude": "126.8405588979",
    "image": "http://tong.visitkorea.or.kr/cms/resource/09/3523409_image2_1.JPG",
    "category": "일반축제",
    "eventstartdate": "20250828",
    "eventenddate": "20250831"
  },