[
  {
    "id": "3481716",
    "title": "광주티앤카페쇼",
    "address": "광주광역시 서구 상무누리로 30 (치평동)",
    "phone": "02-6956-8138",
    "latitude": "35.1467152588",
    "longitude": "126.8405588979",
    "image": "http://tong.visitkorea.or.kr/cms/resource/11/3481711_image2_1.jpg",
    "category": "전시회",
    "eventstartdate": "20250529",
    "eventenddate": "20250601"
  },
  {
    "id": "2950881",
    "title": "동물의 몸속에 기계가 있어요",
    "address": "충청남도 서천군 금강로 1210",
    "phone": "041-950-5953",
    "latitude": "36.0271354218",
    "longitude": "126.7194583721",
    "image": "http://tong.visitkorea.or.kr/cms/resource/63/2950863_image2_1.jpeg",
    "category": "전시회",
    "eventstartdate": "20221208",
    "eventenddate": "20230430"
  },
  {
    "id": "3493708",
    "title": "사찰음식 대축제",
    "address": "서울특별시 서초구 강남대로 27 (양재동)",
    "phone": "02-6433-4808",
    "latitude": "37.4673918780",
    "longitude": "127.0407514903",
    "image": "http://tong.visitkorea.or.kr/cms/resource/93/3493493_image2_1.jpg",
    "category": "전시회",
    "eventstartdate": "20250607",
    "eventenddate": "20250608"
  },
  {
    "id": "3487449",
    "title": "서울百화점 - Local to Seoul 100 Diaries",
    "address": "서울특별시 중구 통일로 1 (봉래동2가)",
    "phone": "02-3407-3500",
    "latitude": "37.5560109019",
    "longitude": "126.9716247231",
    "image": "http://tong.visitkorea.or.kr/cms/resource/47/3487447_image2_1.jpg",
    "category": "전시회",
    "eventstartdate": "20250425",
    "eventenddate": "20250518"
  },
  {
    "id": "2718984",
    "title": "서울일러스트레이션페어V.20",
    "address": "서울특별시 강남구 영동대로 513 (삼성동)",
    "phone": "02-2602-8602",
    "latitude": "37.5119175967",
    "longitude": "127.0592179950",
    "image": "http://tong.visitkorea.or.kr/cms/resource/38/3579738_image2_1.png",
    "category": "전시회",
    "eventstartdate": "20251225",
    "eventenddate": "20251228"
  },
  {
    "id": "3491426",
    "title": "수원화성박물관 테마전 방화수류정",
    "address": "경기도 수원시 팔달구 창룡대로 21 (매향동)",
    "phone": "031-228-4209",
    "latitude": "37.2821351915",
    "longitude": "127.0190947768",
    "image": "http://tong.visitkorea.or.kr/cms/resource/25/3491425_image2_1.jpg",
    "category": "전시회",
    "eventstartdate": "20250522",
    "eventenddate": "20250817"
  },
  {
    "id": "3499413",
    "title": "위대한 축구선수 100인 전",
    "address": "서울특별시 강서구 하늘길 38 (방화동)",
    "phone": "02-2029-3812",
    "latitude": "19.6944274800",
    "longitude": "117.9925662504",
    "image": "http://tong.visitkorea.or.kr/cms/resource/09/3499409_image2_1.jpg",
    "category": "전시회",
    "eventstartdate": "20250430",
    "eventenddate": "20250831"
  },
  {
    "id": "2767541",
    "title": "제 19회 전북과학축전",
    "address": "전북특별자치도 전주시 완산구 천잠로 303 (효자동2가)",
    "phone": "063-260-9332",
    "latitude": "35.8139134030",
    "longitude": "127.0942388022",
    "image": "http://tong.visitkorea.or.kr/cms/resource/43/3536343_image2_1.png",
    "category": "전시회",
    "eventstartdate": "20251017",
    "eventenddate": "20251019"
  },
  {
    "id": "141220",
    "title": "제11회 대한민국국제포토페스티벌",
    "address": "서울특별시 서초구 남부순환로 2406 (서초동)",
    "phone": "02 313-9539",
    "latitude": "37.4804843130",
    "longitude": "127.0134702692",
    "image": "http://tong.visitkorea.or.kr/cms/resource/10/3486910_image2_1.jpg",
    "category": "전시회",
    "eventstartdate": "20250422",
    "eventenddate": "20250427"
  },
  {
    "id": "2844254",
    "title": "제7회 금천과학축제",
    "address": "서울특별시 금천구 시흥대로73길 70 (시흥동)",
    "phone": "02-2627-2813",
    "latitude": "37.4564933229",
    "longitude": "126.8955205706",
    "image": "http://tong.visitkorea.or.kr/cms/resource/75/3537175_image2_1.png",
    "category": "전시회",
    "eventstartdate": "20250926",
    "eventenddate": "20250927"
  },
  {
    "id": "3499043",
    "title": "특별 도슨트 투어, 도레와 떠나는 환상여행 - 프랑스 드로잉·판화박물관장이 들려주는 전시 이야기",
    "address": "인천광역시 연수구 센트럴로 217 (송도동)",
    "phone": "032-290-2014",
    "latitude": "37.3947625929",
    "longitude": "126.6379568656",
    "image": "http://tong.visitkorea.or.kr/cms/resource/37/3499037_image2_1.jpg",
    "category": "전시회",
    "eventstartdate": "20250628",
    "eventenddate": "20250629"
  },
  {
    "id": "3479862",
    "title": "펫가족여행박람회",
    "address": "인천광역시 연수구 센트럴로 123 (송도동)",
    "phone": "02-6204-3577",
    "latitude": "37.3900244069",
    "longitude": "126.6466173186",
    "image": "http://tong.visitkorea.or.kr/cms/resource/94/3481694_image2_1.jpg",
    "category": "전시회",
    "eventstartdate": "20250418",
    "eventenddate": "20250420"
  },
  {
    "id": "3500220",
    "title": "한국 근현대 미술 '4인의 거장들 : 김환기, 박수근, 이중섭, 장욱진'",
    "address": "경상북도 경주시 알천북로 1 (황성동)",
    "phone": "054-777-5823",
    "latitude": "35.8617128689",
    "longitude": "129.2058037111",
    "image": "",
    "category": "전시회",
    "eventstartdate": "20250701",
    "eventenddate": "20251012"
  },
  {
    "id": "293047",
    "title": "2024 인사동 엔틱&아트페어",
    "address": "서울특별시 종로구 인사동길 49",
    "phone": "02-737-7890",
    "latitude": "37.5745200760",
    "longitude": "126.9835675554",
    "image": "http://tong.visitkorea.or.kr/cms/resource/06/3344806_image2_1.jpg",
    "category": "전시회",
    "eventstartdate": "20240926",
    "eventenddate": "20241020"
  },
  {
    "id": "2392105",
    "title": "2025 달성 대구현대미술제<난장난장난장(Clash, Crash, Create)>",
    "address": "대구광역시 달성군 다사읍 강정본길 57-1",
    "phone": "053-668-4242",
    "latitude": "35.8379573803",
    "longitude": "128.4679803509",
    "image": "http://tong.visitkorea.or.kr/cms/resource/87/3524187_image2_1.jpg",
    "category": "전시회",
    "eventstartdate": "20250913",
    "eventenddate": "20251012"
  },
  {
    "id": "3529946",
    "title": "2025 세종미술주간 갤러리 가는 날",
    "address": "세종특별자치시 조치원읍 수원지길 75-21",
    "phone": "044-862-1620",
    "latitude": "19.6944274800",
    "longitude": "117.9925662504",
    "image": "http://tong.visitkorea.or.kr/cms/resource/45/3529945_image2_1.jpg",
    "category": "전시회",
    "eventstartdate": "20250902",
    "eventenddate": "20251012"
  },
  {
    "id": "1829696",
    "title": "2025 아시아프(ASYAAF)",
    "address": "서울특별시 중구 통일로 1 (봉래동2가)",
    "phone": "02-724-6317",
    "latitude": "37.5560109019",
    "longitude": "126.9716247231",
    "image": "http://tong.visitkorea.or.kr/cms/resource/47/3497947_image2_1.jpg",
    "category": "전시회",
    "eventstartdate": "20250812",
    "eventenddate": "20250907"
  },
  {
    "id": "3493235",
    "title": "2025 인천 일러스트코리아",
    "address": "인천광역시 연수구 센트럴로 123 (송도동)",
    "phone": "02-6121-6234",
    "latitude": "37.3900244069",
    "longitude": "126.6466173186",
    "image": "http://tong.visitkorea.or.kr/cms/resource/34/3493234_image2_1.png",
    "category": "전시회",
    "eventstartdate": "20250606",
    "eventenddate": "20250608"
  },
  {
    "id": "1748721",
    "title": "2025 포항스틸아트페스티벌 (2025PSAF)",
    "address": "경상북도 포항시 북구 선착로 78 (동빈1가)",
    "phone": "054-289-7854",
    "latitude": "36.0486865532",
    "longitude": "129.3716421277",
    "image": "http://tong.visitkorea.or.kr/cms/resource/03/3547903_image2_1.jpg",
    "category": "전시회",
    "eventstartdate": "20251025",
    "eventenddate": "20251109"
  },
  {
    "id": "3553947",
    "title": "2025 한국공예전 <미래유산_우리가 남기고자 하는 것들에 관하여>",
    "address": "경상북도 경주시 경감로 627 (천군동)",
    "phone": "02-398-7936",
    "latitude": "35.8339676142",
    "longitude": "129.2911192494",
    "image": "http://tong.visitkorea.or.kr/cms/resource/40/3553940_image2_1.jpg",
    "category": "전시회",
    "eventstartdate": "20251027",
    "eventenddate": "20251130"
  },
  {
    "id": "3513579",
    "title": "2025 한글 국제 프레 비엔날레",
    "address": "세종특별자치시 조치원읍 새내4길 17",
    "phone": "044-850-8952",
    "latitude": "36.5979135244",
    "longitude": "127.2994995039",
    "image": "http://tong.visitkorea.or.kr/cms/resource/46/3514246_image2_1.jpg",
    "category": "전시회",
    "eventstartdate": "20250901",
    "eventenddate": "20251012"
  },
  {
    "id": "606549",
    "title": "2025년 제23회 동강국제사진제",
    "address": "강원특별자치도 영월군 영월읍 영월로 1909-10",
    "phone": "033-375-4554",
    "latitude": "37.1819649455",
    "longitude": "128.4614813986",
    "image": "http://tong.visitkorea.or.kr/cms/resource/93/3502693_image2_1.jpg",
    "category": "전시회",
    "eventstartdate": "20250711",
    "eventenddate": "20250928"
  },
  {
    "id": "2737313",
    "title": "2025섬진강국제실험예술제(SIEAF)",
    "address": "전라남도 곡성군 죽곡면 섬진강로 1012",
    "phone": "010-2344-5004",
    "latitude": "35.1919998595",
    "longitude": "127.3775297835",
    "image": "http://tong.visitkorea.or.kr/cms/resource/61/3534861_image2_1.jpg",
    "category": "전시회",
    "eventstartdate": "20251023",
    "eventenddate": "20251027"
  }
]