[
  {
    "id": "3484037",
    "title": "광무대 목요풍류",
    "address": "서울특별시 종로구 종로 272 (종로6가)",
    "phone": "02-580-3276",
    "latitude": "37.5708709408",
    "longitude": "127.0081070890",
    "image": "http://tong.visitkorea.or.kr/cms/resource/34/3484034_image2_1.jpg",
    "category": "전통공연",
    "eventstartdate": "20250403",
    "eventenddate": "20251225"
  },
  {
    "id": "2809535",
    "title": "남산봉수의식 등 전통문화행사",
    "address": "서울특별시 종로구 종로 54 (관철동)",
    "phone": "02-6462-7405",
    "latitude": "37.5698206245",
    "longitude": "126.9836898995",
    "image": "http://tong.visitkorea.or.kr/cms/resource/85/3486485_image2_1.jpg",
    "category": "전통공연",
    "eventstartdate": "20250101",
    "eventenddate": "20251231"
  },
  {
    "id": "3429922",
    "title": "대전시립연정국악단 토요국악",
    "address": "대전광역시 서구 둔산대로 181 (만년동)",
    "phone": "042-270-8585",
    "latitude": "36.3663860994",
    "longitude": "127.3894005357",
    "image": "http://tong.visitkorea.or.kr/cms/resource/64/3480464_image2_1.jpg",
    "category": "전통공연",
    "eventstartdate": "20250308",
    "eventenddate": "20251122"
  },
  {
    "id": "292961",
    "title": "서울 왕궁수문장 교대의식",
    "address": "서울특별시 중구 세종대로 99 (정동)",
    "phone": "02-6242-7402",
    "latitude": "37.5651071556",
    "longitude": "126.9765906796",
    "image": "http://tong.visitkorea.or.kr/cms/resource/45/3520845_image2_1.jpg",
    "category": "전통공연",
    "eventstartdate": "20250101",
    "eventenddate": "20251231"
  },
  {
    "id": "3021908",
    "title": "서울발레페스티벌 서울국제발레위크",
    "address": "서울특별시 송파구 석촌호수로 191 (잠실동)",
    "phone": "02-3442-2637",
    "latitude": "37.5068688853",
    "longitude": "127.0982534743",
    "image": "http://tong.visitkorea.or.kr/cms/resource/69/3546369_image2_1.jpg",
    "category": "전통공연",
    "eventstartdate": "20251017",
    "eventenddate": "20251019"
  },
  {
    "id": "3560787",
    "title": "양강섬예술축제",
    "address": "경기도 양평군 양평읍 양평체육공원길 13",
    "phone": "031-772-2622",
    "latitude": "37.4831816818",
    "longitude": "127.4986816658",
    "image": "http://tong.visitkorea.or.kr/cms/resource/80/3560780_image2_1.png",
    "category": "전통공연",
    "eventstartdate": "20251108",
    "eventenddate": "20251108"
  },
  {
    "id": "3497454",
    "title": "의정부지 역사유적광장 전통무예행사",
    "address": "서울특별시 종로구 종로1길 45 (세종로)",
    "phone": "02-6958-5444",
    "latitude": "37.5746727436",
    "longitude": "126.9783985779",
    "image": "http://tong.visitkorea.or.kr/cms/resource/53/3497453_image2_1.jpg",
    "category": "전통공연",
    "eventstartdate": "20250506",
    "eventenddate": "20251008"
  },
  {
    "id": "3482443",
    "title": "종묘제례악 야간 공연",
    "address": "서울특별시 종로구 종로 157 (훈정동)",
    "phone": "1522-2295",
    "latitude": "37.5710345779",
    "longitude": "126.9951471543",
    "image": "http://tong.visitkorea.or.kr/cms/resource/24/3484124_image2_1.jpg",
    "category": "전통공연",
    "eventstartdate": "20250424",
    "eventenddate": "20250502"
  },
  {
    "id": "293030",
    "title": "2024 안성 남사당 상설공연 '곰뱅이텄다'",
    "address": "경기도 안성시 보개면 남사당로 198-2",
    "phone": "031-678-2518",
    "latitude": "37.0318221187",
    "longitude": "127.3101448759",
    "image": "http://tong.visitkorea.or.kr/cms/resource/05/3107105_image2_1.png",
    "category": "전통공연",
    "eventstartdate": "20240406",
    "eventenddate": "20241124"
  },
  {
    "id": "2611054",
    "title": "2025 경주국악여행 '국악한판'",
    "address": "경상북도 경주시 교촌길 39-2 (교동)",
    "phone": "054-777-6783",
    "latitude": "35.8297055408",
    "longitude": "129.2147788361",
    "image": "http://tong.visitkorea.or.kr/cms/resource/80/3490380_image2_1.png",
    "category": "전통공연",
    "eventstartdate": "20250419",
    "eventenddate": "20251005"
  },
  {
    "id": "2853386",
    "title": "2025 단단단페스티벌",
    "address": "강원특별자치도 강릉시 단오장길 1 (노암동)",
    "phone": "033-641-1593",
    "latitude": "37.7482551607",
    "longitude": "128.8950697583",
    "image": "http://tong.visitkorea.or.kr/cms/resource/46/3562846_image2_1.jpg",
    "category": "전통공연",
    "eventstartdate": "20251127",
    "eventenddate": "20251129"
  },
  {
    "id": "2993282",
    "title": "2025 우리가락 우리마당 '新명불허전'",
    "address": "전북특별자치도 전주시 완산구 효자로 225 (효자동3가)",
    "phone": "010-3380-1902",
    "latitude": "35.8192769633",
    "longitude": "127.1104844388",
    "image": "http://tong.visitkorea.or.kr/cms/resource/35/3532535_image2_1.jpg",
    "category": "전통공연",
    "eventstartdate": "20250712",
    "eventenddate": "20250927"
  },
  {
    "id": "3557873",
    "title": "2025 은행나무길 거리예술제",
    "address": "충청남도 아산시 염치읍 은행나무길 293",
    "phone": "041-540-2428",
    "latitude": "36.8005908030",
    "longitude": "127.0188136657",
    "image": "http://tong.visitkorea.or.kr/cms/resource/72/3557872_image2_1.png",
    "category": "전통공연",
    "eventstartdate": "20251101",
    "eventenddate": "20251102"
  },
  {
    "id": "3526946",
    "title": "2025년 APEC 정상회의 기념공연 <서라벌 풍류>",
    "address": "경상북도 경주시 보문로 446 (신평동)",
    "phone": "02-580-3276",
    "latitude": "35.8437414327",
    "longitude": "129.2869971085",
    "image": "http://tong.visitkorea.or.kr/cms/resource/45/3526945_image2_1.png",
    "category": "전통공연",
    "eventstartdate": "20250823",
    "eventenddate": "20251029"
  }
]