[
  {
    "id": "3534489",
    "title": "시흥아트센터 프리뷰 페스타",
    "address": "경기도 시흥시 배곧2로 25 (배곧동)",
    "phone": "031-310-4056~9",
    "latitude": "37.3714612159",
    "longitude": "126.7214915674",
    "image": "http://tong.visitkorea.or.kr/cms/resource/86/3534486_image2_1.jpg",
    "category": "클래식음악회",
    "eventstartdate": "",
    "eventenddate": ""
  },
  {
    "id": "1817328",
    "title": "한국경제인협회와 함께하는 2025 서울시립교향악단 강변음악회",
    "address": "서울특별시 영등포구 한강남자전거길 1451 (여의도동)",
    "phone": "1588-1210",
    "latitude": "37.5309019230",
    "longitude": "126.9277599856",
    "image": "http://tong.visitkorea.or.kr/cms/resource/62/3492862_image2_1.jpg",
    "category": "클래식음악회",
    "eventstartdate": "",
    "eventenddate": ""
  },
  {
    "id": "3547386",
    "title": "한국전력과 함께하는 2025 희망·사랑 나눔 콘서트",
    "address": "전라남도 장성군 장성읍 문화로 110",
    "phone": "070-4242-0838",
    "latitude": "35.3016853956",
    "longitude": "126.7675670383",
    "image": "http://tong.visitkorea.or.kr/cms/resource/85/3547385_image2_1.jpg",
    "category": "클래식음악회",
    "eventstartdate": "",
    "eventenddate": ""
  },
  {
    "id": "3525756",
    "title": "2025 유네스코 인류무형유산 초청공연 <어둠에서 피어난 민중의 노래, 그리스 레베티코>",
    "address": "전북특별자치도 전주시 완산구 서학로 95 (동서학동)",
    "phone": "02-2039-0342",
    "latitude": "35.8099038819",
    "longitude": "127.1596636399",
    "image": "http://tong.visitkorea.or.kr/cms/resource/55/3525755_image2_1.jpg",
    "category": "클래식음악회",
    "eventstartdate": "",
    "eventenddate": ""
  },
  {
    "id": "590921",
    "title": "2025 평창대관령음악제",
    "address": "강원특별자치도 평창군 대관령면 솔봉로 325",
    "phone": "033-240-1364",
    "latitude": "37.6609136479",
    "longitude": "128.6685317384",
    "image": "http://tong.visitkorea.or.kr/cms/resource/92/3502592_image2_1.png",
    "category": "클래식음악회",
    "eventstartdate": "",
    "eventenddate": ""
  }
]